{
"type": "FeatureCollection",
"features": [
{ "type": "Feature", "properties": { "store_number": "8344", "street": "966 Route 17 N", "city": "Ramsey", "state": "NJ", "zip": "07446", "latitude": 41.06598639, "longitude": -74.13065176000001, "state_name": "New Jersey", "brand": "Wawa", "updated": "2024-03-10" }, "geometry": { "type": "Point", "coordinates": [ -74.13065176, 41.06598639 ] } },
{ "type": "Feature", "properties": { "store_number": "8326", "street": "150 Essex Street", "city": "Lodi", "state": "NJ", "zip": "07644-2701", "latitude": 40.89193, "longitude": -74.073249, "state_name": "New Jersey", "brand": "Wawa", "updated": "2024-03-10" }, "geometry": { "type": "Point", "coordinates": [ -74.073249, 40.89193 ] } },
{ "type": "Feature", "properties": { "store_number": "8338", "street": "505 S River Street", "city": "Hackensack", "state": "NJ", "zip": "07601-6621", "latitude": 40.8627, "longitude": -74.0363, "state_name": "New Jersey", "brand": "Wawa", "updated": "2024-03-10" }, "geometry": { "type": "Point", "coordinates": [ -74.0363, 40.8627 ] } },
{ "type": "Feature", "properties": { "store_number": "8335", "street": "7 Jewell St", "city": "Garfield", "state": "NJ", "zip": "07026-3715", "latitude": 40.881211, "longitude": -74.119048, "state_name": "New Jersey", "brand": "Wawa", "updated": "2024-03-10" }, "geometry": { "type": "Point", "coordinates": [ -74.119048, 40.881211 ] } },
{ "type": "Feature", "properties": { "store_number": "8353", "street": "7408 Tonnelle Ave", "city": "North Bergen", "state": "NJ", "zip": "07047", "latitude": 40.803289, "longitude": -74.019006, "state_name": "New Jersey", "brand": "Wawa", "updated": "2024-03-10" }, "geometry": { "type": "Point", "coordinates": [ -74.019006, 40.803289 ] } },
{ "type": "Feature", "properties": { "store_number": "8457", "street": "1512 Route 23", "city": "Butler", "state": "NJ", "zip": "07405", "latitude": 41.003617, "longitude": -74.356339, "state_name": "New Jersey", "brand": "Wawa", "updated": "2024-03-10" }, "geometry": { "type": "Point", "coordinates": [ -74.356339, 41.003617 ] } },
{ "type": "Feature", "properties": { "store_number": "8487", "street": "1512 Route 23", "city": "Wayne", "state": "NJ", "zip": "07470", "latitude": 40.935548, "longitude": -74.268438, "state_name": "New Jersey", "brand": "Wawa", "updated": "2024-03-10" }, "geometry": { "type": "Point", "coordinates": [ -74.268438, 40.935548 ] } },
{ "type": "Feature", "properties": { "store_number": "8349", "street": "28 Little Falls Road", "city": "Fairfield", "state": "NJ", "zip": "07004", "latitude": 40.888292, "longitude": -74.273566, "state_name": "New Jersey", "brand": "Wawa", "updated": "2024-03-10" }, "geometry": { "type": "Point", "coordinates": [ -74.273566, 40.888292 ] } },
{ "type": "Feature", "properties": { "store_number": "8441", "street": "11 South Franklin Ave", "city": "Belleville", "state": "NJ", "zip": "07109", "latitude": 40.78890123, "longitude": -74.17269903, "state_name": "New Jersey", "brand": "Wawa", "updated": "2024-03-10" }, "geometry": { "type": "Point", "coordinates": [ -74.17269903, 40.78890123 ] } },
{ "type": "Feature", "properties": { "store_number": "8318", "street": "200 Harrison Ave", "city": "Kearny", "state": "NJ", "zip": "07032", "latitude": 40.748888, "longitude": -74.13657, "state_name": "New Jersey", "brand": "Wawa", "updated": "2024-03-10" }, "geometry": { "type": "Point", "coordinates": [ -74.13657, 40.748888 ] } },
{ "type": "Feature", "properties": { "store_number": "8438", "street": "1 Njsh 15", "city": "Augusta", "state": "NJ", "zip": "07822", "latitude": 41.119196, "longitude": -74.712797, "state_name": "New Jersey", "brand": "Wawa", "updated": "2024-03-10" }, "geometry": { "type": "Point", "coordinates": [ -74.712797, 41.119196 ] } },
{ "type": "Feature", "properties": { "store_number": "8455", "street": "164 Main Street", "city": "Orange", "state": "NJ", "zip": "07050", "latitude": 40.76999624, "longitude": -74.22589676, "state_name": "New Jersey", "brand": "Wawa", "updated": "2024-03-10" }, "geometry": { "type": "Point", "coordinates": [ -74.22589676, 40.76999624 ] } },
{ "type": "Feature", "properties": { "store_number": "8302", "street": "350 New Road & Edwards Road", "city": "Parsippany", "state": "NJ", "zip": "07054", "latitude": 40.85007, "longitude": -74.350742, "state_name": "New Jersey", "brand": "Wawa", "updated": "2024-03-10" }, "geometry": { "type": "Point", "coordinates": [ -74.350742, 40.85007 ] } },
{ "type": "Feature", "properties": { "store_number": "8488", "street": "370 Rt 46 East", "city": "Mountain Lakes", "state": "NJ", "zip": "07046", "latitude": 40.885046, "longitude": -74.463744, "state_name": "New Jersey", "brand": "Wawa", "updated": "2024-03-10" }, "geometry": { "type": "Point", "coordinates": [ -74.463744, 40.885046 ] } },
{ "type": "Feature", "properties": { "store_number": "8429", "street": "767 State Route 15 South", "city": "Lake Hopatcong", "state": "NJ", "zip": "07849", "latitude": 40.9615, "longitude": -74.597, "state_name": "New Jersey", "brand": "Wawa", "updated": "2024-03-10" }, "geometry": { "type": "Point", "coordinates": [ -74.597, 40.9615 ] } },
{ "type": "Feature", "properties": { "store_number": "8350", "street": "1511 Springfield Ave", "city": "Maplewood", "state": "NJ", "zip": "07040", "latitude": 40.723, "longitude": -74.2525, "state_name": "New Jersey", "brand": "Wawa", "updated": "2024-03-10" }, "geometry": { "type": "Point", "coordinates": [ -74.2525, 40.723 ] } },
{ "type": "Feature", "properties": { "store_number": "8410", "street": "28 Route 10", "city": "East Hanover", "state": "NJ", "zip": "07936", "latitude": 40.8129, "longitude": -74.3916, "state_name": "New Jersey", "brand": "Wawa", "updated": "2024-03-10" }, "geometry": { "type": "Point", "coordinates": [ -74.3916, 40.8129 ] } },
{ "type": "Feature", "properties": { "store_number": "8320", "street": "595 Spring St", "city": "Elizabeth", "state": "NJ", "zip": "07201-2028", "latitude": 40.67318, "longitude": -74.199879, "state_name": "New Jersey", "brand": "Wawa", "updated": "2024-03-10" }, "geometry": { "type": "Point", "coordinates": [ -74.199879, 40.67318 ] } },
{ "type": "Feature", "properties": { "store_number": "8465", "street": "1750 Route 22 East", "city": "Union", "state": "NJ", "zip": "07083", "latitude": 40.695865, "longitude": -74.25417, "state_name": "New Jersey", "brand": "Wawa", "updated": "2024-03-10" }, "geometry": { "type": "Point", "coordinates": [ -74.25417, 40.695865 ] } },
{ "type": "Feature", "properties": { "store_number": "8445", "street": "685 Morris Turnpike", "city": "Springfield", "state": "NJ", "zip": "07081", "latitude": 40.7177, "longitude": -74.3296, "state_name": "New Jersey", "brand": "Wawa", "updated": "2024-03-10" }, "geometry": { "type": "Point", "coordinates": [ -74.3296, 40.7177 ] } },
{ "type": "Feature", "properties": { "store_number": "8439", "street": "1951 E Edgar Road", "city": "Linden", "state": "NJ", "zip": "07036", "latitude": 40.645463, "longitude": -74.227328, "state_name": "New Jersey", "brand": "Wawa", "updated": "2024-03-10" }, "geometry": { "type": "Point", "coordinates": [ -74.227328, 40.645463 ] } },
{ "type": "Feature", "properties": { "store_number": "8434", "street": "358 Route 10", "city": "Randolph", "state": "NJ", "zip": "07869", "latitude": 40.864715, "longitude": -74.55761, "state_name": "New Jersey", "brand": "Wawa", "updated": "2024-03-10" }, "geometry": { "type": "Point", "coordinates": [ -74.55761, 40.864715 ] } },
{ "type": "Feature", "properties": { "store_number": "8392", "street": "1187 St. George Avenue", "city": "Roselle", "state": "NJ", "zip": "07203", "latitude": 40.646996, "longitude": -74.249952, "state_name": "New Jersey", "brand": "Wawa", "updated": "2024-03-10" }, "geometry": { "type": "Point", "coordinates": [ -74.249952, 40.646996 ] } },
{ "type": "Feature", "properties": { "store_number": "8379", "street": "500 North Avenue E.", "city": "Cranford", "state": "NJ", "zip": "07016", "latitude": 40.658785, "longitude": -74.284304, "state_name": "New Jersey", "brand": "Wawa", "updated": "2024-03-10" }, "geometry": { "type": "Point", "coordinates": [ -74.284304, 40.658785 ] } },
{ "type": "Feature", "properties": { "store_number": "8497", "street": "800 W. Edgar Road", "city": "Linden", "state": "NJ", "zip": "07036", "latitude": 40.619175, "longitude": -74.251091, "state_name": "New Jersey", "brand": "Wawa", "updated": "2024-03-10" }, "geometry": { "type": "Point", "coordinates": [ -74.251091, 40.619175 ] } },
{ "type": "Feature", "properties": { "store_number": "8389", "street": "280 St. George Avenue", "city": "Rahway", "state": "NJ", "zip": "07065", "latitude": 40.595664, "longitude": -74.29133, "state_name": "New Jersey", "brand": "Wawa", "updated": "2024-03-10" }, "geometry": { "type": "Point", "coordinates": [ -74.29133, 40.595664 ] } },
{ "type": "Feature", "properties": { "store_number": "8323", "street": "930 Us Highway 1 North", "city": "Avenel", "state": "NJ", "zip": "07001-1321", "latitude": 40.577105, "longitude": -74.287018, "state_name": "New Jersey", "brand": "Wawa", "updated": "2024-03-10" }, "geometry": { "type": "Point", "coordinates": [ -74.287018, 40.577105 ] } },
{ "type": "Feature", "properties": { "store_number": "8464", "street": "1470 South Avenue", "city": "Plainfield", "state": "NJ", "zip": "07062", "latitude": 40.63461741, "longitude": -74.39272734, "state_name": "New Jersey", "brand": "Wawa", "updated": "2024-03-10" }, "geometry": { "type": "Point", "coordinates": [ -74.39272734, 40.63461741 ] } },
{ "type": "Feature", "properties": { "store_number": "8306", "street": "75 Appleton Avenue", "city": "Leonardo", "state": "NJ", "zip": "07737-1348", "latitude": 40.415506, "longitude": -74.066539, "state_name": "New Jersey", "brand": "Wawa", "updated": "2024-03-10" }, "geometry": { "type": "Point", "coordinates": [ -74.066539, 40.415506 ] } },
{ "type": "Feature", "properties": { "store_number": "8317", "street": "440 King Georges Road", "city": "Woodbridge", "state": "NJ", "zip": "07095-1019", "latitude": 40.536127, "longitude": -74.297496, "state_name": "New Jersey", "brand": "Wawa", "updated": "2024-03-10" }, "geometry": { "type": "Point", "coordinates": [ -74.297496, 40.536127 ] } },
{ "type": "Feature", "properties": { "store_number": "8397", "street": "855 Us 22 & Wilson Ave", "city": "North Plainfield", "state": "NJ", "zip": "07060", "latitude": 40.624212, "longitude": -74.443518, "state_name": "New Jersey", "brand": "Wawa", "updated": "2024-03-10" }, "geometry": { "type": "Point", "coordinates": [ -74.443518, 40.624212 ] } },
{ "type": "Feature", "properties": { "store_number": "8460", "street": "1230 Hwy 35", "city": "Middletown", "state": "NJ", "zip": "07748-2013", "latitude": 40.39775537, "longitude": -74.11400196, "state_name": "New Jersey", "brand": "Wawa", "updated": "2024-03-10" }, "geometry": { "type": "Point", "coordinates": [ -74.11400196, 40.39775537 ] } },
{ "type": "Feature", "properties": { "store_number": "8417", "street": "1413 Highway 36", "city": "Hazlet", "state": "NJ", "zip": "07730", "latitude": 40.429535, "longitude": -74.189817, "state_name": "New Jersey", "brand": "Wawa", "updated": "2024-03-10" }, "geometry": { "type": "Point", "coordinates": [ -74.189817, 40.429535 ] } },
{ "type": "Feature", "properties": { "store_number": "8026", "street": "5121 Milford Road", "city": "East Stroudsburg", "state": "PA", "zip": "18302-9106", "latitude": 41.055439, "longitude": -75.094108, "state_name": "Pennsylvania", "brand": "Wawa", "updated": "2024-03-10" }, "geometry": { "type": "Point", "coordinates": [ -75.094108, 41.055439 ] } },
{ "type": "Feature", "properties": { "store_number": "8390", "street": "299 Mountain Ave", "city": "Hackettstown", "state": "NJ", "zip": "07840", "latitude": 40.83658, "longitude": -74.822702, "state_name": "New Jersey", "brand": "Wawa", "updated": "2024-03-10" }, "geometry": { "type": "Point", "coordinates": [ -74.822702, 40.83658 ] } },
{ "type": "Feature", "properties": { "store_number": "0976", "street": "204 Highway 35", "city": "Keyport", "state": "NJ", "zip": "07735", "latitude": 40.440449, "longitude": -74.22501, "state_name": "New Jersey", "brand": "Wawa", "updated": "2024-03-10" }, "geometry": { "type": "Point", "coordinates": [ -74.22501, 40.440449 ] } },
{ "type": "Feature", "properties": { "store_number": "0790", "street": "14 North Bridge Ave.", "city": "Red Bank", "state": "NJ", "zip": "07701", "latitude": 40.351151, "longitude": -74.076, "state_name": "New Jersey", "brand": "Wawa", "updated": "2024-03-10" }, "geometry": { "type": "Point", "coordinates": [ -74.076, 40.351151 ] } },
{ "type": "Feature", "properties": { "store_number": "8365", "street": "2720 Woodbridge Ave", "city": "Edison", "state": "NJ", "zip": "08837", "latitude": 40.511759, "longitude": -74.363493, "state_name": "New Jersey", "brand": "Wawa", "updated": "2024-03-10" }, "geometry": { "type": "Point", "coordinates": [ -74.363493, 40.511759 ] } },
{ "type": "Feature", "properties": { "store_number": "8386", "street": "555 New Durham Rd", "city": "Piscataway", "state": "NJ", "zip": "08854", "latitude": 40.545893, "longitude": -74.426042, "state_name": "New Jersey", "brand": "Wawa", "updated": "2024-03-10" }, "geometry": { "type": "Point", "coordinates": [ -74.426042, 40.545893 ] } },
{ "type": "Feature", "properties": { "store_number": "8404", "street": "969 Route 9", "city": "South Amboy", "state": "NJ", "zip": "08879", "latitude": 40.46075, "longitude": -74.295154, "state_name": "New Jersey", "brand": "Wawa", "updated": "2024-03-10" }, "geometry": { "type": "Point", "coordinates": [ -74.295154, 40.46075 ] } },
{ "type": "Feature", "properties": { "store_number": "8406", "street": "580 Route 1", "city": "Edison", "state": "NJ", "zip": "08817", "latitude": 40.5067, "longitude": -74.393305, "state_name": "New Jersey", "brand": "Wawa", "updated": "2024-03-10" }, "geometry": { "type": "Point", "coordinates": [ -74.393305, 40.5067 ] } },
{ "type": "Feature", "properties": { "store_number": "8368", "street": "151A Highway 35", "city": "Eatontown", "state": "NJ", "zip": "07724", "latitude": 40.294496, "longitude": -74.052162, "state_name": "New Jersey", "brand": "Wawa", "updated": "2024-03-10" }, "geometry": { "type": "Point", "coordinates": [ -74.052162, 40.294496 ] } },
{ "type": "Feature", "properties": { "store_number": "0934", "street": "177 Highway 34", "city": "Matawan", "state": "NJ", "zip": "07747-2130", "latitude": 40.425542, "longitude": -74.28648, "state_name": "New Jersey", "brand": "Wawa", "updated": "2024-03-10" }, "geometry": { "type": "Point", "coordinates": [ -74.28648, 40.425542 ] } },
{ "type": "Feature", "properties": { "store_number": "8450", "street": "308 Highway 35", "city": "Eatontown", "state": "NJ", "zip": "07724", "latitude": 40.279043, "longitude": -74.047547, "state_name": "New Jersey", "brand": "Wawa", "updated": "2024-03-10" }, "geometry": { "type": "Point", "coordinates": [ -74.047547, 40.279043 ] } },
{ "type": "Feature", "properties": { "store_number": "0781", "street": "42 Washington Road (@ Jernee M", "city": "Sayreville", "state": "NJ", "zip": "08872", "latitude": 40.454984, "longitude": -74.367611, "state_name": "New Jersey", "brand": "Wawa", "updated": "2024-03-10" }, "geometry": { "type": "Point", "coordinates": [ -74.367611, 40.454984 ] } },
{ "type": "Feature", "properties": { "store_number": "8341", "street": "580 Union Ave", "city": "Bridgewater", "state": "NJ", "zip": "08807-3146", "latitude": 40.567578, "longitude": -74.563748, "state_name": "New Jersey", "brand": "Wawa", "updated": "2024-03-10" }, "geometry": { "type": "Point", "coordinates": [ -74.563748, 40.567578 ] } },
{ "type": "Feature", "properties": { "store_number": "0983", "street": "656 Old Bridge Pike", "city": "South River", "state": "NJ", "zip": "08882", "latitude": 40.46173096, "longitude": -74.4005127, "state_name": "New Jersey", "brand": "Wawa", "updated": "2024-03-10" }, "geometry": { "type": "Point", "coordinates": [ -74.4005127, 40.46173096 ] } },
{ "type": "Feature", "properties": { "store_number": "8369", "street": "1611 Route 35", "city": "Oakhurst", "state": "NJ", "zip": "07755", "latitude": 40.25305, "longitude": -74.038746, "state_name": "New Jersey", "brand": "Wawa", "updated": "2024-03-10" }, "geometry": { "type": "Point", "coordinates": [ -74.038746, 40.25305 ] } },
{ "type": "Feature", "properties": { "store_number": "8376", "street": "607 Somerset St", "city": "Somerset", "state": "NJ", "zip": "08873", "latitude": 40.486792, "longitude": -74.470439, "state_name": "New Jersey", "brand": "Wawa", "updated": "2024-03-10" }, "geometry": { "type": "Point", "coordinates": [ -74.470439, 40.486792 ] } },
{ "type": "Feature", "properties": { "store_number": "0112", "street": "207 Prospect Street", "city": "East Stroudsburg", "state": "PA", "zip": "18301", "latitude": 40.993871, "longitude": -75.17708, "state_name": "Pennsylvania", "brand": "Wawa", "updated": "2024-03-10" }, "geometry": { "type": "Point", "coordinates": [ -75.17708, 40.993871 ] } },
{ "type": "Feature", "properties": { "store_number": "8435", "street": "933 Livingston Ave", "city": "North Brunswick", "state": "NJ", "zip": "08902", "latitude": 40.470858, "longitude": -74.469515, "state_name": "New Jersey", "brand": "Wawa", "updated": "2024-03-10" }, "geometry": { "type": "Point", "coordinates": [ -74.469515, 40.470858 ] } },
{ "type": "Feature", "properties": { "store_number": "0914", "street": "426 Ryders Land", "city": "East Brunswick", "state": "NJ", "zip": "08816-2763", "latitude": 40.435901, "longitude": -74.422174, "state_name": "New Jersey", "brand": "Wawa", "updated": "2024-03-10" }, "geometry": { "type": "Point", "coordinates": [ -74.422174, 40.435901 ] } },
{ "type": "Feature", "properties": { "store_number": "8412", "street": "1910 Route 27", "city": "North Brunswick", "state": "NJ", "zip": "08902", "latitude": 40.46100722, "longitude": -74.50704742000001, "state_name": "New Jersey", "brand": "Wawa", "updated": "2024-03-10" }, "geometry": { "type": "Point", "coordinates": [ -74.50704742, 40.46100722 ] } },
{ "type": "Feature", "properties": { "store_number": "0940", "street": "1453 Rt. 18", "city": "Old Bridge", "state": "NJ", "zip": "08857", "latitude": 40.390819, "longitude": -74.339881, "state_name": "New Jersey", "brand": "Wawa", "updated": "2024-03-10" }, "geometry": { "type": "Point", "coordinates": [ -74.339881, 40.390819 ] } },
{ "type": "Feature", "properties": { "store_number": "8315", "street": "3600 Rt 9 South", "city": "Old Bridge", "state": "NJ", "zip": "08857-3516", "latitude": 40.377509, "longitude": -74.308024, "state_name": "New Jersey", "brand": "Wawa", "updated": "2024-03-10" }, "geometry": { "type": "Point", "coordinates": [ -74.308024, 40.377509 ] } },
{ "type": "Feature", "properties": { "store_number": "8366", "street": "3222 Rt. 27", "city": "Kendall Park", "state": "NJ", "zip": "08824", "latitude": 40.432618, "longitude": -74.547359, "state_name": "New Jersey", "brand": "Wawa", "updated": "2024-03-10" }, "geometry": { "type": "Point", "coordinates": [ -74.547359, 40.432618 ] } },
{ "type": "Feature", "properties": { "store_number": "8660", "street": "1215 Seminole Trail", "city": "Charlottesville", "state": "VA", "zip": "22901", "latitude": 38.06995296, "longitude": -78.4842721, "state_name": "Virginia", "brand": "Wawa", "updated": "2024-03-10" }, "geometry": { "type": "Point", "coordinates": [ -78.4842721, 38.06995296 ] } },
{ "type": "Feature", "properties": { "store_number": "8659", "street": "3267 Proffit Rd", "city": "Charlottesville", "state": "VA", "zip": "22911", "latitude": 38.13224965, "longitude": -78.43423773000001, "state_name": "Virginia", "brand": "Wawa", "updated": "2024-03-10" }, "geometry": { "type": "Point", "coordinates": [ -78.43423773, 38.13224965 ] } },
{ "type": "Feature", "properties": { "store_number": "8667", "street": "820 Pantops Corner Way", "city": "Charlottesville", "state": "VA", "zip": "22911", "latitude": 38.03389709, "longitude": -78.45362913, "state_name": "Virginia", "brand": "Wawa", "updated": "2024-03-10" }, "geometry": { "type": "Point", "coordinates": [ -78.45362913, 38.03389709 ] } },
{ "type": "Feature", "properties": { "store_number": "8513", "street": "1001 W Patrick St", "city": "Frederick", "state": "MD", "zip": "21702-3903", "latitude": 39.41707, "longitude": -77.438781, "state_name": "Maryland", "brand": "Wawa", "updated": "2024-03-10" }, "geometry": { "type": "Point", "coordinates": [ -77.438781, 39.41707 ] } },
{ "type": "Feature", "properties": { "store_number": "0554", "street": "5833 Ballanger Creek Pike", "city": "Frederick", "state": "MD", "zip": "21703", "latitude": 39.392159, "longitude": -77.438231, "state_name": "Maryland", "brand": "Wawa", "updated": "2024-03-10" }, "geometry": { "type": "Point", "coordinates": [ -77.438231, 39.392159 ] } },
{ "type": "Feature", "properties": { "store_number": "8505", "street": "5440 Urbana Pike", "city": "Frederick", "state": "MD", "zip": "21703-7332", "latitude": 39.381549, "longitude": -77.40087, "state_name": "Maryland", "brand": "Wawa", "updated": "2024-03-10" }, "geometry": { "type": "Point", "coordinates": [ -77.40087, 39.381549 ] } },
{ "type": "Feature", "properties": { "store_number": "8622", "street": "510 Frost Avenue", "city": "Warrenton", "state": "VA", "zip": "20186", "latitude": 38.716614, "longitude": -77.808854, "state_name": "Virginia", "brand": "Wawa", "updated": "2024-03-10" }, "geometry": { "type": "Point", "coordinates": [ -77.808854, 38.716614 ] } },
{ "type": "Feature", "properties": { "store_number": "0651", "street": "14461 Lee Hwy.", "city": "Gainesville", "state": "VA", "zip": "20155", "latitude": 38.792423, "longitude": -77.62237, "state_name": "Virginia", "brand": "Wawa", "updated": "2024-03-10" }, "geometry": { "type": "Point", "coordinates": [ -77.62237, 38.792423 ] } },
{ "type": "Feature", "properties": { "store_number": "8662", "street": "45950 Russel Branch Parkway", "city": "Sterling", "state": "VA", "zip": "20166", "latitude": 39.02796331, "longitude": -77.43632063, "state_name": "Virginia", "brand": "Wawa", "updated": "2024-03-10" }, "geometry": { "type": "Point", "coordinates": [ -77.43632063, 39.02796331 ] } },
{ "type": "Feature", "properties": { "store_number": "8640", "street": "23055 Oakgrove Road", "city": "Sterling", "state": "VA", "zip": "20166", "latitude": 38.977994, "longitude": -77.411535, "state_name": "Virginia", "brand": "Wawa", "updated": "2024-03-10" }, "geometry": { "type": "Point", "coordinates": [ -77.411535, 38.977994 ] } },
{ "type": "Feature", "properties": { "store_number": "8658", "street": "10691 Davidson Place", "city": "Manassas", "state": "VA", "zip": "20109", "latitude": 38.79332, "longitude": -77.515527, "state_name": "Virginia", "brand": "Wawa", "updated": "2024-03-10" }, "geometry": { "type": "Point", "coordinates": [ -77.515527, 38.79332 ] } },
{ "type": "Feature", "properties": { "store_number": "8639", "street": "3450 Historic Sully Way", "city": "Chantilly", "state": "VA", "zip": "20151-3037", "latitude": 38.91455, "longitude": -77.4266, "state_name": "Virginia", "brand": "Wawa", "updated": "2024-03-10" }, "geometry": { "type": "Point", "coordinates": [ -77.4266, 38.91455 ] } },
{ "type": "Feature", "properties": { "store_number": "8637", "street": "11111 Nokesville Rd", "city": "Manassas", "state": "VA", "zip": "20112", "latitude": 38.737121, "longitude": -77.532174, "state_name": "Virginia", "brand": "Wawa", "updated": "2024-03-10" }, "geometry": { "type": "Point", "coordinates": [ -77.532174, 38.737121 ] } },
{ "type": "Feature", "properties": { "store_number": "0590", "street": "805 Leidy Road", "city": "Westminster", "state": "MD", "zip": "21157", "latitude": 39.561286, "longitude": -76.966855, "state_name": "Maryland", "brand": "Wawa", "updated": "2024-03-10" }, "geometry": { "type": "Point", "coordinates": [ -76.966855, 39.561286 ] } },
{ "type": "Feature", "properties": { "store_number": "8644", "street": "9471 Liberia Ave", "city": "Manassas", "state": "VA", "zip": "20110", "latitude": 38.75053, "longitude": -77.44889, "state_name": "Virginia", "brand": "Wawa", "updated": "2024-03-10" }, "geometry": { "type": "Point", "coordinates": [ -77.44889, 38.75053 ] } },
{ "type": "Feature", "properties": { "store_number": "8669", "street": "465 Maple Ave W.", "city": "Vienna", "state": "VA", "zip": "22180", "latitude": 38.894901, "longitude": -77.273923, "state_name": "Virginia", "brand": "Wawa", "updated": "2024-03-10" }, "geometry": { "type": "Point", "coordinates": [ -77.273923, 38.894901 ] } },
{ "type": "Feature", "properties": { "store_number": "8529", "street": "1310 Liberty Road", "city": "Sykesville", "state": "MD", "zip": "21784", "latitude": 39.403975, "longitude": -76.947949, "state_name": "Maryland", "brand": "Wawa", "updated": "2024-03-10" }, "geometry": { "type": "Point", "coordinates": [ -76.947949, 39.403975 ] } },
{ "type": "Feature", "properties": { "store_number": "8671", "street": "9700 Fairfax Blvd", "city": "Fairfax", "state": "VA", "zip": "22031", "latitude": 38.864645, "longitude": -77.279817, "state_name": "Virginia", "brand": "Wawa", "updated": "2024-03-10" }, "geometry": { "type": "Point", "coordinates": [ -77.279817, 38.864645 ] } },
{ "type": "Feature", "properties": { "store_number": "8674", "street": "1172 Garrisonville Road", "city": "Stafford", "state": "VA", "zip": "22556", "latitude": 38.47912846, "longitude": -77.47332854, "state_name": "Virginia", "brand": "Wawa", "updated": "2024-03-10" }, "geometry": { "type": "Point", "coordinates": [ -77.47332854, 38.47912846 ] } },
{ "type": "Feature", "properties": { "store_number": "8501", "street": "516 Main Street", "city": "Reisterstown", "state": "MD", "zip": "21136", "latitude": 39.455656, "longitude": -76.826116, "state_name": "Maryland", "brand": "Wawa", "updated": "2024-03-10" }, "geometry": { "type": "Point", "coordinates": [ -76.826116, 39.455656 ] } },
{ "type": "Feature", "properties": { "store_number": "0689", "street": "15 Eustace Road", "city": "Stafford", "state": "VA", "zip": "22554-3717", "latitude": 38.473164, "longitude": -77.43589, "state_name": "Virginia", "brand": "Wawa", "updated": "2024-03-10" }, "geometry": { "type": "Point", "coordinates": [ -77.43589, 38.473164 ] } },
{ "type": "Feature", "properties": { "store_number": "0668", "street": "830 Warrenton Road", "city": "Fredericksburg", "state": "VA", "zip": "22406-1072", "latitude": 38.355726, "longitude": -77.51019, "state_name": "Virginia", "brand": "Wawa", "updated": "2024-03-10" }, "geometry": { "type": "Point", "coordinates": [ -77.51019, 38.355726 ] } },
{ "type": "Feature", "properties": { "store_number": "0661", "street": "13355 Minneville Road", "city": "Woodbridge", "state": "VA", "zip": "22192", "latitude": 38.658928, "longitude": -77.29983, "state_name": "Virginia", "brand": "Wawa", "updated": "2024-03-10" }, "geometry": { "type": "Point", "coordinates": [ -77.29983, 38.658928 ] } },
{ "type": "Feature", "properties": { "store_number": "0664", "street": "4527 Plank Road Rte 3", "city": "Fredericksburg", "state": "VA", "zip": "22407-4811", "latitude": 38.289956, "longitude": -77.53807, "state_name": "Virginia", "brand": "Wawa", "updated": "2024-03-10" }, "geometry": { "type": "Point", "coordinates": [ -77.53807, 38.289956 ] } },
{ "type": "Feature", "properties": { "store_number": "8627", "street": "9 South Gateway Dr", "city": "Fredericksburg", "state": "VA", "zip": "22406", "latitude": 38.343527, "longitude": -77.496258, "state_name": "Virginia", "brand": "Wawa", "updated": "2024-03-10" }, "geometry": { "type": "Point", "coordinates": [ -77.496258, 38.343527 ] } },
{ "type": "Feature", "properties": { "store_number": "0697", "street": "105 Garrisonville Road", "city": "Stafford", "state": "VA", "zip": "22554-1523", "latitude": 38.467169, "longitude": -77.41198, "state_name": "Virginia", "brand": "Wawa", "updated": "2024-03-10" }, "geometry": { "type": "Point", "coordinates": [ -77.41198, 38.467169 ] } },
{ "type": "Feature", "properties": { "store_number": "8685", "street": "9235 Courthouse Road", "city": "Spotsylvania", "state": "VA", "zip": "22553", "latitude": 38.207753, "longitude": -77.580424, "state_name": "Virginia", "brand": "Wawa", "updated": "2024-03-10" }, "geometry": { "type": "Point", "coordinates": [ -77.580424, 38.207753 ] } },
{ "type": "Feature", "properties": { "store_number": "0660", "street": "1140 Carl D. Silver Parkway", "city": "Fredericksburg", "state": "VA", "zip": "22401", "latitude": 38.297254, "longitude": -77.51373, "state_name": "Virginia", "brand": "Wawa", "updated": "2024-03-10" }, "geometry": { "type": "Point", "coordinates": [ -77.51373, 38.297254 ] } },
{ "type": "Feature", "properties": { "store_number": "8679", "street": "3099 Richmond Hwy", "city": "Stafford", "state": "VA", "zip": "22554", "latitude": 38.473438, "longitude": -77.396912, "state_name": "Virginia", "brand": "Wawa", "updated": "2024-03-10" }, "geometry": { "type": "Point", "coordinates": [ -77.396912, 38.473438 ] } },
{ "type": "Feature", "properties": { "store_number": "0665", "street": "72 Austin Park Drive", "city": "Stafford", "state": "VA", "zip": "22554-8461", "latitude": 38.449699, "longitude": -77.40386, "state_name": "Virginia", "brand": "Wawa", "updated": "2024-03-10" }, "geometry": { "type": "Point", "coordinates": [ -77.40386, 38.449699 ] } },
{ "type": "Feature", "properties": { "store_number": "6004", "street": "4530 40Th Street Nw A", "city": "Washington", "state": "DC", "zip": "20016", "latitude": 38.948237, "longitude": -77.07896, "state_name": null, "brand": "Wawa", "updated": "2024-03-10" }, "geometry": { "type": "Point", "coordinates": [ -77.07896, 38.948237 ] } },
{ "type": "Feature", "properties": { "store_number": "8677", "street": "860 Richmond Hwy", "city": "Fredericksburg", "state": "VA", "zip": "22405", "latitude": 38.36427708, "longitude": -77.45611047, "state_name": "Virginia", "brand": "Wawa", "updated": "2024-03-10" }, "geometry": { "type": "Point", "coordinates": [ -77.45611047, 38.36427708 ] } },
{ "type": "Feature", "properties": { "store_number": "0667", "street": "2390 Plank Road", "city": "Fredericksburg", "state": "VA", "zip": "22401", "latitude": 38.295644, "longitude": -77.50027, "state_name": "Virginia", "brand": "Wawa", "updated": "2024-03-10" }, "geometry": { "type": "Point", "coordinates": [ -77.50027, 38.295644 ] } },
{ "type": "Feature", "properties": { "store_number": "0662", "street": "2051 Daniel Stuart Square", "city": "Woodbridge", "state": "VA", "zip": "22191", "latitude": 38.632871, "longitude": -77.27556, "state_name": "Virginia", "brand": "Wawa", "updated": "2024-03-10" }, "geometry": { "type": "Point", "coordinates": [ -77.27556, 38.632871 ] } },
{ "type": "Feature", "properties": { "store_number": "0680", "street": "15809 Jefferson Davis Highway", "city": "Woodbridge", "state": "VA", "zip": "22191-4222", "latitude": 38.60908, "longitude": -77.29007, "state_name": "Virginia", "brand": "Wawa", "updated": "2024-03-10" }, "geometry": { "type": "Point", "coordinates": [ -77.29007, 38.60908 ] } },
{ "type": "Feature", "properties": { "store_number": "0158", "street": "1990 Miller Road", "city": "East Petersburg", "state": "PA", "zip": "17520-1331", "latitude": 40.092894, "longitude": -76.35174, "state_name": "Pennsylvania", "brand": "Wawa", "updated": "2024-03-10" }, "geometry": { "type": "Point", "coordinates": [ -76.35174, 40.092894 ] } },
{ "type": "Feature", "properties": { "store_number": "0663", "street": "10626-1063 Courthouse Road", "city": "Fredericksburg", "state": "VA", "zip": "22407-1602", "latitude": 38.247741, "longitude": -77.5151, "state_name": "Virginia", "brand": "Wawa", "updated": "2024-03-10" }, "geometry": { "type": "Point", "coordinates": [ -77.5151, 38.247741 ] } },
{ "type": "Feature", "properties": { "store_number": "0653", "street": "4625 Harrison Road", "city": "Fredericksburg", "state": "VA", "zip": "22408-1838", "latitude": 38.264408, "longitude": -77.4941, "state_name": "Virginia", "brand": "Wawa", "updated": "2024-03-10" }, "geometry": { "type": "Point", "coordinates": [ -77.4941, 38.264408 ] } },
{ "type": "Feature", "properties": { "store_number": "0688", "street": "275 Butler Road", "city": "Fredericksburg", "state": "VA", "zip": "22405-2438", "latitude": 38.31648, "longitude": -77.45028, "state_name": "Virginia", "brand": "Wawa", "updated": "2024-03-10" }, "geometry": { "type": "Point", "coordinates": [ -77.45028, 38.31648 ] } },
{ "type": "Feature", "properties": { "store_number": "0691", "street": "199 Falcon Drive", "city": "Fredericksburg", "state": "VA", "zip": "22408-1930", "latitude": 38.249665, "longitude": -77.493122, "state_name": "Virginia", "brand": "Wawa", "updated": "2024-03-10" }, "geometry": { "type": "Point", "coordinates": [ -77.493122, 38.249665 ] } },
{ "type": "Feature", "properties": { "store_number": "8617", "street": "10060 Patriot Highway", "city": "Fredericksburg", "state": "VA", "zip": "22407", "latitude": 38.225972, "longitude": -77.50693, "state_name": "Virginia", "brand": "Wawa", "updated": "2024-03-10" }, "geometry": { "type": "Point", "coordinates": [ -77.50693, 38.225972 ] } },
{ "type": "Feature", "properties": { "store_number": "6003", "street": "1222 Wisconsin Avenue", "city": "Washington", "state": "DC", "zip": "20007", "latitude": 38.905979, "longitude": -77.063023, "state_name": null, "brand": "Wawa", "updated": "2024-03-10" }, "geometry": { "type": "Point", "coordinates": [ -77.063023, 38.905979 ] } },
{ "type": "Feature", "properties": { "store_number": "6001", "street": "1111 19Th St Nw", "city": "Washington", "state": "DC", "zip": "20036", "latitude": 38.9044036, "longitude": -77.0432319, "state_name": null, "brand": "Wawa", "updated": "2024-03-10" }, "geometry": { "type": "Point", "coordinates": [ -77.0432319, 38.9044036 ] } },
{ "type": "Feature", "properties": { "store_number": "0658", "street": "3402 Shannon Park Dr", "city": "Fredericksburg", "state": "VA", "zip": "22408-2373", "latitude": 38.271146, "longitude": -77.44803, "state_name": "Virginia", "brand": "Wawa", "updated": "2024-03-10" }, "geometry": { "type": "Point", "coordinates": [ -77.44803, 38.271146 ] } },
{ "type": "Feature", "properties": { "store_number": "8051", "street": "515 Lowland Road", "city": "Hamburg", "state": "PA", "zip": "19526-8708", "latitude": 40.564347, "longitude": -76.007716, "state_name": "Pennsylvania", "brand": "Wawa", "updated": "2024-03-10" }, "geometry": { "type": "Point", "coordinates": [ -76.007716, 40.564347 ] } },
{ "type": "Feature", "properties": { "store_number": "8521", "street": "9100 Riggs Rd", "city": "Hyattsville", "state": "MD", "zip": "20783", "latitude": 39.005287, "longitude": -76.970233, "state_name": "Maryland", "brand": "Wawa", "updated": "2024-03-10" }, "geometry": { "type": "Point", "coordinates": [ -76.970233, 39.005287 ] } },
{ "type": "Feature", "properties": { "store_number": "6007", "street": "1 Thomas Circle Nw", "city": "Washington", "state": "DC", "zip": "20005", "latitude": 38.90533451, "longitude": -77.03234581, "state_name": null, "brand": "Wawa", "updated": "2024-03-10" }, "geometry": { "type": "Point", "coordinates": [ -77.03234581, 38.90533451 ] } },
{ "type": "Feature", "properties": { "store_number": "0270", "street": "481 State Road 940", "city": "White Haven", "state": "PA", "zip": "18661-9513", "latitude": 41.070537, "longitude": -75.7042, "state_name": "Pennsylvania", "brand": "Wawa", "updated": "2024-03-10" }, "geometry": { "type": "Point", "coordinates": [ -75.7042, 41.070537 ] } },
{ "type": "Feature", "properties": { "store_number": "0598", "street": "2845 Rolling Road", "city": "Baltimore", "state": "MD", "zip": "21244", "latitude": 39.333142, "longitude": -76.759018, "state_name": "Maryland", "brand": "Wawa", "updated": "2024-03-10" }, "geometry": { "type": "Point", "coordinates": [ -76.759018, 39.333142 ] } },
{ "type": "Feature", "properties": { "store_number": "6008", "street": "1250 H Street Nw", "city": "Washington", "state": "DC", "zip": "20005", "latitude": 38.8997896, "longitude": -77.029591, "state_name": null, "brand": "Wawa", "updated": "2024-03-10" }, "geometry": { "type": "Point", "coordinates": [ -77.029591, 38.8997896 ] } },
{ "type": "Feature", "properties": { "store_number": "5323", "street": "4322 Sw Archer Rd", "city": "Gainesville", "state": "FL", "zip": "32608", "latitude": 29.61623, "longitude": -82.389709, "state_name": "Florida", "brand": "Wawa", "updated": "2024-03-10" }, "geometry": { "type": "Point", "coordinates": [ -82.389709, 29.61623 ] } },
{ "type": "Feature", "properties": { "store_number": "5325", "street": "2373 Sw Archer Road", "city": "Gainesville", "state": "FL", "zip": "32608", "latitude": 29.633015, "longitude": -82.358378, "state_name": "Florida", "brand": "Wawa", "updated": "2024-03-10" }, "geometry": { "type": "Point", "coordinates": [ -82.358378, 29.633015 ] } },
{ "type": "Feature", "properties": { "store_number": "5384", "street": "2305 Nw 13Th Street", "city": "Gainesville", "state": "FL", "zip": "32609", "latitude": 29.67421, "longitude": -82.33873, "state_name": "Florida", "brand": "Wawa", "updated": "2024-03-10" }, "geometry": { "type": "Point", "coordinates": [ -82.33873, 29.67421 ] } },
{ "type": "Feature", "properties": { "store_number": "5385", "street": "1614 West University Ave", "city": "Gainesville", "state": "FL", "zip": "32603", "latitude": 29.65223447, "longitude": -82.34083441, "state_name": "Florida", "brand": "Wawa", "updated": "2024-03-10" }, "geometry": { "type": "Point", "coordinates": [ -82.34083441, 29.65223447 ] } },
{ "type": "Feature", "properties": { "store_number": "5313", "street": "1007 East University Ave", "city": "Gainesville", "state": "FL", "zip": "32601", "latitude": 29.651619, "longitude": -82.312664, "state_name": "Florida", "brand": "Wawa", "updated": "2024-03-10" }, "geometry": { "type": "Point", "coordinates": [ -82.312664, 29.651619 ] } },
{ "type": "Feature", "properties": { "store_number": "5300", "street": "505 Us Ne Hwy 19", "city": "Crystal River", "state": "FL", "zip": "34429", "latitude": 28.8987, "longitude": -82.58621, "state_name": "Florida", "brand": "Wawa", "updated": "2024-03-10" }, "geometry": { "type": "Point", "coordinates": [ -82.58621, 28.8987 ] } },
{ "type": "Feature", "properties": { "store_number": "5320", "street": "2932 W Norvell Bryant Hwy", "city": "Lecanto", "state": "FL", "zip": "34461", "latitude": 28.89199, "longitude": -82.48388, "state_name": "Florida", "brand": "Wawa", "updated": "2024-03-10" }, "geometry": { "type": "Point", "coordinates": [ -82.48388, 28.89199 ] } },
{ "type": "Feature", "properties": { "store_number": "5108", "street": "8519 Us Highway 19", "city": "Port Richey", "state": "FL", "zip": "34668-5344", "latitude": 28.280989, "longitude": -82.717849, "state_name": "Florida", "brand": "Wawa", "updated": "2024-03-10" }, "geometry": { "type": "Point", "coordinates": [ -82.717849, 28.280989 ] } },
{ "type": "Feature", "properties": { "store_number": "5115", "street": "4026 Us  Hwy 19", "city": "New Port Richey", "state": "FL", "zip": "34652-5945", "latitude": 28.2175496, "longitude": -82.7365908, "state_name": "Florida", "brand": "Wawa", "updated": "2024-03-10" }, "geometry": { "type": "Point", "coordinates": [ -82.7365908, 28.2175496 ] } },
{ "type": "Feature", "properties": { "store_number": "5181", "street": "1929 Us Highway 19", "city": "Holiday", "state": "FL", "zip": "34691", "latitude": 28.186922, "longitude": -82.740844, "state_name": "Florida", "brand": "Wawa", "updated": "2024-03-10" }, "geometry": { "type": "Point", "coordinates": [ -82.740844, 28.186922 ] } },
{ "type": "Feature", "properties": { "store_number": "5275", "street": "9021 State Road 52", "city": "Hudson", "state": "FL", "zip": "34669", "latitude": 28.331677, "longitude": -82.665247, "state_name": "Florida", "brand": "Wawa", "updated": "2024-03-10" }, "geometry": { "type": "Point", "coordinates": [ -82.665247, 28.331677 ] } },
{ "type": "Feature", "properties": { "store_number": "5109", "street": "8330 Ridge Road", "city": "Port Richey", "state": "FL", "zip": "34668-6056", "latitude": 28.2799269, "longitude": -82.6768375, "state_name": "Florida", "brand": "Wawa", "updated": "2024-03-10" }, "geometry": { "type": "Point", "coordinates": [ -82.6768375, 28.2799269 ] } },
{ "type": "Feature", "properties": { "store_number": "5184", "street": "12984 Cortez Blvd", "city": "Brooksville", "state": "FL", "zip": "34613-6803", "latitude": 28.533513, "longitude": -82.5113663, "state_name": "Florida", "brand": "Wawa", "updated": "2024-03-10" }, "geometry": { "type": "Point", "coordinates": [ -82.5113663, 28.533513 ] } },
{ "type": "Feature", "properties": { "store_number": "5147", "street": "12750 Walsingham Rd", "city": "Largo", "state": "FL", "zip": "33774", "latitude": 27.87988, "longitude": -82.8153, "state_name": "Florida", "brand": "Wawa", "updated": "2024-03-10" }, "geometry": { "type": "Point", "coordinates": [ -82.8153, 27.87988 ] } },
{ "type": "Feature", "properties": { "store_number": "5176", "street": "1215 N. Missouri Ave", "city": "Largo", "state": "FL", "zip": "33770", "latitude": 27.92799, "longitude": -82.78796, "state_name": "Florida", "brand": "Wawa", "updated": "2024-03-10" }, "geometry": { "type": "Point", "coordinates": [ -82.78796, 27.92799 ] } },
{ "type": "Feature", "properties": { "store_number": "5294", "street": "26508 Us Highway 19 N.", "city": "Clearwater", "state": "FL", "zip": "33761", "latitude": 28.012926, "longitude": -82.738102, "state_name": "Florida", "brand": "Wawa", "updated": "2024-03-10" }, "geometry": { "type": "Point", "coordinates": [ -82.738102, 28.012926 ] } },
{ "type": "Feature", "properties": { "store_number": "5397", "street": "8380 Sw Hwy 200", "city": "Ocala", "state": "FL", "zip": "34481", "latitude": 29.0787322, "longitude": -82.25736551, "state_name": "Florida", "brand": "Wawa", "updated": "2024-03-10" }, "geometry": { "type": "Point", "coordinates": [ -82.25736551, 29.0787322 ] } },
{ "type": "Feature", "properties": { "store_number": "5163", "street": "2177 Gulf To Bay Blvd", "city": "Clearwater", "state": "FL", "zip": "33758-4748", "latitude": 27.96019, "longitude": -82.7466, "state_name": "Florida", "brand": "Wawa", "updated": "2024-03-10" }, "geometry": { "type": "Point", "coordinates": [ -82.7466, 27.96019 ] } },
{ "type": "Feature", "properties": { "store_number": "5141", "street": "8910 Ulmerton Rd", "city": "Largo", "state": "FL", "zip": "33771-3839", "latitude": 27.8936662, "longitude": -82.7635972, "state_name": "Florida", "brand": "Wawa", "updated": "2024-03-10" }, "geometry": { "type": "Point", "coordinates": [ -82.7635972, 27.8936662 ] } },
{ "type": "Feature", "properties": { "store_number": "5334", "street": "12048 State Road 54", "city": "Odessa", "state": "FL", "zip": "33556", "latitude": 28.189579, "longitude": -82.61631, "state_name": "Florida", "brand": "Wawa", "updated": "2024-03-10" }, "geometry": { "type": "Point", "coordinates": [ -82.61631, 28.189579 ] } },
{ "type": "Feature", "properties": { "store_number": "5291", "street": "3312 W. Silver Springs", "city": "Ocala", "state": "FL", "zip": "34475", "latitude": 29.18587, "longitude": -82.17757, "state_name": "Florida", "brand": "Wawa", "updated": "2024-03-10" }, "geometry": { "type": "Point", "coordinates": [ -82.17757, 29.18587 ] } },
{ "type": "Feature", "properties": { "store_number": "5305", "street": "4025 Sw College Rd", "city": "Ocala", "state": "FL", "zip": "34474", "latitude": 29.144903, "longitude": -82.191568, "state_name": "Florida", "brand": "Wawa", "updated": "2024-03-10" }, "geometry": { "type": "Point", "coordinates": [ -82.191568, 29.144903 ] } },
{ "type": "Feature", "properties": { "store_number": "5266", "street": "8251 Old Middleburg Rd S", "city": "Jacksonville", "state": "FL", "zip": "32222", "latitude": 30.196208, "longitude": -81.822915, "state_name": "Florida", "brand": "Wawa", "updated": "2024-03-10" }, "geometry": { "type": "Point", "coordinates": [ -81.822915, 30.196208 ] } },
{ "type": "Feature", "properties": { "store_number": "5149", "street": "15701 Us Highway 19 N", "city": "Clearwater", "state": "FL", "zip": "33764-7712", "latitude": 27.915269, "longitude": -82.728478, "state_name": "Florida", "brand": "Wawa", "updated": "2024-03-10" }, "geometry": { "type": "Point", "coordinates": [ -82.728478, 27.915269 ] } },
{ "type": "Feature", "properties": { "store_number": "5215", "street": "8800 Park Blvd", "city": "Seminole", "state": "FL", "zip": "33777", "latitude": 27.83906, "longitude": -82.76117, "state_name": "Florida", "brand": "Wawa", "updated": "2024-03-10" }, "geometry": { "type": "Point", "coordinates": [ -82.76117, 27.83906 ] } },
{ "type": "Feature", "properties": { "store_number": "5129", "street": "9501 Bay Pines Blvd", "city": "Saint Petersburg", "state": "FL", "zip": "33708-3784", "latitude": 27.8146472, "longitude": -82.7710762, "state_name": "Florida", "brand": "Wawa", "updated": "2024-03-10" }, "geometry": { "type": "Point", "coordinates": [ -82.7710762, 27.8146472 ] } },
{ "type": "Feature", "properties": { "store_number": "5289", "street": "1563 Blanding Blvd", "city": "Middleburg", "state": "FL", "zip": "32068", "latitude": 30.113312, "longitude": -81.813115, "state_name": "Florida", "brand": "Wawa", "updated": "2024-03-10" }, "geometry": { "type": "Point", "coordinates": [ -81.813115, 30.113312 ] } },
{ "type": "Feature", "properties": { "store_number": "5272", "street": "1001 S. Pine Avenue", "city": "Ocala", "state": "FL", "zip": "34471", "latitude": 29.17919, "longitude": -82.14031, "state_name": "Florida", "brand": "Wawa", "updated": "2024-03-10" }, "geometry": { "type": "Point", "coordinates": [ -82.14031, 29.17919 ] } },
{ "type": "Feature", "properties": { "store_number": "5259", "street": "20075 Cortez Blvd", "city": "Brooksville", "state": "FL", "zip": "34601", "latitude": 28.540448, "longitude": -82.402635, "state_name": "Florida", "brand": "Wawa", "updated": "2024-03-10" }, "geometry": { "type": "Point", "coordinates": [ -82.402635, 28.540448 ] } },
{ "type": "Feature", "properties": { "store_number": "5276", "street": "6787 Wilson Blvd", "city": "Jacksonville", "state": "FL", "zip": "32210", "latitude": 30.270379, "longitude": -81.756022, "state_name": "Florida", "brand": "Wawa", "updated": "2024-03-10" }, "geometry": { "type": "Point", "coordinates": [ -81.756022, 30.270379 ] } },
{ "type": "Feature", "properties": { "store_number": "5351", "street": "1004 Edgewood Ave North", "city": "Jacksonville", "state": "FL", "zip": "32254", "latitude": 30.3364, "longitude": -81.7312, "state_name": "Florida", "brand": "Wawa", "updated": "2024-03-10" }, "geometry": { "type": "Point", "coordinates": [ -81.7312, 30.3364 ] } },
{ "type": "Feature", "properties": { "store_number": "5340", "street": "970 Cassat Avenue", "city": "Jacksonville", "state": "FL", "zip": "32205", "latitude": 30.309727, "longitude": -81.731171, "state_name": "Florida", "brand": "Wawa", "updated": "2024-03-10" }, "geometry": { "type": "Point", "coordinates": [ -81.731171, 30.309727 ] } },
{ "type": "Feature", "properties": { "store_number": "5374", "street": "5390 66Th St N", "city": "Saint Petersburg", "state": "FL", "zip": "33709", "latitude": 27.82089, "longitude": -82.72867, "state_name": "Florida", "brand": "Wawa", "updated": "2024-03-10" }, "geometry": { "type": "Point", "coordinates": [ -82.72867, 27.82089 ] } },
{ "type": "Feature", "properties": { "store_number": "5263", "street": "678 Blanding Blvd", "city": "Orange Park", "state": "FL", "zip": "32073", "latitude": 30.149368, "longitude": -81.755921, "state_name": "Florida", "brand": "Wawa", "updated": "2024-03-10" }, "geometry": { "type": "Point", "coordinates": [ -81.755921, 30.149368 ] } },
{ "type": "Feature", "properties": { "store_number": "5349", "street": "7911 Blanding Blvd", "city": "Jacksonville", "state": "FL", "zip": "32244", "latitude": 30.203943, "longitude": -81.738924, "state_name": "Florida", "brand": "Wawa", "updated": "2024-03-10" }, "geometry": { "type": "Point", "coordinates": [ -81.738924, 30.203943 ] } },
{ "type": "Feature", "properties": { "store_number": "5336", "street": "3601 East Silver Springs Blvs", "city": "Ocala", "state": "FL", "zip": "34470", "latitude": 29.19823, "longitude": -82.08661, "state_name": "Florida", "brand": "Wawa", "updated": "2024-03-10" }, "geometry": { "type": "Point", "coordinates": [ -82.08661, 29.19823 ] } },
{ "type": "Feature", "properties": { "store_number": "5337", "street": "3080 Se Maricamp Road", "city": "Ocala", "state": "FL", "zip": "34471", "latitude": 29.16351, "longitude": -82.095344, "state_name": "Florida", "brand": "Wawa", "updated": "2024-03-10" }, "geometry": { "type": "Point", "coordinates": [ -82.095344, 29.16351 ] } },
{ "type": "Feature", "properties": { "store_number": "5241", "street": "5901 9Th Ave N.", "city": "Saint Petersburg", "state": "FL", "zip": "33710", "latitude": 27.781168, "longitude": -82.715325, "state_name": "Florida", "brand": "Wawa", "updated": "2024-03-10" }, "geometry": { "type": "Point", "coordinates": [ -82.715325, 27.781168 ] } },
{ "type": "Feature", "properties": { "store_number": "5110", "street": "3101 Gandy Blvd", "city": "Pinellas Park", "state": "FL", "zip": "33782-6140", "latitude": 27.845816, "longitude": -82.677669, "state_name": "Florida", "brand": "Wawa", "updated": "2024-03-10" }, "geometry": { "type": "Point", "coordinates": [ -82.677669, 27.845816 ] } },
{ "type": "Feature", "properties": { "store_number": "5125", "street": "6200 N 34 St", "city": "Pinellas Park", "state": "FL", "zip": "33781-6231", "latitude": 27.828569, "longitude": -82.680166, "state_name": "Florida", "brand": "Wawa", "updated": "2024-03-10" }, "geometry": { "type": "Point", "coordinates": [ -82.680166, 27.828569 ] } },
{ "type": "Feature", "properties": { "store_number": "5148", "street": "3650 34 Street N", "city": "Saint Petersburg", "state": "FL", "zip": "33713-1521", "latitude": 27.8054802, "longitude": -82.6809992, "state_name": "Florida", "brand": "Wawa", "updated": "2024-03-10" }, "geometry": { "type": "Point", "coordinates": [ -82.6809992, 27.8054802 ] } },
{ "type": "Feature", "properties": { "store_number": "5328", "street": "300 Park Avenue", "city": "Orange Park", "state": "FL", "zip": "32073", "latitude": 30.186375, "longitude": -81.702818, "state_name": "Florida", "brand": "Wawa", "updated": "2024-03-10" }, "geometry": { "type": "Point", "coordinates": [ -81.702818, 30.186375 ] } },
{ "type": "Feature", "properties": { "store_number": "5252", "street": "8601 4Th Street N", "city": "Saint Petersburg", "state": "FL", "zip": "33701", "latitude": 27.850805, "longitude": -82.638162, "state_name": "Florida", "brand": "Wawa", "updated": "2024-03-10" }, "geometry": { "type": "Point", "coordinates": [ -82.638162, 27.850805 ] } },
{ "type": "Feature", "properties": { "store_number": "5159", "street": "2465 22 Avenue", "city": "Saint Petersburg", "state": "FL", "zip": "33713-3054", "latitude": 27.79259466, "longitude": -82.66674492, "state_name": "Florida", "brand": "Wawa", "updated": "2024-03-10" }, "geometry": { "type": "Point", "coordinates": [ -82.66674492, 27.79259466 ] } },
{ "type": "Feature", "properties": { "store_number": "5311", "street": "7540 W. Hillsborough Ave", "city": "Tampa", "state": "FL", "zip": "33615", "latitude": 27.996141, "longitude": -82.564123, "state_name": "Florida", "brand": "Wawa", "updated": "2024-03-10" }, "geometry": { "type": "Point", "coordinates": [ -82.564123, 27.996141 ] } },
{ "type": "Feature", "properties": { "store_number": "5139", "street": "5702 W Waters Ave", "city": "Tampa", "state": "FL", "zip": "33634-1215", "latitude": 28.0247359, "longitude": -82.5426016, "state_name": "Florida", "brand": "Wawa", "updated": "2024-03-10" }, "geometry": { "type": "Point", "coordinates": [ -82.5426016, 28.0247359 ] } },
{ "type": "Feature", "properties": { "store_number": "5191", "street": "15524 N. Dale Mabry Highway", "city": "Tampa", "state": "FL", "zip": "33618", "latitude": 28.093287, "longitude": -82.50318, "state_name": "Florida", "brand": "Wawa", "updated": "2024-03-10" }, "geometry": { "type": "Point", "coordinates": [ -82.50318, 28.093287 ] } },
{ "type": "Feature", "properties": { "store_number": "5306", "street": "3637 34Th Street South", "city": "Saint Petersburg", "state": "FL", "zip": "33711", "latitude": 27.73386, "longitude": -82.67948, "state_name": "Florida", "brand": "Wawa", "updated": "2024-03-10" }, "geometry": { "type": "Point", "coordinates": [ -82.67948, 27.73386 ] } },
{ "type": "Feature", "properties": { "store_number": "5367", "street": "3561 Spring Park Road", "city": "Jacksonville", "state": "FL", "zip": "32207", "latitude": 30.29104, "longitude": -81.62574, "state_name": "Florida", "brand": "Wawa", "updated": "2024-03-10" }, "geometry": { "type": "Point", "coordinates": [ -81.62574, 30.29104 ] } },
{ "type": "Feature", "properties": { "store_number": "5273", "street": "5726 Se Abshier Blvd", "city": "Belleview", "state": "FL", "zip": "34420", "latitude": 29.05884, "longitude": -82.05321, "state_name": "Florida", "brand": "Wawa", "updated": "2024-03-10" }, "geometry": { "type": "Point", "coordinates": [ -82.05321, 29.05884 ] } },
{ "type": "Feature", "properties": { "store_number": "5251", "street": "8458 N. Dale Mabry Hwy.", "city": "Tampa", "state": "FL", "zip": "33614", "latitude": 28.026769, "longitude": -82.505847, "state_name": "Florida", "brand": "Wawa", "updated": "2024-03-10" }, "geometry": { "type": "Point", "coordinates": [ -82.505847, 28.026769 ] } },
{ "type": "Feature", "properties": { "store_number": "5122", "street": "401 N Dale Mabry Hwy", "city": "Tampa", "state": "FL", "zip": "33609-1240", "latitude": 27.9490042, "longitude": -82.5053532, "state_name": "Florida", "brand": "Wawa", "updated": "2024-03-10" }, "geometry": { "type": "Point", "coordinates": [ -82.5053532, 27.9490042 ] } },
{ "type": "Feature", "properties": { "store_number": "5154", "street": "804 E. Bears Ave", "city": "Tampa", "state": "FL", "zip": "33613", "latitude": 28.0888521, "longitude": -82.4521834, "state_name": "Florida", "brand": "Wawa", "updated": "2024-03-10" }, "geometry": { "type": "Point", "coordinates": [ -82.4521834, 28.0888521 ] } },
{ "type": "Feature", "properties": { "store_number": "8623", "street": "150 Pike View Dr", "city": "Midlothian", "state": "VA", "zip": "23113", "latitude": 37.513172, "longitude": -77.698883, "state_name": "Virginia", "brand": "Wawa", "updated": "2024-03-10" }, "geometry": { "type": "Point", "coordinates": [ -77.698883, 37.513172 ] } },
{ "type": "Feature", "properties": { "store_number": "0696", "street": "12564 Broad Street", "city": "Henrico", "state": "VA", "zip": "23233-7300", "latitude": 37.663798, "longitude": -77.64978, "state_name": "Virginia", "brand": "Wawa", "updated": "2024-03-10" }, "geometry": { "type": "Point", "coordinates": [ -77.64978, 37.663798 ] } },
{ "type": "Feature", "properties": { "store_number": "8651", "street": "16000 Otterdale Rd", "city": "Midlothian", "state": "VA", "zip": "23114", "latitude": 37.39838435, "longitude": -77.70860699000001, "state_name": "Virginia", "brand": "Wawa", "updated": "2024-03-10" }, "geometry": { "type": "Point", "coordinates": [ -77.70860699, 37.39838435 ] } },
{ "type": "Feature", "properties": { "store_number": "8615", "street": "11052 West Broad Street", "city": "Glen Allen", "state": "VA", "zip": "23060", "latitude": 37.64838, "longitude": -77.59022, "state_name": "Virginia", "brand": "Wawa", "updated": "2024-03-10" }, "geometry": { "type": "Point", "coordinates": [ -77.59022, 37.64838 ] } },
{ "type": "Feature", "properties": { "store_number": "0657", "street": "12001 Southshore Point Dr.", "city": "Midlothian", "state": "VA", "zip": "23112-2088", "latitude": 37.405186, "longitude": -77.66518, "state_name": "Virginia", "brand": "Wawa", "updated": "2024-03-10" }, "geometry": { "type": "Point", "coordinates": [ -77.66518, 37.405186 ] } },
{ "type": "Feature", "properties": { "store_number": "0659", "street": "11021 Midlothian Tpk", "city": "Richmond", "state": "VA", "zip": "23235-4709", "latitude": 37.505336, "longitude": -77.60081, "state_name": "Virginia", "brand": "Wawa", "updated": "2024-03-10" }, "geometry": { "type": "Point", "coordinates": [ -77.60081, 37.505336 ] } },
{ "type": "Feature", "properties": { "store_number": "8647", "street": "9100 Three Chopt Road", "city": "Henrico", "state": "VA", "zip": "23229", "latitude": 37.61227, "longitude": -77.56387, "state_name": "Virginia", "brand": "Wawa", "updated": "2024-03-10" }, "geometry": { "type": "Point", "coordinates": [ -77.56387, 37.61227 ] } },
{ "type": "Feature", "properties": { "store_number": "0674", "street": "3850 N. Bailey Bridge Road", "city": "Midlothian", "state": "VA", "zip": "23112-2912", "latitude": 37.434614, "longitude": -77.610548, "state_name": "Virginia", "brand": "Wawa", "updated": "2024-03-10" }, "geometry": { "type": "Point", "coordinates": [ -77.610548, 37.434614 ] } },
{ "type": "Feature", "properties": { "store_number": "8603", "street": "8017 W. Broad Street", "city": "Henrico", "state": "VA", "zip": "23294", "latitude": 37.625114, "longitude": -77.53161, "state_name": "Virginia", "brand": "Wawa", "updated": "2024-03-10" }, "geometry": { "type": "Point", "coordinates": [ -77.53161, 37.625114 ] } },
{ "type": "Feature", "properties": { "store_number": "8625", "street": "10135 Hull Street Road", "city": "Midlothian", "state": "VA", "zip": "23112-3301", "latitude": 37.442133, "longitude": -77.583035, "state_name": "Virginia", "brand": "Wawa", "updated": "2024-03-10" }, "geometry": { "type": "Point", "coordinates": [ -77.583035, 37.442133 ] } },
{ "type": "Feature", "properties": { "store_number": "8652", "street": "100 North Washington Hwy", "city": "Ashland", "state": "VA", "zip": "23005", "latitude": 37.75859, "longitude": -77.47165, "state_name": "Virginia", "brand": "Wawa", "updated": "2024-03-10" }, "geometry": { "type": "Point", "coordinates": [ -77.47165, 37.75859 ] } },
{ "type": "Feature", "properties": { "store_number": "0682", "street": "8851 Staples Mill Road", "city": "Henrico", "state": "VA", "zip": "23228-2014", "latitude": 37.635361, "longitude": -77.50858, "state_name": "Virginia", "brand": "Wawa", "updated": "2024-03-10" }, "geometry": { "type": "Point", "coordinates": [ -77.50858, 37.635361 ] } },
{ "type": "Feature", "properties": { "store_number": "8600", "street": "7316 Forest Hill Ave", "city": "Richmond", "state": "VA", "zip": "23225", "latitude": 37.537728, "longitude": -77.53158, "state_name": "Virginia", "brand": "Wawa", "updated": "2024-03-10" }, "geometry": { "type": "Point", "coordinates": [ -77.53158, 37.537728 ] } },
{ "type": "Feature", "properties": { "store_number": "8538", "street": "10050 Baltimore Ave", "city": "College Park", "state": "MD", "zip": "20740", "latitude": 39.021402, "longitude": -76.926903, "state_name": "Maryland", "brand": "Wawa", "updated": "2024-03-10" }, "geometry": { "type": "Point", "coordinates": [ -76.926903, 39.021402 ] } },
{ "type": "Feature", "properties": { "store_number": "0593", "street": "10515 Baltimore Avenue", "city": "Beltsville", "state": "MD", "zip": "20705", "latitude": 39.02737, "longitude": -76.917086, "state_name": "Maryland", "brand": "Wawa", "updated": "2024-03-10" }, "geometry": { "type": "Point", "coordinates": [ -76.917086, 39.02737 ] } },
{ "type": "Feature", "properties": { "store_number": "5393", "street": "1331 University Blvd North", "city": "Jacksonville", "state": "FL", "zip": "32211", "latitude": 30.33364, "longitude": -81.60288, "state_name": "Florida", "brand": "Wawa", "updated": "2024-03-10" }, "geometry": { "type": "Point", "coordinates": [ -81.60288, 30.33364 ] } },
{ "type": "Feature", "properties": { "store_number": "5261", "street": "2500 Monument Road", "city": "Jacksonville", "state": "FL", "zip": "32225", "latitude": 30.35963, "longitude": -81.503534, "state_name": "Florida", "brand": "Wawa", "updated": "2024-03-10" }, "geometry": { "type": "Point", "coordinates": [ -81.503534, 30.35963 ] } },
{ "type": "Feature", "properties": { "store_number": "5333", "street": "5735 Phillips Hwy", "city": "Jacksonville", "state": "FL", "zip": "32216", "latitude": 30.265474, "longitude": -81.617316, "state_name": "Florida", "brand": "Wawa", "updated": "2024-03-10" }, "geometry": { "type": "Point", "coordinates": [ -81.617316, 30.265474 ] } },
{ "type": "Feature", "properties": { "store_number": "5274", "street": "9715 Beach Blvd", "city": "Jacksonville", "state": "FL", "zip": "32246", "latitude": 30.287143, "longitude": -81.558327, "state_name": "Florida", "brand": "Wawa", "updated": "2024-03-10" }, "geometry": { "type": "Point", "coordinates": [ -81.558327, 30.287143 ] } },
{ "type": "Feature", "properties": { "store_number": "5264", "street": "11812 Beach Blvd", "city": "Jacksonville", "state": "FL", "zip": "32224", "latitude": 30.286311, "longitude": -81.509531, "state_name": "Florida", "brand": "Wawa", "updated": "2024-03-10" }, "geometry": { "type": "Point", "coordinates": [ -81.509531, 30.286311 ] } },
{ "type": "Feature", "properties": { "store_number": "5257", "street": "4866 Gate Parkway", "city": "Jacksonville", "state": "FL", "zip": "32246", "latitude": 30.253816, "longitude": -81.536762, "state_name": "Florida", "brand": "Wawa", "updated": "2024-03-10" }, "geometry": { "type": "Point", "coordinates": [ -81.536762, 30.253816 ] } },
{ "type": "Feature", "properties": { "store_number": "5379", "street": "8742 Baymeadows Road", "city": "Jacksonville", "state": "FL", "zip": "32256", "latitude": 30.220398, "longitude": -81.576223, "state_name": "Florida", "brand": "Wawa", "updated": "2024-03-10" }, "geometry": { "type": "Point", "coordinates": [ -81.576223, 30.220398 ] } },
{ "type": "Feature", "properties": { "store_number": "5321", "street": "13363 Beach Blvd", "city": "Jacksonville", "state": "FL", "zip": "32246", "latitude": 30.288152, "longitude": -81.464686, "state_name": "Florida", "brand": "Wawa", "updated": "2024-03-10" }, "geometry": { "type": "Point", "coordinates": [ -81.464686, 30.288152 ] } },
{ "type": "Feature", "properties": { "store_number": "5368", "street": "7790 Gate Parkway", "city": "Jacksonville", "state": "FL", "zip": "32256", "latitude": 30.236585, "longitude": -81.519695, "state_name": "Florida", "brand": "Wawa", "updated": "2024-03-10" }, "geometry": { "type": "Point", "coordinates": [ -81.519695, 30.236585 ] } },
{ "type": "Feature", "properties": { "store_number": "5382", "street": "100 Bartram Market Drive", "city": "Saint Johns", "state": "FL", "zip": "32259", "latitude": 30.09961, "longitude": -81.52219, "state_name": "Florida", "brand": "Wawa", "updated": "2024-03-10" }, "geometry": { "type": "Point", "coordinates": [ -81.52219, 30.09961 ] } },
{ "type": "Feature", "properties": { "store_number": "5441", "street": "54 Cypress Edge Drive", "city": "Saint Johns", "state": "FL", "zip": "32259", "latitude": 30.103567, "longitude": -81.483217, "state_name": "Florida", "brand": "Wawa", "updated": "2024-03-10" }, "geometry": { "type": "Point", "coordinates": [ -81.483217, 30.103567 ] } },
{ "type": "Feature", "properties": { "store_number": "5361", "street": "2222 State Road 16", "city": "Saint Augustine", "state": "FL", "zip": "32084", "latitude": 29.91567, "longitude": -81.40304, "state_name": "Florida", "brand": "Wawa", "updated": "2024-03-10" }, "geometry": { "type": "Point", "coordinates": [ -81.40304, 29.91567 ] } },
{ "type": "Feature", "properties": { "store_number": "5381", "street": "2500 Us 1 South", "city": "Saint Augustine", "state": "FL", "zip": "32086", "latitude": 29.85119, "longitude": -81.32257, "state_name": "Florida", "brand": "Wawa", "updated": "2024-03-10" }, "geometry": { "type": "Point", "coordinates": [ -81.32257, 29.85119 ] } },
{ "type": "Feature", "properties": { "store_number": "5310", "street": "5600 Sr 100 East", "city": "Palm Coast", "state": "FL", "zip": "32164", "latitude": 29.475848, "longitude": -81.206475, "state_name": "Florida", "brand": "Wawa", "updated": "2024-03-10" }, "geometry": { "type": "Point", "coordinates": [ -81.206475, 29.475848 ] } },
{ "type": "Feature", "properties": { "store_number": "5282", "street": "11770 Us 301", "city": "Oxford", "state": "FL", "zip": "34484", "latitude": 28.927384, "longitude": -82.037918, "state_name": "Florida", "brand": "Wawa", "updated": "2024-03-10" }, "geometry": { "type": "Point", "coordinates": [ -82.037918, 28.927384 ] } },
{ "type": "Feature", "properties": { "store_number": "5322", "street": "13535 Us Hwy 441", "city": "Lady Lake", "state": "FL", "zip": "32159", "latitude": 28.953336, "longitude": -81.957754, "state_name": "Florida", "brand": "Wawa", "updated": "2024-03-10" }, "geometry": { "type": "Point", "coordinates": [ -81.957754, 28.953336 ] } },
{ "type": "Feature", "properties": { "store_number": "5326", "street": "116 N. Highway 27/441", "city": "Lady Lake", "state": "FL", "zip": "32159", "latitude": 28.91722, "longitude": -81.92289, "state_name": "Florida", "brand": "Wawa", "updated": "2024-03-10" }, "geometry": { "type": "Point", "coordinates": [ -81.92289, 28.91722 ] } },
{ "type": "Feature", "properties": { "store_number": "5290", "street": "1400 W. North Blvd", "city": "Leesburg", "state": "FL", "zip": "34748", "latitude": 28.828192, "longitude": -81.887161, "state_name": "Florida", "brand": "Wawa", "updated": "2024-03-10" }, "geometry": { "type": "Point", "coordinates": [ -81.887161, 28.828192 ] } },
{ "type": "Feature", "properties": { "store_number": "5315", "street": "600 W. Granada Blvd", "city": "Ormond Beach", "state": "FL", "zip": "32174", "latitude": 29.278623, "longitude": -81.072231, "state_name": "Florida", "brand": "Wawa", "updated": "2024-03-10" }, "geometry": { "type": "Point", "coordinates": [ -81.072231, 29.278623 ] } },
{ "type": "Feature", "properties": { "store_number": "5270", "street": "17700 Us Hwy 441", "city": "Mount Dora", "state": "FL", "zip": "32757", "latitude": 28.821992, "longitude": -81.663783, "state_name": "Florida", "brand": "Wawa", "updated": "2024-03-10" }, "geometry": { "type": "Point", "coordinates": [ -81.663783, 28.821992 ] } },
{ "type": "Feature", "properties": { "store_number": "5332", "street": "1000 Mason Ave", "city": "Daytona Beach", "state": "FL", "zip": "32117", "latitude": 29.220002, "longitude": -81.047912, "state_name": "Florida", "brand": "Wawa", "updated": "2024-03-10" }, "geometry": { "type": "Point", "coordinates": [ -81.047912, 29.220002 ] } },
{ "type": "Feature", "properties": { "store_number": "5296", "street": "1900 International Speedway Bl", "city": "Daytona Beach", "state": "FL", "zip": "32114", "latitude": 29.19129, "longitude": -81.073638, "state_name": "Florida", "brand": "Wawa", "updated": "2024-03-10" }, "geometry": { "type": "Point", "coordinates": [ -81.073638, 29.19129 ] } },
{ "type": "Feature", "properties": { "store_number": "5287", "street": "120 S. Ridgewood Ave", "city": "Daytona Beach", "state": "FL", "zip": "32114", "latitude": 29.20993, "longitude": -81.022484, "state_name": "Florida", "brand": "Wawa", "updated": "2024-03-10" }, "geometry": { "type": "Point", "coordinates": [ -81.022484, 29.20993 ] } },
{ "type": "Feature", "properties": { "store_number": "0159", "street": "Blakeslee Corner & Rts 940", "city": "Blakeslee", "state": "PA", "zip": "18610", "latitude": 41.092846, "longitude": -75.591635, "state_name": "Pennsylvania", "brand": "Wawa", "updated": "2024-03-10" }, "geometry": { "type": "Point", "coordinates": [ -75.591635, 41.092846 ] } },
{ "type": "Feature", "properties": { "store_number": "0260", "street": "602 S. Reading Road", "city": "Ephrata", "state": "PA", "zip": "17522", "latitude": 40.172506, "longitude": -76.195895, "state_name": "Pennsylvania", "brand": "Wawa", "updated": "2024-03-10" }, "geometry": { "type": "Point", "coordinates": [ -76.195895, 40.172506 ] } },
{ "type": "Feature", "properties": { "store_number": "8119", "street": "910 W. Leesport Road", "city": "Dauberville", "state": "PA", "zip": "19533", "latitude": 40.39082, "longitude": -75.995976, "state_name": "Pennsylvania", "brand": "Wawa", "updated": "2024-03-10" }, "geometry": { "type": "Point", "coordinates": [ -75.995976, 40.39082 ] } },
{ "type": "Feature", "properties": { "store_number": "0275", "street": "2126 - 2132 Lincoln Highway Ea", "city": "Lancaster", "state": "PA", "zip": "17602-1110", "latitude": 40.029484, "longitude": -76.230393, "state_name": "Pennsylvania", "brand": "Wawa", "updated": "2024-03-10" }, "geometry": { "type": "Point", "coordinates": [ -76.230393, 40.029484 ] } },
{ "type": "Feature", "properties": { "store_number": "8506", "street": "10111 York Rd", "city": "Cockeysville", "state": "MD", "zip": "21030-3305", "latitude": 39.46607, "longitude": -76.6361, "state_name": "Maryland", "brand": "Wawa", "updated": "2024-03-10" }, "geometry": { "type": "Point", "coordinates": [ -76.6361, 39.46607 ] } },
{ "type": "Feature", "properties": { "store_number": "0286", "street": "3337 Penn Ave. (Rt 422)", "city": "Reading", "state": "PA", "zip": "19609-1422", "latitude": 40.326237, "longitude": -76.00928, "state_name": "Pennsylvania", "brand": "Wawa", "updated": "2024-03-10" }, "geometry": { "type": "Point", "coordinates": [ -76.00928, 40.326237 ] } },
{ "type": "Feature", "properties": { "store_number": "0147", "street": "2709 North Meridian Boulevard", "city": "Wyomissing", "state": "PA", "zip": "19610-3331", "latitude": 40.355336, "longitude": -75.98064, "state_name": "Pennsylvania", "brand": "Wawa", "updated": "2024-03-10" }, "geometry": { "type": "Point", "coordinates": [ -75.98064, 40.355336 ] } },
{ "type": "Feature", "properties": { "store_number": "0672", "street": "7500 Midlothian Turnpike", "city": "Richmond", "state": "VA", "zip": "23225-5420", "latitude": 37.500523, "longitude": -77.53506, "state_name": "Virginia", "brand": "Wawa", "updated": "2024-03-10" }, "geometry": { "type": "Point", "coordinates": [ -77.53506, 37.500523 ] } },
{ "type": "Feature", "properties": { "store_number": "8688", "street": "5900 W Broad Street", "city": "Richmond", "state": "VA", "zip": "23230", "latitude": 37.5919901, "longitude": -77.50595959, "state_name": "Virginia", "brand": "Wawa", "updated": "2024-03-10" }, "geometry": { "type": "Point", "coordinates": [ -77.50595959, 37.5919901 ] } },
{ "type": "Feature", "properties": { "store_number": "0670", "street": "11021 Iron Bridge Road (Rt. 10", "city": "Chester", "state": "VA", "zip": "23831-1440", "latitude": 37.364281, "longitude": -77.497729, "state_name": "Virginia", "brand": "Wawa", "updated": "2024-03-10" }, "geometry": { "type": "Point", "coordinates": [ -77.497729, 37.364281 ] } },
{ "type": "Feature", "properties": { "store_number": "0673", "street": "6001 Ironbridge Road", "city": "North Chesterfield", "state": "VA", "zip": "23234-5225", "latitude": 37.435069, "longitude": -77.48913, "state_name": "Virginia", "brand": "Wawa", "updated": "2024-03-10" }, "geometry": { "type": "Point", "coordinates": [ -77.48913, 37.435069 ] } },
{ "type": "Feature", "properties": { "store_number": "8630", "street": "2415 Staples Mill Rd", "city": "Richmond", "state": "VA", "zip": "23230-2510", "latitude": 37.591706, "longitude": -77.492698, "state_name": "Virginia", "brand": "Wawa", "updated": "2024-03-10" }, "geometry": { "type": "Point", "coordinates": [ -77.492698, 37.591706 ] } },
{ "type": "Feature", "properties": { "store_number": "8648", "street": "3100 N. Arthur Ashe Blvd", "city": "Richmond", "state": "VA", "zip": "23230", "latitude": 37.574222, "longitude": -77.464054, "state_name": "Virginia", "brand": "Wawa", "updated": "2024-03-10" }, "geometry": { "type": "Point", "coordinates": [ -77.464054, 37.574222 ] } },
{ "type": "Feature", "properties": { "store_number": "0274", "street": "3650 Pottsville Pike", "city": "Reading", "state": "PA", "zip": "19605-1700", "latitude": 40.389076, "longitude": -75.93586, "state_name": "Pennsylvania", "brand": "Wawa", "updated": "2024-03-10" }, "geometry": { "type": "Point", "coordinates": [ -75.93586, 40.389076 ] } },
{ "type": "Feature", "properties": { "store_number": "8010", "street": "2005 Museum Rd.", "city": "Wyomissing", "state": "PA", "zip": "19610-2859", "latitude": 40.306368, "longitude": -75.97575, "state_name": "Pennsylvania", "brand": "Wawa", "updated": "2024-03-10" }, "geometry": { "type": "Point", "coordinates": [ -75.97575, 40.306368 ] } },
{ "type": "Feature", "properties": { "store_number": "8124", "street": "837 Penn Ave", "city": "Wyomissing", "state": "PA", "zip": "19610", "latitude": 40.336509, "longitude": -75.955552, "state_name": "Pennsylvania", "brand": "Wawa", "updated": "2024-03-10" }, "geometry": { "type": "Point", "coordinates": [ -75.955552, 40.336509 ] } },
{ "type": "Feature", "properties": { "store_number": "0153", "street": "1946 North 11Th Street", "city": "Reading", "state": "PA", "zip": "19604", "latitude": 40.364627, "longitude": -75.916307, "state_name": "Pennsylvania", "brand": "Wawa", "updated": "2024-03-10" }, "geometry": { "type": "Point", "coordinates": [ -75.916307, 40.364627 ] } },
{ "type": "Feature", "properties": { "store_number": "8109", "street": "413 Lancaster Avenue", "city": "Reading", "state": "PA", "zip": "19611", "latitude": 40.320718, "longitude": -75.93526, "state_name": "Pennsylvania", "brand": "Wawa", "updated": "2024-03-10" }, "geometry": { "type": "Point", "coordinates": [ -75.93526, 40.320718 ] } },
{ "type": "Feature", "properties": { "store_number": "8510", "street": "1260 E. Joppa Road", "city": "Towson", "state": "MD", "zip": "21284", "latitude": 39.39623, "longitude": -76.57545, "state_name": "Maryland", "brand": "Wawa", "updated": "2024-03-10" }, "geometry": { "type": "Point", "coordinates": [ -76.57545, 39.39623 ] } },
{ "type": "Feature", "properties": { "store_number": "0166", "street": "5060 Perkiomen Avenue", "city": "Reading", "state": "PA", "zip": "19606-9527", "latitude": 40.301341, "longitude": -75.853608, "state_name": "Pennsylvania", "brand": "Wawa", "updated": "2024-03-10" }, "geometry": { "type": "Point", "coordinates": [ -75.853608, 40.301341 ] } },
{ "type": "Feature", "properties": { "store_number": "8025", "street": "787 Rt. 41", "city": "Gap", "state": "PA", "zip": "17527", "latitude": 39.990936, "longitude": -76.020149, "state_name": "Pennsylvania", "brand": "Wawa", "updated": "2024-03-10" }, "geometry": { "type": "Point", "coordinates": [ -76.020149, 39.990936 ] } },
{ "type": "Feature", "properties": { "store_number": "0586", "street": "601 Hoagie Drive", "city": "Bel Air", "state": "MD", "zip": "21014", "latitude": 39.568712, "longitude": -76.35327, "state_name": "Maryland", "brand": "Wawa", "updated": "2024-03-10" }, "geometry": { "type": "Point", "coordinates": [ -76.35327, 39.568712 ] } },
{ "type": "Feature", "properties": { "store_number": "8129", "street": "2837 Main Street", "city": "Morgantown", "state": "PA", "zip": "19543", "latitude": 40.15196838, "longitude": -75.90139061000001, "state_name": "Pennsylvania", "brand": "Wawa", "updated": "2024-03-10" }, "geometry": { "type": "Point", "coordinates": [ -75.90139061, 40.15196838 ] } },
{ "type": "Feature", "properties": { "store_number": "8546", "street": "14910 Silver Trail Lane", "city": "Laurel", "state": "MD", "zip": "20707", "latitude": 39.08298, "longitude": -76.889214, "state_name": "Maryland", "brand": "Wawa", "updated": "2024-03-10" }, "geometry": { "type": "Point", "coordinates": [ -76.889214, 39.08298 ] } },
{ "type": "Feature", "properties": { "store_number": "0559", "street": "3530 Conowingo Road", "city": "Street", "state": "MD", "zip": "21154-1944", "latitude": 39.637038, "longitude": -76.26828, "state_name": "Maryland", "brand": "Wawa", "updated": "2024-03-10" }, "geometry": { "type": "Point", "coordinates": [ -76.26828, 39.637038 ] } },
{ "type": "Feature", "properties": { "store_number": "8504", "street": "3716 Washington Blvd", "city": "Baltimore", "state": "MD", "zip": "21227", "latitude": 39.246429, "longitude": -76.673129, "state_name": "Maryland", "brand": "Wawa", "updated": "2024-03-10" }, "geometry": { "type": "Point", "coordinates": [ -76.673129, 39.246429 ] } },
{ "type": "Feature", "properties": { "store_number": "8500", "street": "204 Connolly Road", "city": "Fallston", "state": "MD", "zip": "21047-2526", "latitude": 39.503325, "longitude": -76.383947, "state_name": "Maryland", "brand": "Wawa", "updated": "2024-03-10" }, "geometry": { "type": "Point", "coordinates": [ -76.383947, 39.503325 ] } },
{ "type": "Feature", "properties": { "store_number": "0553", "street": "709 Bel Air Road", "city": "Bel Air", "state": "MD", "zip": "21014-4209", "latitude": 39.522272, "longitude": -76.357694, "state_name": "Maryland", "brand": "Wawa", "updated": "2024-03-10" }, "geometry": { "type": "Point", "coordinates": [ -76.357694, 39.522272 ] } },
{ "type": "Feature", "properties": { "store_number": "8515", "street": "9600 Fort Meade Road", "city": "Laurel", "state": "MD", "zip": "20708", "latitude": 39.09739, "longitude": -76.84147, "state_name": "Maryland", "brand": "Wawa", "updated": "2024-03-10" }, "geometry": { "type": "Point", "coordinates": [ -76.84147, 39.09739 ] } },
{ "type": "Feature", "properties": { "store_number": "8522", "street": "9809 Belair Road", "city": "Perry Hall", "state": "MD", "zip": "21128", "latitude": 39.4191132, "longitude": -76.45591084, "state_name": "Maryland", "brand": "Wawa", "updated": "2024-03-10" }, "geometry": { "type": "Point", "coordinates": [ -76.45591084, 39.4191132 ] } },
{ "type": "Feature", "properties": { "store_number": "0557", "street": "1505 E. Churchville Road", "city": "Bel Air", "state": "MD", "zip": "21014", "latitude": 39.545963, "longitude": -76.31395, "state_name": "Maryland", "brand": "Wawa", "updated": "2024-03-10" }, "geometry": { "type": "Point", "coordinates": [ -76.31395, 39.545963 ] } },
{ "type": "Feature", "properties": { "store_number": "8525", "street": "7710 Milestone Pkwy", "city": "Hanover", "state": "MD", "zip": "21076", "latitude": 39.1542, "longitude": -76.74347, "state_name": "Maryland", "brand": "Wawa", "updated": "2024-03-10" }, "geometry": { "type": "Point", "coordinates": [ -76.74347, 39.1542 ] } },
{ "type": "Feature", "properties": { "store_number": "5346", "street": "7481 Manatee Ave", "city": "Bradenton", "state": "FL", "zip": "34209", "latitude": 27.495514, "longitude": -82.635594, "state_name": "Florida", "brand": "Wawa", "updated": "2024-03-10" }, "geometry": { "type": "Point", "coordinates": [ -82.635594, 27.495514 ] } },
{ "type": "Feature", "properties": { "store_number": "5183", "street": "1760 Hillsborough Ave", "city": "Tampa", "state": "FL", "zip": "33603-1131", "latitude": 27.99555, "longitude": -82.47805, "state_name": "Florida", "brand": "Wawa", "updated": "2024-03-10" }, "geometry": { "type": "Point", "coordinates": [ -82.47805, 27.99555 ] } },
{ "type": "Feature", "properties": { "store_number": "5301", "street": "3660 W Gandy Blvd", "city": "Tampa", "state": "FL", "zip": "33611", "latitude": 27.89359, "longitude": -82.50461, "state_name": "Florida", "brand": "Wawa", "updated": "2024-03-10" }, "geometry": { "type": "Point", "coordinates": [ -82.50461, 27.89359 ] } },
{ "type": "Feature", "properties": { "store_number": "5196", "street": "8325 N Florida Ave", "city": "Tampa", "state": "FL", "zip": "33604-3005", "latitude": 28.0248, "longitude": -82.45881, "state_name": "Florida", "brand": "Wawa", "updated": "2024-03-10" }, "geometry": { "type": "Point", "coordinates": [ -82.45881, 28.0248 ] } },
{ "type": "Feature", "properties": { "store_number": "5267", "street": "25155 Maren Way", "city": "Land O Lakes", "state": "FL", "zip": "34639", "latitude": 28.189572, "longitude": -82.400293, "state_name": "Florida", "brand": "Wawa", "updated": "2024-03-10" }, "geometry": { "type": "Point", "coordinates": [ -82.400293, 28.189572 ] } },
{ "type": "Feature", "properties": { "store_number": "5199", "street": "2325 E. Fletcher Ave", "city": "Tampa", "state": "FL", "zip": "33612", "latitude": 28.06924, "longitude": -82.4306, "state_name": "Florida", "brand": "Wawa", "updated": "2024-03-10" }, "geometry": { "type": "Point", "coordinates": [ -82.4306, 28.06924 ] } },
{ "type": "Feature", "properties": { "store_number": "5107", "street": "11510 N 30Th Street", "city": "Tampa", "state": "FL", "zip": "33612-6278", "latitude": 28.0532971, "longitude": -82.4268815, "state_name": "Florida", "brand": "Wawa", "updated": "2024-03-10" }, "geometry": { "type": "Point", "coordinates": [ -82.4268815, 28.0532971 ] } },
{ "type": "Feature", "properties": { "store_number": "5271", "street": "2509 W. Cortez Road", "city": "Bradenton", "state": "FL", "zip": "34207", "latitude": 27.46216, "longitude": -82.586293, "state_name": "Florida", "brand": "Wawa", "updated": "2024-03-10" }, "geometry": { "type": "Point", "coordinates": [ -82.586293, 27.46216 ] } },
{ "type": "Feature", "properties": { "store_number": "5240", "street": "28225 State Road 54", "city": "Wesley Chapel", "state": "FL", "zip": "33544", "latitude": 28.237012, "longitude": -82.349057, "state_name": "Florida", "brand": "Wawa", "updated": "2024-03-10" }, "geometry": { "type": "Point", "coordinates": [ -82.349057, 28.237012 ] } },
{ "type": "Feature", "properties": { "store_number": "0996", "street": "2000 Shafto Road", "city": "Tinton Falls", "state": "NJ", "zip": "07712", "latitude": 40.258006, "longitude": -74.090701, "state_name": "New Jersey", "brand": "Wawa", "updated": "2024-03-10" }, "geometry": { "type": "Point", "coordinates": [ -74.090701, 40.258006 ] } },
{ "type": "Feature", "properties": { "store_number": "8329", "street": "1344 Corlies Ave", "city": "Neptune", "state": "NJ", "zip": "07753-5166", "latitude": 40.208999, "longitude": -74.026672, "state_name": "New Jersey", "brand": "Wawa", "updated": "2024-03-10" }, "geometry": { "type": "Point", "coordinates": [ -74.026672, 40.208999 ] } },
{ "type": "Feature", "properties": { "store_number": "8303", "street": "3520 Rt 66", "city": "Neptune", "state": "NJ", "zip": "07753-2603", "latitude": 40.225112, "longitude": -74.076639, "state_name": "New Jersey", "brand": "Wawa", "updated": "2024-03-10" }, "geometry": { "type": "Point", "coordinates": [ -74.076639, 40.225112 ] } },
{ "type": "Feature", "properties": { "store_number": "0784", "street": "455 Route 520", "city": "Marlboro", "state": "NJ", "zip": "07746-2258", "latitude": 40.332717, "longitude": -74.24628, "state_name": "New Jersey", "brand": "Wawa", "updated": "2024-03-10" }, "geometry": { "type": "Point", "coordinates": [ -74.24628, 40.332717 ] } },
{ "type": "Feature", "properties": { "store_number": "0289", "street": "100 Ponds Edge Drive @ Rt. 272", "city": "Nottingham", "state": "PA", "zip": "19362-9789", "latitude": 39.750828, "longitude": -76.02265, "state_name": "Pennsylvania", "brand": "Wawa", "updated": "2024-03-10" }, "geometry": { "type": "Point", "coordinates": [ -76.02265, 39.750828 ] } },
{ "type": "Feature", "properties": { "store_number": "0263", "street": "3711 West Lincoln Highway", "city": "Parkesburg", "state": "PA", "zip": "19365-1775", "latitude": 39.984364, "longitude": -75.93401, "state_name": "Pennsylvania", "brand": "Wawa", "updated": "2024-03-10" }, "geometry": { "type": "Point", "coordinates": [ -75.93401, 39.984364 ] } },
{ "type": "Feature", "properties": { "store_number": "0160", "street": "761 Gap Newport Pike", "city": "Avondale", "state": "PA", "zip": "19311-9545", "latitude": 39.834773, "longitude": -75.79533, "state_name": "Pennsylvania", "brand": "Wawa", "updated": "2024-03-10" }, "geometry": { "type": "Point", "coordinates": [ -75.79533, 39.834773 ] } },
{ "type": "Feature", "properties": { "store_number": "8094", "street": "105 Reeceville Road", "city": "Coatesville", "state": "PA", "zip": "19320", "latitude": 40.00865678, "longitude": -75.78989171000001, "state_name": "Pennsylvania", "brand": "Wawa", "updated": "2024-03-10" }, "geometry": { "type": "Point", "coordinates": [ -75.78989171, 40.00865678 ] } },
{ "type": "Feature", "properties": { "store_number": "0582", "street": "2300 Churchville Rd.", "city": "Bel Air", "state": "MD", "zip": "21015-1721", "latitude": 39.555875, "longitude": -76.278221, "state_name": "Maryland", "brand": "Wawa", "updated": "2024-03-10" }, "geometry": { "type": "Point", "coordinates": [ -76.278221, 39.555875 ] } },
{ "type": "Feature", "properties": { "store_number": "8011", "street": "3025 Lincoln Highway", "city": "Thorndale", "state": "PA", "zip": "19372", "latitude": 39.993898, "longitude": -75.76311, "state_name": "Pennsylvania", "brand": "Wawa", "updated": "2024-03-10" }, "geometry": { "type": "Point", "coordinates": [ -75.76311, 39.993898 ] } },
{ "type": "Feature", "properties": { "store_number": "0585", "street": "2031 Pulaski Highway", "city": "North East", "state": "MD", "zip": "21901-3740", "latitude": 39.613053, "longitude": -75.93051, "state_name": "Maryland", "brand": "Wawa", "updated": "2024-03-10" }, "geometry": { "type": "Point", "coordinates": [ -75.93051, 39.613053 ] } },
{ "type": "Feature", "properties": { "store_number": "8098", "street": "3710 Lincoln Hwy", "city": "Downingtown", "state": "PA", "zip": "19335", "latitude": 39.995618, "longitude": -75.746182, "state_name": "Pennsylvania", "brand": "Wawa", "updated": "2024-03-10" }, "geometry": { "type": "Point", "coordinates": [ -75.746182, 39.995618 ] } },
{ "type": "Feature", "properties": { "store_number": "0034", "street": "504 West Cypress (@ Washington", "city": "Kennett Square", "state": "PA", "zip": "19348-3213", "latitude": 39.844553, "longitude": -75.71734, "state_name": "Pennsylvania", "brand": "Wawa", "updated": "2024-03-10" }, "geometry": { "type": "Point", "coordinates": [ -75.71734, 39.844553 ] } },
{ "type": "Feature", "properties": { "store_number": "0567", "street": "231 N. Philadelphia Blvd.", "city": "Aberdeen", "state": "MD", "zip": "21001", "latitude": 39.513008, "longitude": -76.16031, "state_name": "Maryland", "brand": "Wawa", "updated": "2024-03-10" }, "geometry": { "type": "Point", "coordinates": [ -76.16031, 39.513008 ] } },
{ "type": "Feature", "properties": { "store_number": "0245", "street": "100 Boot Road", "city": "Downingtown", "state": "PA", "zip": "19335-3445", "latitude": 40.000549, "longitude": -75.701261, "state_name": "Pennsylvania", "brand": "Wawa", "updated": "2024-03-10" }, "geometry": { "type": "Point", "coordinates": [ -75.701261, 40.000549 ] } },
{ "type": "Feature", "properties": { "store_number": "0547", "street": "1657 Elkton Road", "city": "Elkton", "state": "MD", "zip": "21921-4129", "latitude": 39.653315, "longitude": -75.790826, "state_name": "Maryland", "brand": "Wawa", "updated": "2024-03-10" }, "geometry": { "type": "Point", "coordinates": [ -75.790826, 39.653315 ] } },
{ "type": "Feature", "properties": { "store_number": "8015", "street": "901 East Baltimore Pike", "city": "Kennett Square", "state": "PA", "zip": "19348-1802", "latitude": 39.864005, "longitude": -75.67945, "state_name": "Pennsylvania", "brand": "Wawa", "updated": "2024-03-10" }, "geometry": { "type": "Point", "coordinates": [ -75.67945, 39.864005 ] } },
{ "type": "Feature", "properties": { "store_number": "0842", "street": "605 Yorklyn Road", "city": "Hockessin", "state": "DE", "zip": "19707", "latitude": 39.788657, "longitude": -75.697324, "state_name": "Delaware", "brand": "Wawa", "updated": "2024-03-10" }, "geometry": { "type": "Point", "coordinates": [ -75.697324, 39.788657 ] } },
{ "type": "Feature", "properties": { "store_number": "8512", "street": "302 W. Pulaski Highway", "city": "Elkton", "state": "MD", "zip": "21921-5279", "latitude": 39.60336, "longitude": -75.84034, "state_name": "Maryland", "brand": "Wawa", "updated": "2024-03-10" }, "geometry": { "type": "Point", "coordinates": [ -75.84034, 39.60336 ] } },
{ "type": "Feature", "properties": { "store_number": "0118", "street": "1083 East Lancaster Avenue", "city": "Downingtown", "state": "PA", "zip": "19335-3329", "latitude": 40.019025, "longitude": -75.678412, "state_name": "Pennsylvania", "brand": "Wawa", "updated": "2024-03-10" }, "geometry": { "type": "Point", "coordinates": [ -75.678412, 40.019025 ] } },
{ "type": "Feature", "properties": { "store_number": "0860", "street": "601 Ogletown Road", "city": "Newark", "state": "DE", "zip": "19711", "latitude": 39.68489, "longitude": -75.73322, "state_name": "Delaware", "brand": "Wawa", "updated": "2024-03-10" }, "geometry": { "type": "Point", "coordinates": [ -75.73322, 39.68489 ] } },
{ "type": "Feature", "properties": { "store_number": "0201", "street": "1800 Ticonderoga Boulevard", "city": "Chester Springs", "state": "PA", "zip": "19425-9542", "latitude": 40.074729, "longitude": -75.685907, "state_name": "Pennsylvania", "brand": "Wawa", "updated": "2024-03-10" }, "geometry": { "type": "Point", "coordinates": [ -75.685907, 40.074729 ] } },
{ "type": "Feature", "properties": { "store_number": "0831", "street": "4555 New Linden Hill Road", "city": "Wilmington", "state": "DE", "zip": "19808", "latitude": 39.735133, "longitude": -75.69122, "state_name": "Delaware", "brand": "Wawa", "updated": "2024-03-10" }, "geometry": { "type": "Point", "coordinates": [ -75.69122, 39.735133 ] } },
{ "type": "Feature", "properties": { "store_number": "0581", "street": "3500 Woodsdale Road", "city": "Abingdon", "state": "MD", "zip": "21009-2006", "latitude": 39.464955, "longitude": -76.31091, "state_name": "Maryland", "brand": "Wawa", "updated": "2024-03-10" }, "geometry": { "type": "Point", "coordinates": [ -76.31091, 39.464955 ] } },
{ "type": "Feature", "properties": { "store_number": "0819", "street": "274 East Chestnut Hill Road", "city": "Newark", "state": "DE", "zip": "19713", "latitude": 39.662455, "longitude": -75.7356, "state_name": "Delaware", "brand": "Wawa", "updated": "2024-03-10" }, "geometry": { "type": "Point", "coordinates": [ -75.7356, 39.662455 ] } },
{ "type": "Feature", "properties": { "store_number": "8033", "street": "551 West Uwchlan Ave", "city": "Exton", "state": "PA", "zip": "19341-1563", "latitude": 40.047518, "longitude": -75.66307, "state_name": "Pennsylvania", "brand": "Wawa", "updated": "2024-03-10" }, "geometry": { "type": "Point", "coordinates": [ -75.66307, 40.047518 ] } },
{ "type": "Feature", "properties": { "store_number": "0861", "street": "1750 Capitol Trail", "city": "Newark", "state": "DE", "zip": "19711-5720", "latitude": 39.700005, "longitude": -75.700613, "state_name": "Delaware", "brand": "Wawa", "updated": "2024-03-10" }, "geometry": { "type": "Point", "coordinates": [ -75.700613, 39.700005 ] } },
{ "type": "Feature", "properties": { "store_number": "8140", "street": "1150 Pottstown Pike", "city": "Chester Springs", "state": "PA", "zip": "19425", "latitude": 40.1163, "longitude": -75.6941, "state_name": "Pennsylvania", "brand": "Wawa", "updated": "2024-03-10" }, "geometry": { "type": "Point", "coordinates": [ -75.6941, 40.1163 ] } },
{ "type": "Feature", "properties": { "store_number": "0085", "street": "750 N. Pottstown Pike", "city": "Exton", "state": "PA", "zip": "19341-1525", "latitude": 40.05509, "longitude": -75.64716, "state_name": "Pennsylvania", "brand": "Wawa", "updated": "2024-03-10" }, "geometry": { "type": "Point", "coordinates": [ -75.64716, 40.05509 ] } },
{ "type": "Feature", "properties": { "store_number": "0850", "street": "2748-54 Pulaski Hwy.", "city": "Newark", "state": "DE", "zip": "19702", "latitude": 39.602471, "longitude": -75.76222, "state_name": "Delaware", "brand": "Wawa", "updated": "2024-03-10" }, "geometry": { "type": "Point", "coordinates": [ -75.76222, 39.602471 ] } },
{ "type": "Feature", "properties": { "store_number": "0880", "street": "120 Corporate Blvd", "city": "Newark", "state": "DE", "zip": "19702", "latitude": 39.61656449, "longitude": -75.74599409, "state_name": "Delaware", "brand": "Wawa", "updated": "2024-03-10" }, "geometry": { "type": "Point", "coordinates": [ -75.74599409, 39.61656449 ] } },
{ "type": "Feature", "properties": { "store_number": "0081", "street": "1195 Pottstown Pike", "city": "West Chester", "state": "PA", "zip": "19380-4137", "latitude": 39.990756, "longitude": -75.61559, "state_name": "Pennsylvania", "brand": "Wawa", "updated": "2024-03-10" }, "geometry": { "type": "Point", "coordinates": [ -75.61559, 39.990756 ] } },
{ "type": "Feature", "properties": { "store_number": "8534", "street": "2200 Pulaski Highway", "city": "Edgewood", "state": "MD", "zip": "21040", "latitude": 39.437034, "longitude": -76.306712, "state_name": "Maryland", "brand": "Wawa", "updated": "2024-03-10" }, "geometry": { "type": "Point", "coordinates": [ -76.306712, 39.437034 ] } },
{ "type": "Feature", "properties": { "store_number": "0858", "street": "2030 Limestone Rd", "city": "Marshallton", "state": "DE", "zip": "19808", "latitude": 39.721268, "longitude": -75.656802, "state_name": "Delaware", "brand": "Wawa", "updated": "2024-03-10" }, "geometry": { "type": "Point", "coordinates": [ -75.656802, 39.721268 ] } },
{ "type": "Feature", "properties": { "store_number": "0868", "street": "4651 Ogletown Stanton Rd", "city": "Newark", "state": "DE", "zip": "19713", "latitude": 39.6867, "longitude": -75.6781, "state_name": "Delaware", "brand": "Wawa", "updated": "2024-03-10" }, "geometry": { "type": "Point", "coordinates": [ -75.6781, 39.6867 ] } },
{ "type": "Feature", "properties": { "store_number": "0599", "street": "1419 S. Mountain Rd", "city": "Joppa", "state": "MD", "zip": "21085-3236", "latitude": 39.440013, "longitude": -76.345575, "state_name": "Maryland", "brand": "Wawa", "updated": "2024-03-10" }, "geometry": { "type": "Point", "coordinates": [ -76.345575, 39.440013 ] } },
{ "type": "Feature", "properties": { "store_number": "0203", "street": "10 Boot Road", "city": "West Chester", "state": "PA", "zip": "19380-2158", "latitude": 40.009384, "longitude": -75.616307, "state_name": "Pennsylvania", "brand": "Wawa", "updated": "2024-03-10" }, "geometry": { "type": "Point", "coordinates": [ -75.616307, 40.009384 ] } },
{ "type": "Feature", "properties": { "store_number": "8183", "street": "690 East Lincoln Highway", "city": "Exton", "state": "PA", "zip": "19341", "latitude": 40.029033, "longitude": -75.610501, "state_name": "Pennsylvania", "brand": "Wawa", "updated": "2024-03-10" }, "geometry": { "type": "Point", "coordinates": [ -75.610501, 40.029033 ] } },
{ "type": "Feature", "properties": { "store_number": "8537", "street": "2151 Brooks Drive", "city": "District Heights", "state": "MD", "zip": "20747", "latitude": 38.86107803, "longitude": -76.91861723, "state_name": "Maryland", "brand": "Wawa", "updated": "2024-03-10" }, "geometry": { "type": "Point", "coordinates": [ -76.91861723, 38.86107803 ] } },
{ "type": "Feature", "properties": { "store_number": "8523", "street": "10620 Martin Luther King Jr Hw", "city": "Lanham", "state": "MD", "zip": "20706", "latitude": 38.956577, "longitude": -76.824788, "state_name": "Maryland", "brand": "Wawa", "updated": "2024-03-10" }, "geometry": { "type": "Point", "coordinates": [ -76.824788, 38.956577 ] } },
{ "type": "Feature", "properties": { "store_number": "8507", "street": "7800 Parke West Dr", "city": "Glen Burnie", "state": "MD", "zip": "21061-4701", "latitude": 39.14177, "longitude": -76.6493, "state_name": "Maryland", "brand": "Wawa", "updated": "2024-03-10" }, "geometry": { "type": "Point", "coordinates": [ -76.6493, 39.14177 ] } },
{ "type": "Feature", "properties": { "store_number": "8511", "street": "4901 Boston St", "city": "Baltimore", "state": "MD", "zip": "21224", "latitude": 39.276817, "longitude": -76.553889, "state_name": "Maryland", "brand": "Wawa", "updated": "2024-03-10" }, "geometry": { "type": "Point", "coordinates": [ -76.553889, 39.276817 ] } },
{ "type": "Feature", "properties": { "store_number": "0754", "street": "345 Union Hill Road", "city": "Manalapan", "state": "NJ", "zip": "07726-1875", "latitude": 40.336054, "longitude": -74.3191, "state_name": "New Jersey", "brand": "Wawa", "updated": "2024-03-10" }, "geometry": { "type": "Point", "coordinates": [ -74.3191, 40.336054 ] } },
{ "type": "Feature", "properties": { "store_number": "5177", "street": "5306 14 Street", "city": "Bradenton", "state": "FL", "zip": "34207", "latitude": 27.44733, "longitude": -82.5757, "state_name": "Florida", "brand": "Wawa", "updated": "2024-03-10" }, "geometry": { "type": "Point", "coordinates": [ -82.5757, 27.44733 ] } },
{ "type": "Feature", "properties": { "store_number": "5165", "street": "701 1St Street E", "city": "Bradenton", "state": "FL", "zip": "34205", "latitude": 27.49343, "longitude": -82.56234, "state_name": "Florida", "brand": "Wawa", "updated": "2024-03-10" }, "geometry": { "type": "Point", "coordinates": [ -82.56234, 27.49343 ] } },
{ "type": "Feature", "properties": { "store_number": "5319", "street": "5011 E Busch Blvd", "city": "Tampa", "state": "FL", "zip": "33617", "latitude": 28.032067, "longitude": -82.400734, "state_name": "Florida", "brand": "Wawa", "updated": "2024-03-10" }, "geometry": { "type": "Point", "coordinates": [ -82.400734, 28.032067 ] } },
{ "type": "Feature", "properties": { "store_number": "5178", "street": "4455 Sr 64 East", "city": "Bradenton", "state": "FL", "zip": "34208", "latitude": 27.4989, "longitude": -82.5084, "state_name": "Florida", "brand": "Wawa", "updated": "2024-03-10" }, "geometry": { "type": "Point", "coordinates": [ -82.5084, 27.4989 ] } },
{ "type": "Feature", "properties": { "store_number": "5172", "street": "1031 Dunlawton Ave", "city": "Port Orange", "state": "FL", "zip": "32127", "latitude": 29.1273515, "longitude": -81.0068662, "state_name": "Florida", "brand": "Wawa", "updated": "2024-03-10" }, "geometry": { "type": "Point", "coordinates": [ -81.0068662, 29.1273515 ] } },
{ "type": "Feature", "properties": { "store_number": "5173", "street": "1740 Dunlawton Ave", "city": "Port Orange", "state": "FL", "zip": "32127-8929", "latitude": 29.1116145, "longitude": -81.0246111, "state_name": "Florida", "brand": "Wawa", "updated": "2024-03-10" }, "geometry": { "type": "Point", "coordinates": [ -81.0246111, 29.1116145 ] } },
{ "type": "Feature", "properties": { "store_number": "5292", "street": "1700 S. Woodland Blvd", "city": "Deland", "state": "FL", "zip": "32720", "latitude": 28.998416, "longitude": -81.303805, "state_name": "Florida", "brand": "Wawa", "updated": "2024-03-10" }, "geometry": { "type": "Point", "coordinates": [ -81.303805, 28.998416 ] } },
{ "type": "Feature", "properties": { "store_number": "5222", "street": "1780 Sr 44", "city": "New Smyrna Beach", "state": "FL", "zip": "32168", "latitude": 29.014832, "longitude": -80.94057, "state_name": "Florida", "brand": "Wawa", "updated": "2024-03-10" }, "geometry": { "type": "Point", "coordinates": [ -80.94057, 29.014832 ] } },
{ "type": "Feature", "properties": { "store_number": "5354", "street": "3400 Howland Blvd", "city": "Deltona", "state": "FL", "zip": "32725", "latitude": 28.949584, "longitude": -81.250894, "state_name": "Florida", "brand": "Wawa", "updated": "2024-03-10" }, "geometry": { "type": "Point", "coordinates": [ -81.250894, 28.949584 ] } },
{ "type": "Feature", "properties": { "store_number": "5171", "street": "2522 Enterprise Rd", "city": "Orange City", "state": "FL", "zip": "32763-7906", "latitude": 28.91703, "longitude": -81.295449, "state_name": "Florida", "brand": "Wawa", "updated": "2024-03-10" }, "geometry": { "type": "Point", "coordinates": [ -81.295449, 28.91703 ] } },