[
    {
        "store_id":"6012",
        "store_name":"Kansas City \u2013 State Ave",
        "street":"7500 State Ave",
        "city":"Kansas City",
        "state":"KS",
        "zip":"66102",
        "timezone":"America\/Chicago",
        "phone":"(913) 334-4080",
        "latitude":39.1169442,
        "longitude":-94.7522124,
        "url":"us\/ks\/kansas-city\/7500-state-ave\/store-6012",
        "state_name":"Kansas",
        "brand":"Arby's"
    },
    {
        "store_id":"6051",
        "store_name":"Mission \u2013 Johnson Dr",
        "street":"6780 Johnson Dr",
        "city":"Mission",
        "state":"KS",
        "zip":"66202",
        "timezone":"America\/Chicago",
        "phone":"(913) 384-3375",
        "latitude":39.0225598,
        "longitude":-94.6632601,
        "url":"us\/ks\/mission\/6780-johnson-dr\/store-6051",
        "state_name":"Kansas",
        "brand":"Arby's"
    },
    {
        "store_id":"6028",
        "store_name":"Shawnee \u2013 63rd St",
        "street":"11445 W 63rd St",
        "city":"Shawnee",
        "state":"KS",
        "zip":"66216",
        "timezone":"America\/Chicago",
        "phone":"(913) 631-6118",
        "latitude":39.0141988,
        "longitude":-94.718526,
        "url":"us\/ks\/shawnee\/11445-w-63rd-st\/store-6028",
        "state_name":"Kansas",
        "brand":"Arby's"
    },
    {
        "store_id":"6017",
        "store_name":"Kansas City \u2013 Taney St",
        "street":"2108 Taney St",
        "city":"Kansas City",
        "state":"MO",
        "zip":"64116",
        "timezone":"America\/Chicago",
        "phone":"(816) 842-0576",
        "latitude":39.1456396,
        "longitude":-94.5590778,
        "url":"us\/mo\/kansas-city\/2108-taney-st\/store-6017",
        "state_name":"Missouri",
        "brand":"Arby's"
    },
    {
        "store_id":"8454",
        "store_name":"Kansas City \u2013 4841 N Oak Trafficway",
        "street":"4841 N. Oak Trafficway",
        "city":"Kansas City",
        "state":"MO",
        "zip":"64118",
        "timezone":"America\/Chicago",
        "phone":"(816) 454-4156",
        "latitude":39.1840693,
        "longitude":-94.5760448,
        "url":"us\/mo\/kansas-city\/4841-n--oak-trafficway\/store-8454",
        "state_name":"Missouri",
        "brand":"Arby's"
    },
    {
        "store_id":"5881",
        "store_name":"Overland Park \u2013 Santa Fe Dr",
        "street":"9525 Santa Fe Dr",
        "city":"Overland Park",
        "state":"KS",
        "zip":"66212",
        "timezone":"America\/Chicago",
        "phone":"(913) 383-1700",
        "latitude":38.9713032,
        "longitude":-94.6916761,
        "url":"us\/ks\/overland-park\/9525-santa-fe-dr\/store-5881",
        "state_name":"Kansas",
        "brand":"Arby's"
    },
    {
        "store_id":"8255",
        "store_name":"Kansas City \u2013 Nw 83rd Terrace",
        "street":"6951 Nw 83rd Terrace",
        "city":"Kansas City",
        "state":"MO",
        "zip":"64152",
        "timezone":"America\/Chicago",
        "phone":"(816) 505-0757",
        "latitude":39.2449671,
        "longitude":-94.6616251,
        "url":"us\/mo\/kansas-city\/6951-nw-83rd-terrace\/store-8255",
        "state_name":"Missouri",
        "brand":"Arby's"
    },
    {
        "store_id":"7582",
        "store_name":"Bonner Springs \u2013 Tulip Dr",
        "street":"600 Tulip Dr",
        "city":"Bonner Springs",
        "state":"KS",
        "zip":"66012",
        "timezone":"America\/Chicago",
        "phone":"(913) 441-7949",
        "latitude":39.0866169,
        "longitude":-94.8808949,
        "url":"us\/ks\/bonner-springs\/600-tulip-dr\/store-7582",
        "state_name":"Kansas",
        "brand":"Arby's"
    },
    {
        "store_id":"8628",
        "store_name":"Kansas City \u2013 8545 N Oak Trafficway",
        "street":"8545 N Oak Trafficway",
        "city":"Kansas City",
        "state":"MO",
        "zip":"64155",
        "timezone":"America\/Chicago",
        "phone":"(816) 436-0527",
        "latitude":39.2488697,
        "longitude":-94.5754203,
        "url":"us\/mo\/kansas-city\/8545-n-oak-trafficway\/store-8628",
        "state_name":"Missouri",
        "brand":"Arby's"
    },
    {
        "store_id":"6296",
        "store_name":"Raytown \u2013 E 350 Hwy",
        "street":"9066 E 350 Hwy",
        "city":"Raytown",
        "state":"MO",
        "zip":"64133",
        "timezone":"America\/Chicago",
        "phone":"(816) 737-8553",
        "latitude":38.9963373,
        "longitude":-94.4755904,
        "url":"us\/mo\/raytown\/9066-e-350-hwy\/store-6296",
        "state_name":"Missouri",
        "brand":"Arby's"
    },
    {
        "store_id":"8219",
        "store_name":"Kansas City \u2013 N Oxford Ave",
        "street":"8261 N. Oxford Ave",
        "city":"Kansas City",
        "state":"MO",
        "zip":"64158",
        "timezone":"America\/Chicago",
        "phone":"(816) 792-4900",
        "latitude":39.2432296,
        "longitude":-94.4657745,
        "url":"us\/mo\/kansas-city\/8261-n--oxford-ave\/store-8219",
        "state_name":"Missouri",
        "brand":"Arby's"
    },
    {
        "store_id":"5827",
        "store_name":"Independence \u2013 S Noland Road",
        "street":"4515 S. Noland Road",
        "city":"Independence",
        "state":"MO",
        "zip":"64055",
        "timezone":"America\/Chicago",
        "phone":"(816) 373-9368",
        "latitude":39.0386639,
        "longitude":-94.4149737,
        "url":"us\/mo\/independence\/4515-s--noland-road\/store-5827",
        "state_name":"Missouri",
        "brand":"Arby's"
    },
    {
        "store_id":"7918",
        "store_name":"Olathe \u2013 119th St",
        "street":"18060 W. 119th St",
        "city":"Olathe",
        "state":"KS",
        "zip":"66061",
        "timezone":"America\/Chicago",
        "phone":"(913) 859-9132",
        "latitude":38.9132376,
        "longitude":-94.7948304,
        "url":"us\/ks\/olathe\/18060-w--119th-st\/store-7918",
        "state_name":"Kansas",
        "brand":"Arby's"
    },
    {
        "store_id":"7967",
        "store_name":"Lansing \u2013 N Main St",
        "street":"291 N. Main St",
        "city":"Lansing",
        "state":"KS",
        "zip":"66043",
        "timezone":"America\/Chicago",
        "phone":"(913) 727-2420",
        "latitude":39.2548321,
        "longitude":-94.9005971,
        "url":"us\/ks\/lansing\/291-n--main-st\/store-7967",
        "state_name":"Kansas",
        "brand":"Arby's"
    },
    {
        "store_id":"6489",
        "store_name":"Independence \u2013 M-291 Highway",
        "street":"2531 South M-291 Highway",
        "city":"Independence",
        "state":"MO",
        "zip":"64057",
        "timezone":"America\/Chicago",
        "phone":"(816) 373-5236",
        "latitude":39.0737726,
        "longitude":-94.3783707,
        "url":"us\/mo\/independence\/2531-south-m-291-highway\/store-6489",
        "state_name":"Missouri",
        "brand":"Arby's"
    },
    {
        "store_id":"8338",
        "store_name":"Olathe \u2013 S Blackbob Rd",
        "street":"13790 S. Blackbob Rd.",
        "city":"Olathe",
        "state":"KS",
        "zip":"66062",
        "timezone":"America\/Chicago",
        "phone":"(913) 829-3458",
        "latitude":38.8793359,
        "longitude":-94.7615746,
        "url":"us\/ks\/olathe\/13790-s--blackbob-rd\/store-8338",
        "state_name":"Kansas",
        "brand":"Arby's"
    },
    {
        "store_id":"8381",
        "store_name":"Overland Park \u2013 Metcalf Ave",
        "street":"15021 Metcalf Ave.",
        "city":"Overland Park",
        "state":"KS",
        "zip":"66223",
        "timezone":"America\/Chicago",
        "phone":"(913) 685-1995",
        "latitude":38.8560495,
        "longitude":-94.6671764,
        "url":"us\/ks\/overland-park\/15021-metcalf-ave\/store-8381",
        "state_name":"Kansas",
        "brand":"Arby's"
    },
    {
        "store_id":"7409",
        "store_name":"Platte City \u2013 Prairie View Rd",
        "street":"1700 Prairie View Rd",
        "city":"Platte City",
        "state":"MO",
        "zip":"64079",
        "timezone":"America\/Chicago",
        "phone":"(816) 431-9943",
        "latitude":39.3589102,
        "longitude":-94.7694493,
        "url":"us\/mo\/platte-city\/1700-prairie-view-rd\/store-7409",
        "state_name":"Missouri",
        "brand":"Arby's"
    },
    {
        "store_id":"8286",
        "store_name":"Independence \u2013 E Valley View Pkwy",
        "street":"20111 E. Valley View Pkwy",
        "city":"Independence",
        "state":"MO",
        "zip":"64057",
        "timezone":"America\/Chicago",
        "phone":"(816) 795-1301",
        "latitude":39.0365872,
        "longitude":-94.3440298,
        "url":"us\/mo\/independence\/20111-e--valley-view-pkwy\/store-8286",
        "state_name":"Missouri",
        "brand":"Arby's"
    },
    {
        "store_id":"8265",
        "store_name":"Olathe \u2013 151st St",
        "street":"18615 W. 151st Street",
        "city":"Olathe",
        "state":"KS",
        "zip":"66062",
        "timezone":"America\/Chicago",
        "phone":"(913) 768-1599",
        "latitude":38.8541749,
        "longitude":-94.8001322,
        "url":"us\/ks\/olathe\/18615-w--151st-street\/store-8265",
        "state_name":"Kansas",
        "brand":"Arby's"
    },
    {
        "store_id":"7199",
        "store_name":"Lee's Summit \u2013 Ne Rice Rd",
        "street":"1027 Ne Rice Rd",
        "city":"Lee's Summit",
        "state":"MO",
        "zip":"64086",
        "timezone":"America\/Chicago",
        "phone":"(816) 347-8170",
        "latitude":38.9313367,
        "longitude":-94.3588012,
        "url":"us\/mo\/lee's-summit\/1027-ne-rice-rd\/store-7199",
        "state_name":"Missouri",
        "brand":"Arby's"
    },
    {
        "store_id":"7222",
        "store_name":"Belton \u2013 E North Ave",
        "street":"1420 E North Ave",
        "city":"Belton",
        "state":"MO",
        "zip":"64012",
        "timezone":"America\/Chicago",
        "phone":"(816) 318-1525",
        "latitude":38.8140185,
        "longitude":-94.5108459,
        "url":"us\/mo\/belton\/1420-e-north-ave\/store-7222",
        "state_name":"Missouri",
        "brand":"Arby's"
    },
    {
        "store_id":"7621",
        "store_name":"Gardner \u2013 E Santa Fe St",
        "street":"1870 E Santa Fe St",
        "city":"Gardner",
        "state":"KS",
        "zip":"66030",
        "timezone":"America\/Chicago",
        "phone":"(913) 884-2955",
        "latitude":38.8113152,
        "longitude":-94.8889006,
        "url":"us\/ks\/gardner\/1870-e-santa-fe-st\/store-7621",
        "state_name":"Kansas",
        "brand":"Arby's"
    },
    {
        "store_id":"7287",
        "store_name":"Lee's Summit \u2013 150 Hwy",
        "street":"200 Sw 150 Hwy",
        "city":"Lee's Summit",
        "state":"MO",
        "zip":"64082",
        "timezone":"America\/Chicago",
        "phone":"(816) 537-5442",
        "latitude":38.8532419,
        "longitude":-94.3799212,
        "url":"us\/mo\/lee's-summit\/200-sw-150-hwy\/store-7287",
        "state_name":"Missouri",
        "brand":"Arby's"
    },
    {
        "store_id":"8413",
        "store_name":"Blue Springs \u2013 Ne Coronado Dr",
        "street":"1225 Ne Coronado Dr.",
        "city":"Blue Springs",
        "state":"MO",
        "zip":"64014",
        "timezone":"America\/Chicago",
        "phone":"(816) 228-2723",
        "latitude":39.0263731,
        "longitude":-94.2458727,
        "url":"us\/mo\/blue-springs\/1225-ne-coronado-dr\/store-8413",
        "state_name":"Missouri",
        "brand":"Arby's"
    },
    {
        "store_id":"7003",
        "store_name":"Kearney \u2013 Shanks Avenue",
        "street":"520 Shanks Avenue",
        "city":"Kearney",
        "state":"MO",
        "zip":"64060",
        "timezone":"America\/Chicago",
        "phone":"(816) 628-4520",
        "latitude":39.3682093,
        "longitude":-94.3751628,
        "url":"us\/mo\/kearney\/520-shanks-avenue\/store-7003",
        "state_name":"Missouri",
        "brand":"Arby's"
    },
    {
        "store_id":"7637",
        "store_name":"Excelsior Springs \u2013 Vintage Ct",
        "street":"2303 Vintage Ct",
        "city":"Excelsior Springs",
        "state":"MO",
        "zip":"64024",
        "timezone":"America\/Chicago",
        "phone":"(816) 637-2914",
        "latitude":39.3314618,
        "longitude":-94.269433,
        "url":"us\/mo\/excelsior-springs\/2303-vintage-ct\/store-7637",
        "state_name":"Missouri",
        "brand":"Arby's"
    },
    {
        "store_id":"6277",
        "store_name":"Harrisonville \u2013 N State Route 291",
        "street":"1500 N State Route 291",
        "city":"Harrisonville",
        "state":"MO",
        "zip":"64701",
        "timezone":"America\/Chicago",
        "phone":"(816) 380-3130",
        "latitude":38.6644048,
        "longitude":-94.3675736,
        "url":"us\/mo\/harrisonville\/1500-n-state-route-291\/store-6277",
        "state_name":"Missouri",
        "brand":"Arby's"
    },
    {
        "store_id":"6784",
        "store_name":"Lawrence \u2013 West 6th Street",
        "street":"4671 West 6th Street",
        "city":"Lawrence",
        "state":"KS",
        "zip":"66049",
        "timezone":"America\/Chicago",
        "phone":"(785) 331-3153",
        "latitude":38.9710121,
        "longitude":-95.3026136,
        "url":"us\/ks\/lawrence\/4671-west-6th-street\/store-6784",
        "state_name":"Kansas",
        "brand":"Arby's"
    },
    {
        "store_id":"7570",
        "store_name":"Paola \u2013 S Hedge Ln",
        "street":"1 S Hedge Ln",
        "city":"Paola",
        "state":"KS",
        "zip":"66071",
        "timezone":"America\/Chicago",
        "phone":"(913) 294-2504",
        "latitude":38.5702083,
        "longitude":-94.8564592,
        "url":"us\/ks\/paola\/1-s-hedge-ln\/store-7570",
        "state_name":"Kansas",
        "brand":"Arby's"
    },
    {
        "store_id":"7412",
        "store_name":"St Joseph \u2013 S Leonard Rd",
        "street":"4601 S Leonard Rd",
        "city":"St. Joseph",
        "state":"MO",
        "zip":"64507",
        "timezone":"America\/Chicago",
        "phone":"(816) 364-5096",
        "latitude":39.7223646,
        "longitude":-94.7862122,
        "url":"us\/mo\/st--joseph\/4601-s-leonard-rd\/store-7412",
        "state_name":"Missouri",
        "brand":"Arby's"
    },
    {
        "store_id":"1794",
        "store_name":"St Joseph \u2013 N Belt Hwy",
        "street":"1604 N Belt Hwy",
        "city":"St. Joseph",
        "state":"MO",
        "zip":"64506",
        "timezone":"America\/Chicago",
        "phone":"(816) 232-7114",
        "latitude":39.7817507,
        "longitude":-94.8035725,
        "url":"us\/mo\/st--joseph\/1604-n-belt-hwy\/store-1794",
        "state_name":"Missouri",
        "brand":"Arby's"
    },
    {
        "store_id":"8744",
        "store_name":"Ottawa \u2013 South Princeton Street",
        "street":"2340 South Princeton Street",
        "city":"Ottawa",
        "state":"KS",
        "zip":"66067",
        "timezone":"America\/Chicago",
        "phone":"(785) 242-2426",
        "latitude":38.5777522,
        "longitude":-95.2681377,
        "url":"us\/ks\/ottawa\/2340-south-princeton-street\/store-8744",
        "state_name":"Kansas",
        "brand":"Arby's"
    },
    {
        "store_id":"1408",
        "store_name":"Topeka \u2013 Se 29th St",
        "street":"1820 Se 29th St",
        "city":"Topeka",
        "state":"KS",
        "zip":"66605",
        "timezone":"America\/Chicago",
        "phone":"(785) 266-3721",
        "latitude":39.015418,
        "longitude":-95.6533949,
        "url":"us\/ks\/topeka\/1820-se-29th-st\/store-1408",
        "state_name":"Kansas",
        "brand":"Arby's"
    },
    {
        "store_id":"704",
        "store_name":"Warrensburg \u2013 N Maguire St",
        "street":"502 N Maguire St",
        "city":"Warrensburg",
        "state":"MO",
        "zip":"64093",
        "timezone":"America\/Chicago",
        "phone":"(660) 747-7944",
        "latitude":38.7677872,
        "longitude":-93.7359122,
        "url":"us\/mo\/warrensburg\/502-n-maguire-st\/store-704",
        "state_name":"Missouri",
        "brand":"Arby's"
    },
    {
        "store_id":"1410",
        "store_name":"Topeka \u2013 Gage Blvd",
        "street":"1187 Gage Blvd",
        "city":"Topeka",
        "state":"KS",
        "zip":"66604",
        "timezone":"America\/Chicago",
        "phone":"(785) 273-2110",
        "latitude":39.0460992,
        "longitude":-95.7251694,
        "url":"us\/ks\/topeka\/1187-gage-blvd\/store-1410",
        "state_name":"Kansas",
        "brand":"Arby's"
    },
    {
        "store_id":"7744",
        "store_name":"Topeka \u2013 Sw Huntoon Street",
        "street":"5930 Sw Huntoon Street",
        "city":"Topeka",
        "state":"KS",
        "zip":"66614",
        "timezone":"America\/Chicago",
        "phone":"(785) 228-2680",
        "latitude":39.0440498,
        "longitude":-95.7602249,
        "url":"us\/ks\/topeka\/5930-sw-huntoon-street\/store-7744",
        "state_name":"Kansas",
        "brand":"Arby's"
    },
    {
        "store_id":"7623",
        "store_name":"Clinton \u2013 Pawnee St",
        "street":"514 Pawnee St",
        "city":"Clinton",
        "state":"MO",
        "zip":"64735",
        "timezone":"America\/Chicago",
        "phone":"(660) 885-3921",
        "latitude":38.3648641,
        "longitude":-93.7544004,
        "url":"us\/mo\/clinton\/514-pawnee-st\/store-7623",
        "state_name":"Missouri",
        "brand":"Arby's"
    },
    {
        "store_id":"7690",
        "store_name":"Marshall \u2013 Cherokee Street",
        "street":"1191 Cherokee Street",
        "city":"Marshall",
        "state":"MO",
        "zip":"65340",
        "timezone":"America\/Chicago",
        "phone":"(660) 886-6426",
        "latitude":39.1073246,
        "longitude":-93.214183,
        "url":"us\/mo\/marshall\/1191-cherokee-street\/store-7690",
        "state_name":"Missouri",
        "brand":"Arby's"
    },
    {
        "store_id":"7327",
        "store_name":"Sedalia \u2013 W Broadway",
        "street":"2701 W Broadway",
        "city":"Sedalia",
        "state":"MO",
        "zip":"65301",
        "timezone":"America\/Chicago",
        "phone":"(660) 829-4072",
        "latitude":38.7058624,
        "longitude":-93.2589733,
        "url":"us\/mo\/sedalia\/2701-w-broadway\/store-7327",
        "state_name":"Missouri",
        "brand":"Arby's"
    },
    {
        "store_id":"8708",
        "store_name":"Fort Scott \u2013 S. Main St",
        "street":"2101 S. Main St.",
        "city":"Fort Scott",
        "state":"KS",
        "zip":"66701",
        "timezone":"America\/Chicago",
        "phone":"(620) 223-1660",
        "latitude":37.8155722,
        "longitude":-94.7049202,
        "url":"us\/ks\/fort-scott\/2101-s--main-st\/store-8708",
        "state_name":"Kansas",
        "brand":"Arby's"
    },
    {
        "store_id":"5613",
        "store_name":"Emporia \u2013 W Us Highway",
        "street":"2711 W Us Highway 50",
        "city":"Emporia",
        "state":"KS",
        "zip":"66801",
        "timezone":"America\/Chicago",
        "phone":"(620) 342-6322",
        "latitude":38.4072314,
        "longitude":-96.2155718,
        "url":"us\/ks\/emporia\/2711-w-us-highway-50\/store-5613",
        "state_name":"Kansas",
        "brand":"Arby's"
    },
    {
        "store_id":"8507",
        "store_name":"Manhattan \u2013 McCall Rd",
        "street":"405 McCall Rd.",
        "city":"Manhattan",
        "state":"KS",
        "zip":"66502",
        "timezone":"America\/Chicago",
        "phone":"(785) 537-0990",
        "latitude":39.189965,
        "longitude":-96.5539447,
        "url":"us\/ks\/manhattan\/405-mccall-rd\/store-8507",
        "state_name":"Kansas",
        "brand":"Arby's"
    },
    {
        "store_id":"7689",
        "store_name":"Boonville \u2013 Mid-American Industrial Drive",
        "street":"2421 Mid-American Industrial Drive",
        "city":"Boonville",
        "state":"MO",
        "zip":"65233",
        "timezone":"America\/Chicago",
        "phone":"(660) 882-6913",
        "latitude":38.9371951,
        "longitude":-92.7769311,
        "url":"us\/mo\/boonville\/2421-mid-american-industrial-drive\/store-7689",
        "state_name":"Missouri",
        "brand":"Arby's"
    },
    {
        "store_id":"7620",
        "store_name":"Manhattan \u2013 Southwind Pl",
        "street":"326 Southwind Pl",
        "city":"Manhattan",
        "state":"KS",
        "zip":"66503",
        "timezone":"America\/Chicago",
        "phone":"(785) 537-3436",
        "latitude":39.174177,
        "longitude":-96.6057507,
        "url":"us\/ks\/manhattan\/326-southwind-pl\/store-7620",
        "state_name":"Kansas",
        "brand":"Arby's"
    },
    {
        "store_id":"8554",
        "store_name":"Chanute \u2013 North Blue Comet Dr",
        "street":"3301 North Blue Comet Dr.",
        "city":"Chanute",
        "state":"KS",
        "zip":"66720",
        "timezone":"America\/Chicago",
        "phone":"(620) 431-0805",
        "latitude":37.6465619,
        "longitude":-95.4757972,
        "url":"us\/ks\/chanute\/3301-north-blue-comet-dr\/store-8554",
        "state_name":"Kansas",
        "brand":"Arby's"
    },
    {
        "store_id":"7712",
        "store_name":"Junction City \u2013 E Chestnut St",
        "street":"720 E Chestnut St",
        "city":"Junction City",
        "state":"KS",
        "zip":"66441",
        "timezone":"America\/Chicago",
        "phone":"(785) 762-2080",
        "latitude":39.0221914,
        "longitude":-96.8189596,
        "url":"us\/ks\/junction-city\/720-e-chestnut-st\/store-7712",
        "state_name":"Kansas",
        "brand":"Arby's"
    },
    {
        "store_id":"6221",
        "store_name":"Pittsburg \u2013 N Broadway Avenue",
        "street":"2715 N. Broadway Avenue",
        "city":"Pittsburg",
        "state":"KS",
        "zip":"66762",
        "timezone":"America\/Chicago",
        "phone":"(620) 231-9333",
        "latitude":37.4341674,
        "longitude":-94.7054656,
        "url":"us\/ks\/pittsburg\/2715-n--broadway-avenue\/store-6221",
        "state_name":"Kansas",
        "brand":"Arby's"
    },
    {
        "store_id":"8530",
        "store_name":"Moberly \u2013 East Us Highway 24",
        "street":"600 East Us Highway 24",
        "city":"Moberly",
        "state":"MO",
        "zip":"65270",
        "timezone":"America\/Chicago",
        "phone":"(660) 263-0536",
        "latitude":39.4426632,
        "longitude":-92.4273775,
        "url":"us\/mo\/moberly\/600-east-us-highway-24\/store-8530",
        "state_name":"Missouri",
        "brand":"Arby's"
    },
    {
        "store_id":"7935",
        "store_name":"Columbia \u2013 Broadway Business Park Ct",
        "street":"3200 Broadway Business Park Ct.",
        "city":"Columbia",
        "state":"MO",
        "zip":"65203",
        "timezone":"America\/Chicago",
        "phone":"(573) 446-0500",
        "latitude":38.9538346,
        "longitude":-92.3852382,
        "url":"us\/mo\/columbia\/3200-broadway-business-park-ct\/store-7935",
        "state_name":"Missouri",
        "brand":"Arby's"
    },
    {
        "store_id":"6973",
        "store_name":"Nebraska City \u2013 S 11th St",
        "street":"1649 S 11th St",
        "city":"Nebraska City",
        "state":"NE",
        "zip":"68410",
        "timezone":"America\/Chicago",
        "phone":"(402) 873-5323",
        "latitude":40.6626398,
        "longitude":-95.8587331,
        "url":"us\/ne\/nebraska-city\/1649-s-11th-st\/store-6973",
        "state_name":"Nebraska",
        "brand":"Arby's"
    },
    {
        "store_id":"8475",
        "store_name":"Bolivar \u2013 South Springfield Ave",
        "street":"1995 South Springfield Ave",
        "city":"Bolivar",
        "state":"MO",
        "zip":"65613",
        "timezone":"America\/Chicago",
        "phone":"(417) 326-2729",
        "latitude":37.5955928,
        "longitude":-93.4031399,
        "url":"us\/mo\/bolivar\/1995-south-springfield-ave\/store-8475",
        "state_name":"Missouri",
        "brand":"Arby's"
    },
    {
        "store_id":"7627",
        "store_name":"Columbia \u2013 S Providence Rd",
        "street":"3911 S Providence Rd",
        "city":"Columbia",
        "state":"MO",
        "zip":"65203",
        "timezone":"America\/Chicago",
        "phone":"(573) 449-9961",
        "latitude":38.9076253,
        "longitude":-92.3358569,
        "url":"us\/mo\/columbia\/3911-s-providence-rd\/store-7627",
        "state_name":"Missouri",
        "brand":"Arby's"
    },
    {
        "store_id":"8236",
        "store_name":"Osage Beach \u2013 Highway 54",
        "street":"5779 Highway 54",
        "city":"Osage Beach",
        "state":"MO",
        "zip":"65065",
        "timezone":"America\/Chicago",
        "phone":"(573) 302-7660",
        "latitude":38.1210362,
        "longitude":-92.6790727,
        "url":"us\/mo\/osage-beach\/5779-highway-54\/store-8236",
        "state_name":"Missouri",
        "brand":"Arby's"
    },
    {
        "store_id":"7194",
        "store_name":"Carthage \u2013 W Central Ave",
        "street":"1501 W Central Ave",
        "city":"Carthage",
        "state":"MO",
        "zip":"64836",
        "timezone":"America\/Chicago",
        "phone":"(417) 359-9181",
        "latitude":37.1795006,
        "longitude":-94.3321432,
        "url":"us\/mo\/carthage\/1501-w-central-ave\/store-7194",
        "state_name":"Missouri",
        "brand":"Arby's"
    },
    {
        "store_id":"8680",
        "store_name":"Kirksville \u2013 North Baltimore Street",
        "street":"2607 North Baltimore Street",
        "city":"Kirksville",
        "state":"MO",
        "zip":"63501",
        "timezone":"America\/Chicago",
        "phone":"(660) 262-3030",
        "latitude":40.220149,
        "longitude":-92.5833233,
        "url":"us\/mo\/kirksville\/2607-north-baltimore-street\/store-8680",
        "state_name":"Missouri",
        "brand":"Arby's"
    },
    {
        "store_id":"8683",
        "store_name":"Abilene \u2013 N Buckeye Ave",
        "street":"2200 N Buckeye Ave",
        "city":"Abilene",
        "state":"KS",
        "zip":"67410",
        "timezone":"America\/Chicago",
        "phone":"(785) 263-3511",
        "latitude":38.9383775,
        "longitude":-97.2144902,
        "url":"us\/ks\/abilene\/2200-n-buckeye-ave\/store-8683",
        "state_name":"Kansas",
        "brand":"Arby's"
    },
    {
        "store_id":"8344",
        "store_name":"Jefferson City \u2013 S. Ten Mile Dr",
        "street":"2815 S. Ten Mile Dr.",
        "city":"Jefferson City",
        "state":"MO",
        "zip":"65109",
        "timezone":"America\/Chicago",
        "phone":"(573) 659-8638",
        "latitude":38.5810732,
        "longitude":-92.2244738,
        "url":"us\/mo\/jefferson-city\/2815-s--ten-mile-dr\/store-8344",
        "state_name":"Missouri",
        "brand":"Arby's"
    },
    {
        "store_id":"5710",
        "store_name":"Beatrice \u2013 N 6th St",
        "street":"2205 N 6th St",
        "city":"Beatrice",
        "state":"NE",
        "zip":"68310",
        "timezone":"America\/Chicago",
        "phone":"(402) 228-1333",
        "latitude":40.2873255,
        "longitude":-96.7479175,
        "url":"us\/ne\/beatrice\/2205-n-6th-st\/store-5710",
        "state_name":"Nebraska",
        "brand":"Arby's"
    },
    {
        "store_id":"7097",
        "store_name":"Webb City \u2013 South Madison",
        "street":"1704 South Madison",
        "city":"Webb City",
        "state":"MO",
        "zip":"64870",
        "timezone":"America\/Chicago",
        "phone":"(417) 673-1727",
        "latitude":37.1273379,
        "longitude":-94.4760914,
        "url":"us\/mo\/webb-city\/1704-south-madison\/store-7097",
        "state_name":"Missouri",
        "brand":"Arby's"
    },
    {
        "store_id":"7365",
        "store_name":"Osceola \u2013 Ariel Circle",
        "street":"105 Ariel Circle",
        "city":"Osceola",
        "state":"IA",
        "zip":"50213",
        "timezone":"America\/Chicago",
        "phone":"(641) 342-1400",
        "latitude":41.0250973,
        "longitude":-93.7974531,
        "url":"us\/ia\/osceola\/105-ariel-circle\/store-7365",
        "state_name":"Iowa",
        "brand":"Arby's"
    },
    {
        "store_id":"5732",
        "store_name":"Independence \u2013 North Pennsylvania",
        "street":"423 North Pennsylvania",
        "city":"Independence",
        "state":"KS",
        "zip":"67301",
        "timezone":"America\/Chicago",
        "phone":"(620) 331-1116",
        "latitude":37.2272348,
        "longitude":-95.7069298,
        "url":"us\/ks\/independence\/423-north-pennsylvania\/store-5732",
        "state_name":"Kansas",
        "brand":"Arby's"
    },
    {
        "store_id":"8442",
        "store_name":"Joplin \u2013 S. Range Line Rd",
        "street":"2408 S. Range Line Rd",
        "city":"Joplin",
        "state":"MO",
        "zip":"64804",
        "timezone":"America\/Chicago",
        "phone":"(417) 625-1962",
        "latitude":37.0630343,
        "longitude":-94.4787287,
        "url":"us\/mo\/joplin\/2408-s--range-line-rd\/store-8442",
        "state_name":"Missouri",
        "brand":"Arby's"
    },
    {
        "store_id":"7764",
        "store_name":"Kingdom City \u2013 County Road 211",
        "street":"3325 County Road 211",
        "city":"Kingdom City",
        "state":"MO",
        "zip":"65262",
        "timezone":"America\/Chicago",
        "phone":"(573) 642-1161",
        "latitude":38.9399137,
        "longitude":-91.9427424,
        "url":"us\/mo\/kingdom-city\/3325-county-road-211\/store-7764",
        "state_name":"Missouri",
        "brand":"Arby's"
    },
    {
        "store_id":"8287",
        "store_name":"Lebanon \u2013 South Jefferson Ave",
        "street":"888 South Jefferson Ave.",
        "city":"Lebanon",
        "state":"MO",
        "zip":"65536",
        "timezone":"America\/Chicago",
        "phone":"(417) 532-4437",
        "latitude":37.6733698,
        "longitude":-92.6551678,
        "url":"us\/mo\/lebanon\/888-south-jefferson-ave\/store-8287",
        "state_name":"Missouri",
        "brand":"Arby's"
    },
    {
        "store_id":"7552",
        "store_name":"El Dorado \u2013 W Central Ave",
        "street":"1707 W Central Ave",
        "city":"El Dorado",
        "state":"KS",
        "zip":"67042",
        "timezone":"America\/Chicago",
        "phone":"(316) 322-7379",
        "latitude":37.8170351,
        "longitude":-96.8719172,
        "url":"us\/ks\/el-dorado\/1707-w-central-ave\/store-7552",
        "state_name":"Kansas",
        "brand":"Arby's"
    },
    {
        "store_id":"699",
        "store_name":"Springfield \u2013 W Kearney St",
        "street":"1416 W Kearney St",
        "city":"Springfield",
        "state":"MO",
        "zip":"65803",
        "timezone":"America\/Chicago",
        "phone":"(417) 865-9779",
        "latitude":37.2404698,
        "longitude":-93.3085795,
        "url":"us\/mo\/springfield\/1416-w-kearney-st\/store-699",
        "state_name":"Missouri",
        "brand":"Arby's"
    },
    {
        "store_id":"8274",
        "store_name":"Springfield \u2013 S West Bypass",
        "street":"230 S. West Bypass",
        "city":"Springfield",
        "state":"MO",
        "zip":"65802",
        "timezone":"America\/Chicago",
        "phone":"(417) 831-2786",
        "latitude":37.2088252,
        "longitude":-93.3480028,
        "url":"us\/mo\/springfield\/230-s--west-bypass\/store-8274",
        "state_name":"Missouri",
        "brand":"Arby's"
    },
    {
        "store_id":"8424",
        "store_name":"Republic \u2013 Us Highway 60 East",
        "street":"1320 US HIGHWAY 60 EAST",
        "city":"Republic",
        "state":"MO",
        "zip":"65738",
        "timezone":"America\/Chicago",
        "phone":"(417) 732-7120",
        "latitude":37.1312695,
        "longitude":-93.4575854,
        "url":"us\/mo\/republic\/1320-us-highway-60-east\/store-8424",
        "state_name":"Missouri",
        "brand":"Arby's"
    },
    {
        "store_id":"8275",
        "store_name":"Lincoln \u2013 Andermatt Dr",
        "street":"8555 Andermatt Dr",
        "city":"Lincoln",
        "state":"NE",
        "zip":"68526",
        "timezone":"America\/Chicago",
        "phone":"(402) 488-0013",
        "latitude":40.735217,
        "longitude":-96.6031801,
        "url":"us\/ne\/lincoln\/8555-andermatt-dr\/store-8275",
        "state_name":"Nebraska",
        "brand":"Arby's"
    },
    {
        "store_id":"7440",
        "store_name":"Coffeyville \u2013 W 11th St",
        "street":"501 W 11th St",
        "city":"Coffeyville",
        "state":"KS",
        "zip":"67337",
        "timezone":"America\/Chicago",
        "phone":"(620) 251-4304",
        "latitude":37.0327297,
        "longitude":-95.622755,
        "url":"us\/ks\/coffeyville\/501-w-11th-st\/store-7440",
        "state_name":"Kansas",
        "brand":"Arby's"
    },
    {
        "store_id":"136",
        "store_name":"Springfield \u2013 S Glenstone Rd",
        "street":"735 S Glenstone Rd",
        "city":"Springfield",
        "state":"MO",
        "zip":"65804",
        "timezone":"America\/Chicago",
        "phone":"(417) 862-3146",
        "latitude":37.2009665,
        "longitude":-93.2624291,
        "url":"us\/mo\/springfield\/735-s-glenstone-rd\/store-136",
        "state_name":"Missouri",
        "brand":"Arby's"
    },
    {
        "store_id":"600",
        "store_name":"Springfield \u2013 S Campbell Ave",
        "street":"2225 S Campbell Ave",
        "city":"Springfield",
        "state":"MO",
        "zip":"65804",
        "timezone":"America\/Chicago",
        "phone":"(417) 883-4811",
        "latitude":37.1741729,
        "longitude":-93.2957206,
        "url":"us\/mo\/springfield\/2225-s-campbell-ave\/store-600",
        "state_name":"Missouri",
        "brand":"Arby's"
    },
    {
        "store_id":"729",
        "store_name":"Miami \u2013 N Main St",
        "street":"1217 N Main St",
        "city":"Miami",
        "state":"OK",
        "zip":"74354",
        "timezone":"America\/Chicago",
        "phone":"(918) 542-4041",
        "latitude":36.8892955,
        "longitude":-94.8778753,
        "url":"us\/ok\/miami\/1217-n-main-st\/store-729",
        "state_name":"Oklahoma",
        "brand":"Arby's"
    },
    {
        "store_id":"7725",
        "store_name":"Springfield \u2013 W Republic Road",
        "street":"1833 W. Republic Road",
        "city":"Springfield",
        "state":"MO",
        "zip":"65807",
        "timezone":"America\/Chicago",
        "phone":"(417) 890-0902",
        "latitude":37.1388889,
        "longitude":-93.3188869,
        "url":"us\/mo\/springfield\/1833-w--republic-road\/store-7725",
        "state_name":"Missouri",
        "brand":"Arby's"
    },
    {
        "store_id":"7999",
        "store_name":"Neosho \u2013 S Neosho Blvd",
        "street":"702 S. Neosho Blvd",
        "city":"Neosho",
        "state":"MO",
        "zip":"64850",
        "timezone":"America\/Chicago",
        "phone":"(417) 455-5884",
        "latitude":36.8615051,
        "longitude":-94.3829723,
        "url":"us\/mo\/neosho\/702-s--neosho-blvd\/store-7999",
        "state_name":"Missouri",
        "brand":"Arby's"
    },
    {
        "store_id":"6100",
        "store_name":"Lincoln \u2013 48th St",
        "street":"2444 S 48th St",
        "city":"Lincoln",
        "state":"NE",
        "zip":"68506",
        "timezone":"America\/Chicago",
        "phone":"(402) 488-9242",
        "latitude":40.7872479,
        "longitude":-96.6533304,
        "url":"us\/ne\/lincoln\/2444-s-48th-st\/store-6100",
        "state_name":"Nebraska",
        "brand":"Arby's"
    },
    {
        "store_id":"7125",
        "store_name":"Bellevue \u2013 Cornhusker Rd",
        "street":"1303 Cornhusker Rd",
        "city":"Bellevue",
        "state":"NE",
        "zip":"68123",
        "timezone":"America\/Chicago",
        "phone":"(402) 293-3893",
        "latitude":41.1579219,
        "longitude":-95.9334886,
        "url":"us\/ne\/bellevue\/1303-cornhusker-rd\/store-7125",
        "state_name":"Nebraska",
        "brand":"Arby's"
    },
    {
        "store_id":"1309",
        "store_name":"Lincoln \u2013 27th St",
        "street":"4300 S 27th St",
        "city":"Lincoln",
        "state":"NE",
        "zip":"68502",
        "timezone":"America\/Chicago",
        "phone":"(402) 423-0506",
        "latitude":40.7702041,
        "longitude":-96.6823992,
        "url":"us\/ne\/lincoln\/4300-s-27th-st\/store-1309",
        "state_name":"Nebraska",
        "brand":"Arby's"
    },
    {
        "store_id":"8474",
        "store_name":"Monett \u2013 E. Highway 60",
        "street":"836 E. Highway 60",
        "city":"Monett",
        "state":"MO",
        "zip":"65708",
        "timezone":"America\/Chicago",
        "phone":"(417) 235-5516",
        "latitude":36.9146953,
        "longitude":-93.9124381,
        "url":"us\/mo\/monett\/836-e--highway-60\/store-8474",
        "state_name":"Missouri",
        "brand":"Arby's"
    },
    {
        "store_id":"651",
        "store_name":"Lincoln \u2013 O St",
        "street":"5540 O St",
        "city":"Lincoln",
        "state":"NE",
        "zip":"68510",
        "timezone":"America\/Chicago",
        "phone":"(402) 467-3300",
        "latitude":40.8138125,
        "longitude":-96.6447292,
        "url":"us\/ne\/lincoln\/5540-o-st\/store-651",
        "state_name":"Nebraska",
        "brand":"Arby's"
    },
    {
        "store_id":"8653",
        "store_name":"Salina \u2013 South 9th St",
        "street":"2800 South 9th St.",
        "city":"Salina",
        "state":"KS",
        "zip":"67401",
        "timezone":"America\/Chicago",
        "phone":"(785) 493-8110",
        "latitude":38.7881276,
        "longitude":-97.6136863,
        "url":"us\/ks\/salina\/2800-south-9th-st\/store-8653",
        "state_name":"Kansas",
        "brand":"Arby's"
    },
    {
        "store_id":"577",
        "store_name":"Lincoln \u2013 Q St",
        "street":"1425 Q St",
        "city":"Lincoln",
        "state":"NE",
        "zip":"68508",
        "timezone":"America\/Chicago",
        "phone":"(402) 476-7114",
        "latitude":40.8155628,
        "longitude":-96.7001978,
        "url":"us\/ne\/lincoln\/1425-q-st\/store-577",
        "state_name":"Nebraska",
        "brand":"Arby's"
    },
    {
        "store_id":"1323",
        "store_name":"Salina \u2013 S Broadway",
        "street":"510 S Broadway",
        "city":"Salina",
        "state":"KS",
        "zip":"67401",
        "timezone":"America\/Chicago",
        "phone":"(785) 827-1341",
        "latitude":38.832067,
        "longitude":-97.6255923,
        "url":"us\/ks\/salina\/510-s-broadway\/store-1323",
        "state_name":"Kansas",
        "brand":"Arby's"
    },
    {
        "store_id":"7919",
        "store_name":"Papillion \u2013 South 71st Plaza",
        "street":"8570 South 71st Plaza",
        "city":"Papillion",
        "state":"NE",
        "zip":"68133",
        "timezone":"America\/Chicago",
        "phone":"(402) 592-2560",
        "latitude":41.1741275,
        "longitude":-96.0229954,
        "url":"us\/ne\/papillion\/8570-south-71st-plaza\/store-7919",
        "state_name":"Nebraska",
        "brand":"Arby's"
    },
    {
        "store_id":"5338",
        "store_name":"Lincoln \u2013 Cornhusker Hwy",
        "street":"3500 Cornhusker Hwy",
        "city":"Lincoln",
        "state":"NE",
        "zip":"68504",
        "timezone":"America\/Chicago",
        "phone":"(402) 464-9449",
        "latitude":40.8435282,
        "longitude":-96.6699071,
        "url":"us\/ne\/lincoln\/3500-cornhusker-hwy\/store-5338",
        "state_name":"Nebraska",
        "brand":"Arby's"
    },
    {
        "store_id":"6534",
        "store_name":"Council Bluffs \u2013 24th St",
        "street":"2647 S 24th St",
        "city":"Council Bluffs",
        "state":"IA",
        "zip":"51501",
        "timezone":"America\/Chicago",
        "phone":"(712) 322-0370",
        "latitude":41.2356048,
        "longitude":-95.8783068,
        "url":"us\/ia\/council-bluffs\/2647-s-24th-st\/store-6534",
        "state_name":"Iowa",
        "brand":"Arby's"
    },
    {
        "store_id":"7641",
        "store_name":"Nixa \u2013 Mccroskey St",
        "street":"713 McCroskey St",
        "city":"Nixa",
        "state":"MO",
        "zip":"65714",
        "timezone":"America\/Chicago",
        "phone":"(417) 725-4170",
        "latitude":37.0535934,
        "longitude":-93.3027591,
        "url":"us\/mo\/nixa\/713-mccroskey-st\/store-7641",
        "state_name":"Missouri",
        "brand":"Arby's"
    },
    {
        "store_id":"8390",
        "store_name":"Gretna \u2013 Wickersham Blvd",
        "street":"11310 Wickersham Blvd.",
        "city":"Gretna",
        "state":"NE",
        "zip":"68028",
        "timezone":"America\/Chicago",
        "phone":"(402) 916-9551",
        "latitude":41.1437975,
        "longitude":-96.1631799,
        "url":"us\/ne\/gretna\/11310-wickersham-blvd\/store-8390",
        "state_name":"Nebraska",
        "brand":"Arby's"
    },
    {
        "store_id":"765",
        "store_name":"Omaha \u2013 50th St",
        "street":"4144 S 50th St",
        "city":"Omaha",
        "state":"NE",
        "zip":"68117",
        "timezone":"America\/Chicago",
        "phone":"(402) 731-7775",
        "latitude":41.2176483,
        "longitude":-95.9909135,
        "url":"us\/ne\/omaha\/4144-s-50th-st\/store-765",
        "state_name":"Nebraska",
        "brand":"Arby's"
    },
    {
        "store_id":"7583",
        "store_name":"Newton \u2013 Windward Dr",
        "street":"421 Windward Dr",
        "city":"Newton",
        "state":"KS",
        "zip":"67114",
        "timezone":"America\/Chicago",
        "phone":"(316) 282-0902",
        "latitude":38.0214038,
        "longitude":-97.3374993,
        "url":"us\/ks\/newton\/421-windward-dr\/store-7583",
        "state_name":"Kansas",
        "brand":"Arby's"
    },
    {
        "store_id":"7427",
        "store_name":"Lincoln \u2013 Husker Cir",
        "street":"7000 Husker Cir",
        "city":"Lincoln",
        "state":"NE",
        "zip":"68504",
        "timezone":"America\/Chicago",
        "phone":"(402) 476-1007",
        "latitude":40.8827642,
        "longitude":-96.680811,
        "url":"us\/ne\/lincoln\/7000-husker-cir\/store-7427",
        "state_name":"Nebraska",
        "brand":"Arby's"
    },
    {
        "store_id":"1775",
        "store_name":"Council Bluffs \u2013 W Broadway",
        "street":"3313 W Broadway",
        "city":"Council Bluffs",
        "state":"IA",
        "zip":"51501",
        "timezone":"America\/Chicago",
        "phone":"(712) 328-1637",
        "latitude":41.2616406,
        "longitude":-95.8978751,
        "url":"us\/ia\/council-bluffs\/3313-w-broadway\/store-1775",
        "state_name":"Iowa",
        "brand":"Arby's"
    },
    {
        "store_id":"8488",
        "store_name":"Concordia \u2013 Lincoln St",
        "street":"1707 Lincoln St.",
        "city":"Concordia",
        "state":"KS",
        "zip":"66901",
        "timezone":"America\/Chicago",
        "phone":"(785) 243-4299",
        "latitude":39.560264,
        "longitude":-97.6569727,
        "url":"us\/ks\/concordia\/1707-lincoln-st\/store-8488",
        "state_name":"Kansas",
        "brand":"Arby's"
    },
    {
        "store_id":"5269",
        "store_name":"Omaha \u2013 Center St",
        "street":"5325 Center St",
        "city":"Omaha",
        "state":"NE",
        "zip":"68106",
        "timezone":"America\/Chicago",
        "phone":"(402) 556-4098",
        "latitude":41.2396997,
        "longitude":-95.9964166,
        "url":"us\/ne\/omaha\/5325-center-st\/store-5269",
        "state_name":"Nebraska",
        "brand":"Arby's"
    },
    {
        "store_id":"5280",
        "store_name":"Omaha \u2013 108th St",
        "street":"5029 S 108th St",
        "city":"Omaha",
        "state":"NE",
        "zip":"68137",
        "timezone":"America\/Chicago",
        "phone":"(402) 339-4626",
        "latitude":41.2085387,
        "longitude":-96.080786,
        "url":"us\/ne\/omaha\/5029-s-108th-st\/store-5280",
        "state_name":"Nebraska",
        "brand":"Arby's"
    },
    {
        "store_id":"5134",
        "store_name":"St. Robert \u2013 Marshall Dr",
        "street":"421 Marshall Dr",
        "city":"St. Robert",
        "state":"MO",
        "zip":"65584",
        "timezone":"America\/Chicago",
        "phone":"(573) 336-3624",
        "latitude":37.8137836,
        "longitude":-92.1415909,
        "url":"us\/mo\/st--robert\/421-marshall-dr\/store-5134",
        "state_name":"Missouri",
        "brand":"Arby's"
    },
    {
        "store_id":"6628",
        "store_name":"Omaha \u2013 8429 W Center Rd",
        "street":"8429 W Center Rd",
        "city":"Omaha",
        "state":"NE",
        "zip":"68124",
        "timezone":"America\/Chicago",
        "phone":"(402) 390-5022",
        "latitude":41.2338163,
        "longitude":-96.0449648,
        "url":"us\/ne\/omaha\/8429-w-center-rd\/store-6628",
        "state_name":"Nebraska",
        "brand":"Arby's"
    },
    {
        "store_id":"1392",
        "store_name":"Omaha \u2013 S  Street NE",
        "street":"14145 S  Street NE",
        "city":"Omaha",
        "state":"NE",
        "zip":"68137",
        "timezone":"America\/Chicago",
        "phone":"(402) 895-1655",
        "latitude":41.2034157,
        "longitude":-96.1347839,
        "url":"us\/ne\/omaha\/14145-s--street-ne\/store-1392",
        "state_name":"Nebraska",
        "brand":"Arby's"
    },
    {
        "store_id":"652",
        "store_name":"Omaha \u2013 120th St",
        "street":"2910 S 120th St",
        "city":"Omaha",
        "state":"NE",
        "zip":"68144",
        "timezone":"America\/Chicago",
        "phone":"(402) 334-2922",
        "latitude":41.2320246,
        "longitude":-96.101244,
        "url":"us\/ne\/omaha\/2910-s-120th-st\/store-652",
        "state_name":"Nebraska",
        "brand":"Arby's"
    },
    {
        "store_id":"7624",
        "store_name":"Ozark \u2013 W Marler Lane",
        "street":"1801 W Marler Lane",
        "city":"Ozark",
        "state":"MO",
        "zip":"65721",
        "timezone":"America\/Chicago",
        "phone":"(417) 485-2406",
        "latitude":37.0040829,
        "longitude":-93.2237617,
        "url":"us\/mo\/ozark\/1801-w-marler-lane\/store-7624",
        "state_name":"Missouri",
        "brand":"Arby's"
    },
    {
        "store_id":"8354",
        "store_name":"Andover \u2013 E. Cloud",
        "street":"200 E. Cloud",
        "city":"Andover",
        "state":"KS",
        "zip":"67002",
        "timezone":"America\/Chicago",
        "phone":"(316) 733-1058",
        "latitude":37.6787894,
        "longitude":-97.1340537,
        "url":"us\/ks\/andover\/200-e--cloud\/store-8354",
        "state_name":"Kansas",
        "brand":"Arby's"
    },
    {
        "store_id":"7588",
        "store_name":"Indianola \u2013 N Jefferson",
        "street":"408 N Jefferson",
        "city":"Indianola",
        "state":"IA",
        "zip":"50125",
        "timezone":"America\/Chicago",
        "phone":"(515) 961-2255",
        "latitude":41.3641137,
        "longitude":-93.5576951,
        "url":"us\/ia\/indianola\/408-n-jefferson\/store-7588",
        "state_name":"Iowa",
        "brand":"Arby's"
    },
    {
        "store_id":"5796",
        "store_name":"Mcpherson \u2013 E Kansas Ave",
        "street":"2200 E Kansas Ave",
        "city":"Mcpherson",
        "state":"KS",
        "zip":"67460",
        "timezone":"America\/Chicago",
        "phone":"(620) 241-8835",
        "latitude":38.3701988,
        "longitude":-97.6261431,
        "url":"us\/ks\/mcpherson\/2200-e-kansas-ave\/store-5796",
        "state_name":"Kansas",
        "brand":"Arby's"
    },
    {
        "store_id":"7944",
        "store_name":"Wichita \u2013 E 21st Street North",
        "street":"11419 E. 21st Street North",
        "city":"Wichita",
        "state":"KS",
        "zip":"67206",
        "timezone":"America\/Chicago",
        "phone":"(316) 630-0016",
        "latitude":37.7226661,
        "longitude":-97.2051983,
        "url":"us\/ks\/wichita\/11419-e--21st-street-north\/store-7944",
        "state_name":"Kansas",
        "brand":"Arby's"
    },
    {
        "store_id":"7340",
        "store_name":"Omaha \u2013 72 St",
        "street":"4615 N 72 St",
        "city":"Omaha",
        "state":"NE",
        "zip":"68134",
        "timezone":"America\/Chicago",
        "phone":"(402) 573-1259",
        "latitude":41.3007026,
        "longitude":-96.0231349,
        "url":"us\/ne\/omaha\/4615-n-72-st\/store-7340",
        "state_name":"Nebraska",
        "brand":"Arby's"
    },
    {
        "store_id":"822",
        "store_name":"Omaha \u2013 90th St",
        "street":"3417 N 90th St",
        "city":"Omaha",
        "state":"NE",
        "zip":"68134",
        "timezone":"America\/Chicago",
        "phone":"(402) 571-5338",
        "latitude":41.2906102,
        "longitude":-96.052986,
        "url":"us\/ne\/omaha\/3417-n-90th-st\/store-822",
        "state_name":"Nebraska",
        "brand":"Arby's"
    },
    {
        "store_id":"8917",
        "store_name":"Arby\u2019s",
        "street":"18480 Wright St.",
        "city":"Omaha",
        "state":"NE",
        "zip":"68130",
        "timezone":"America\/Chicago",
        "phone":"(402) 330-2467",
        "latitude":41.2335940473,
        "longitude":-96.2040516893,
        "url":"us\/ne\/omaha\/18480-wright-st\/store-8917",
        "state_name":"Nebraska",
        "brand":"Arby's"
    },
    {
        "store_id":"6751",
        "store_name":"Wichita \u2013 N Rock Rd",
        "street":"3421 N Rock Rd",
        "city":"Wichita",
        "state":"KS",
        "zip":"67226",
        "timezone":"America\/Chicago",
        "phone":"(316) 636-9344",
        "latitude":37.7457654,
        "longitude":-97.2451171,
        "url":"us\/ks\/wichita\/3421-n-rock-rd\/store-6751",
        "state_name":"Kansas",
        "brand":"Arby's"
    },
    {
        "store_id":"6342",
        "store_name":"Omaha \u2013 W Maple Rd",
        "street":"13610 W Maple Rd",
        "city":"Omaha",
        "state":"NE",
        "zip":"68164",
        "timezone":"America\/Chicago",
        "phone":"(402) 493-3079",
        "latitude":41.2928861,
        "longitude":-96.1257452,
        "url":"us\/ne\/omaha\/13610-w-maple-rd\/store-6342",
        "state_name":"Nebraska",
        "brand":"Arby's"
    },
    {
        "store_id":"8597",
        "store_name":"Park City \u2013 Echo Hills Dr",
        "street":"910 E 53rd St N",
        "city":"Park City",
        "state":"KS",
        "zip":"67219",
        "timezone":"America\/Chicago",
        "phone":"(316) 831-9810",
        "latitude":37.78183,
        "longitude":-97.328952,
        "url":"us\/ks\/park-city\/910-e-53rd-st-n\/store-8597",
        "state_name":"Kansas",
        "brand":"Arby's"
    },
    {
        "store_id":"6235",
        "store_name":"Elkhorn \u2013 Cumberland Dr",
        "street":"20406 Cumberland Dr",
        "city":"Elkhorn",
        "state":"NE",
        "zip":"68022",
        "timezone":"America\/Chicago",
        "phone":"(402) 289-2500",
        "latitude":41.2668215,
        "longitude":-96.2351642,
        "url":"us\/ne\/elkhorn\/20406-cumberland-dr\/store-6235",
        "state_name":"Nebraska",
        "brand":"Arby's"
    },
    {
        "store_id":"1308",
        "store_name":"Wichita \u2013 S Rock Rd",
        "street":"1147 S Rock Rd",
        "city":"Wichita",
        "state":"KS",
        "zip":"67207",
        "timezone":"America\/Chicago",
        "phone":"(316) 684-3366",
        "latitude":37.6677293,
        "longitude":-97.245027,
        "url":"us\/ks\/wichita\/1147-s-rock-rd\/store-1308",
        "state_name":"Kansas",
        "brand":"Arby's"
    },
    {
        "store_id":"1524",
        "store_name":"Wichita \u2013 E Harry",
        "street":"4308 E Harry",
        "city":"Wichita",
        "state":"KS",
        "zip":"67218",
        "timezone":"America\/Chicago",
        "phone":"(316) 681-1215",
        "latitude":37.6650293,
        "longitude":-97.2854131,
        "url":"us\/ks\/wichita\/4308-e-harry\/store-1524",
        "state_name":"Kansas",
        "brand":"Arby's"
    },
    {
        "store_id":"8813",
        "store_name":"New Florence \u2013 Tree Farm Road",
        "street":"482 Tree Farm Road",
        "city":"New Florence",
        "state":"MO",
        "zip":"63363",
        "timezone":"America\/Chicago",
        "phone":"573-835-3102",
        "latitude":38.8978175,
        "longitude":-91.4541363,
        "url":"us\/mo\/new-florence\/482-tree-farm-road\/store-8813",
        "state_name":"Missouri",
        "brand":"Arby's"
    },
    {
        "store_id":"8614",
        "store_name":"Norwalk \u2013 Market Place Dr",
        "street":"9301 Market Place Dr.",
        "city":"Norwalk",
        "state":"IA",
        "zip":"50211",
        "timezone":"America\/Chicago",
        "phone":"(515) 207-7348",
        "latitude":41.5006833,
        "longitude":-93.6735346,
        "url":"us\/ia\/norwalk\/9301-market-place-dr\/store-8614",
        "state_name":"Iowa",
        "brand":"Arby's"
    },
    {
        "store_id":"1147",
        "store_name":"Wichita \u2013 2130 W 21st St",
        "street":"2130 W 21st St N",
        "city":"Wichita",
        "state":"KS",
        "zip":"67203",
        "timezone":"America\/Chicago",
        "phone":"(316) 838-2322",
        "latitude":37.7232388,
        "longitude":-97.3655114,
        "url":"us\/ks\/wichita\/2130-w-21st-st-n\/store-1147",
        "state_name":"Kansas",
        "brand":"Arby's"
    },
    {
        "store_id":"7328",
        "store_name":"Grove \u2013 S Main",
        "street":"1802 S Main",
        "city":"Grove",
        "state":"OK",
        "zip":"74345",
        "timezone":"America\/Chicago",
        "phone":"(918) 787-6400",
        "latitude":36.5776532,
        "longitude":-94.7696164,
        "url":"us\/ok\/grove\/1802-s-main\/store-7328",
        "state_name":"Oklahoma",
        "brand":"Arby's"
    },
    {
        "store_id":"7119",
        "store_name":"Derby \u2013 N Rock Rd",
        "street":"640 N Rock Rd",
        "city":"Derby",
        "state":"KS",
        "zip":"67037",
        "timezone":"America\/Chicago",
        "phone":"(316) 788-2170",
        "latitude":37.5497835,
        "longitude":-97.2437183,
        "url":"us\/ks\/derby\/640-n-rock-rd\/store-7119",
        "state_name":"Kansas",
        "brand":"Arby's"
    },
    {
        "store_id":"1736",
        "store_name":"Rolla \u2013 Kingshighway St",
        "street":"1005 Kingshighway St",
        "city":"Rolla",
        "state":"MO",
        "zip":"65401",
        "timezone":"America\/Chicago",
        "phone":"(573) 341-3611",
        "latitude":37.9463253,
        "longitude":-91.7784169,
        "url":"us\/mo\/rolla\/1005-kingshighway-st\/store-1736",
        "state_name":"Missouri",
        "brand":"Arby's"
    },
    {
        "store_id":"681",
        "store_name":"Bartlesville \u2013 Ne Washington Blvd",
        "street":"220 Ne Washington Blvd",
        "city":"Bartlesville",
        "state":"OK",
        "zip":"74003",
        "timezone":"America\/Chicago",
        "phone":"(918) 333-1582",
        "latitude":36.759231,
        "longitude":-95.9350259,
        "url":"us\/ok\/bartlesville\/220-ne-washington-blvd\/store-681",
        "state_name":"Oklahoma",
        "brand":"Arby's"
    },
    {
        "store_id":"1347",
        "store_name":"Wichita \u2013 S Seneca",
        "street":"2425 S Seneca",
        "city":"Wichita",
        "state":"KS",
        "zip":"67217",
        "timezone":"America\/Chicago",
        "phone":"(316) 262-4336",
        "latitude":37.6504017,
        "longitude":-97.3533049,
        "url":"us\/ks\/wichita\/2425-s-seneca\/store-1347",
        "state_name":"Kansas",
        "brand":"Arby's"
    },
    {
        "store_id":"8464",
        "store_name":"Des Moines \u2013 Se 14th Street",
        "street":"6300 Se 14th Street",
        "city":"Des Moines",
        "state":"IA",
        "zip":"50320",
        "timezone":"America\/Chicago",
        "phone":"(515) 287-6831",
        "latitude":41.5273598,
        "longitude":-93.5974658,
        "url":"us\/ia\/des-moines\/6300-se-14th-street\/store-8464",
        "state_name":"Iowa",
        "brand":"Arby's"
    },
    {
        "store_id":"8550",
        "store_name":"Wichita \u2013 S Washington Ave",
        "street":"4815 S. Washington Ave.",
        "city":"Wichita",
        "state":"KS",
        "zip":"67216",
        "timezone":"America\/Chicago",
        "phone":"(316) 522-4788",
        "latitude":37.6084032,
        "longitude":-97.3236908,
        "url":"us\/ks\/wichita\/4815-s--washington-ave\/store-8550",
        "state_name":"Kansas",
        "brand":"Arby's"
    },
    {
        "store_id":"1331",
        "store_name":"Bartlesville \u2013 E Frank Phillips Blvd",
        "street":"2935 E Frank Phillips Blvd",
        "city":"Bartlesville",
        "state":"OK",
        "zip":"74003",
        "timezone":"America\/Chicago",
        "phone":"(918) 333-7293",
        "latitude":36.7501103,
        "longitude":-95.945813,
        "url":"us\/ok\/bartlesville\/2935-e-frank-phillips-blvd\/store-1331",
        "state_name":"Oklahoma",
        "brand":"Arby's"
    },
    {
        "store_id":"7064",
        "store_name":"Wichita \u2013 7221 W 21st St",
        "street":"7221 West 21 Street",
        "city":"Wichita",
        "state":"KS",
        "zip":"67205",
        "timezone":"America\/Chicago",
        "phone":"(316) 773-4662",
        "latitude":37.7227577,
        "longitude":-97.426538,
        "url":"us\/ks\/wichita\/7221-west-21-street\/store-7064",
        "state_name":"Kansas",
        "brand":"Arby's"
    },
    {
        "store_id":"1343",
        "store_name":"Wichita \u2013 S West St",
        "street":"429 S West St",
        "city":"Wichita",
        "state":"KS",
        "zip":"67213",
        "timezone":"America\/Chicago",
        "phone":"(316) 942-9625",
        "latitude":37.6775039,
        "longitude":-97.3899205,
        "url":"us\/ks\/wichita\/429-s-west-st\/store-1343",
        "state_name":"Kansas",
        "brand":"Arby's"
    },
    {
        "store_id":"6883",
        "store_name":"Ottumwa \u2013 N Quincy Ave",
        "street":"1130 N Quincy Ave",
        "city":"Ottumwa",
        "state":"IA",
        "zip":"52501",
        "timezone":"America\/Chicago",
        "phone":"(641) 682-2371",
        "latitude":41.0177078,
        "longitude":-92.4379163,
        "url":"us\/ia\/ottumwa\/1130-n-quincy-ave\/store-6883",
        "state_name":"Iowa",
        "brand":"Arby's"
    },
    {
        "store_id":"8455",
        "store_name":"Wichita \u2013 N Maize Rd",
        "street":"3730 N. Maize Rd.",
        "city":"Wichita",
        "state":"KS",
        "zip":"67205",
        "timezone":"America\/Chicago",
        "phone":"(316) 721-1320",
        "latitude":37.7504627,
        "longitude":-97.4621817,
        "url":"us\/ks\/wichita\/3730-n--maize-rd\/store-8455",
        "state_name":"Kansas",
        "brand":"Arby's"
    },
    {
        "store_id":"6485",
        "store_name":"West Des Moines \u2013 Vista Dr",
        "street":"7241 Vista Dr",
        "city":"West Des Moines",
        "state":"IA",
        "zip":"50266",
        "timezone":"America\/Chicago",
        "phone":"(515) 225-4874",
        "latitude":41.5895852,
        "longitude":-93.8069062,
        "url":"us\/ia\/west-des-moines\/7241-vista-dr\/store-6485",
        "state_name":"Iowa",
        "brand":"Arby's"
    },
    {
        "store_id":"7912",
        "store_name":"Clive \u2013 Hickman Rd",
        "street":"15701 Hickman Rd",
        "city":"Clive",
        "state":"IA",
        "zip":"50325",
        "timezone":"America\/Chicago",
        "phone":"(515) 987-2999",
        "latitude":41.6155107,
        "longitude":-93.8351963,
        "url":"us\/ia\/clive\/15701-hickman-rd\/store-7912",
        "state_name":"Iowa",
        "brand":"Arby's"
    },
    {
        "store_id":"7366",
        "store_name":"Wichita \u2013 W Central Ave",
        "street":"8900 W Central Ave",
        "city":"Wichita",
        "state":"KS",
        "zip":"67212",
        "timezone":"America\/Chicago",
        "phone":"(316) 773-1915",
        "latitude":37.6945432,
        "longitude":-97.4467264,
        "url":"us\/ks\/wichita\/8900-w-central-ave\/store-7366",
        "state_name":"Kansas",
        "brand":"Arby's"
    },
    {
        "store_id":"7716",
        "store_name":"West Des Moines \u2013 West 22nd Street",
        "street":"1700 West 22nd Street",
        "city":"West Des Moines",
        "state":"IA",
        "zip":"50266",
        "timezone":"America\/Chicago",
        "phone":"(515) 440-3599",
        "latitude":41.5980134,
        "longitude":-93.7367849,
        "url":"us\/ia\/west-des-moines\/1700-west-22nd-street\/store-7716",
        "state_name":"Iowa",
        "brand":"Arby's"
    },
    {
        "store_id":"6504",
        "store_name":"Urbandale \u2013 100th St",
        "street":"2919 100th St",
        "city":"Urbandale",
        "state":"IA",
        "zip":"50322",
        "timezone":"America\/Chicago",
        "phone":"(515) 278-5416",
        "latitude":41.6210895,
        "longitude":-93.7550353,
        "url":"us\/ia\/urbandale\/2919-100th-st\/store-6504",
        "state_name":"Iowa",
        "brand":"Arby's"
    },
    {
        "store_id":"8658",
        "store_name":"Hannibal \u2013 Mcmasters Ave",
        "street":"4729 McMasters Ave",
        "city":"Hannibal",
        "state":"MO",
        "zip":"63401",
        "timezone":"America\/Chicago",
        "phone":"(573) 719-3474",
        "latitude":39.7241242,
        "longitude":-91.3927181,
        "url":"us\/mo\/hannibal\/4729-mcmasters-ave\/store-8658",
        "state_name":"Missouri",
        "brand":"Arby's"
    },
    {
        "store_id":"5944",
        "store_name":"Des Moines \u2013 Johnson Ct",
        "street":"208 Johnson Ct",
        "city":"Des Moines",
        "state":"IA",
        "zip":"50316",
        "timezone":"America\/Chicago",
        "phone":"(515) 265-1957",
        "latitude":41.5901543,
        "longitude":-93.5951517,
        "url":"us\/ia\/des-moines\/208-johnson-ct\/store-5944",
        "state_name":"Iowa",
        "brand":"Arby's"
    },
    {
        "store_id":"1859",
        "store_name":"Missouri Valley \u2013 N Willow Rd",
        "street":"123 N Willow Rd",
        "city":"Missouri Valley",
        "state":"IA",
        "zip":"51555",
        "timezone":"America\/Chicago",
        "phone":"(712) 642-5722",
        "latitude":41.5512479,
        "longitude":-95.9121395,
        "url":"us\/ia\/missouri-valley\/123-n-willow-rd\/store-1859",
        "state_name":"Iowa",
        "brand":"Arby's"
    },
    {
        "store_id":"7496",
        "store_name":"Urbandale \u2013 86th St",
        "street":"4920 86th St",
        "city":"Urbandale",
        "state":"IA",
        "zip":"50322",
        "timezone":"America\/Chicago",
        "phone":"(515) 334-9010",
        "latitude":41.6491373,
        "longitude":-93.7379154,
        "url":"us\/ia\/urbandale\/4920-86th-st\/store-7496",
        "state_name":"Iowa",
        "brand":"Arby's"
    },
    {
        "store_id":"8880",
        "store_name":"Pleasant Hill",
        "street":"5400 E University Ave",
        "city":"Pleasant Hill",
        "state":"IA",
        "zip":"50327",
        "timezone":"America\/Chicago",
        "phone":"(515) 330-1119",
        "latitude":41.5992852,
        "longitude":-93.5065656,
        "url":"us\/ia\/pleasant-hill\/5400-e-university-ave\/store-8880",
        "state_name":"Iowa",
        "brand":"Arby's"
    },
    {
        "store_id":"7307",
        "store_name":"Pella \u2013 W 16th St",
        "street":"903 W 16th St",
        "city":"Pella",
        "state":"IA",
        "zip":"50219",
        "timezone":"America\/Chicago",
        "phone":"(641) 628-1713",
        "latitude":41.4089397,
        "longitude":-92.9520557,
        "url":"us\/ia\/pella\/903-w-16th-st\/store-7307",
        "state_name":"Iowa",
        "brand":"Arby's"
    },
    {
        "store_id":"8930",
        "store_name":"Grimes -  East 1st Street",
        "street":"1201 East 1st Street",
        "city":"Grimes",
        "state":"IA",
        "zip":"50111",
        "timezone":"America\/Chicago",
        "phone":"(515) 410-2656",
        "latitude":41.6884854,
        "longitude":-93.7815225,
        "url":"us\/ia\/grimes\/1201-east-1st-street\/store-8930",
        "state_name":"Iowa",
        "brand":"Arby's"
    },
    {
        "store_id":"7464",
        "store_name":"Quincy \u2013 Broadway St",
        "street":"2541 Broadway St",
        "city":"Quincy",
        "state":"IL",
        "zip":"62301",
        "timezone":"America\/Chicago",
        "phone":"(217) 223-6012",
        "latitude":39.9354713,
        "longitude":-91.3730782,
        "url":"us\/il\/quincy\/2541-broadway-st\/store-7464",
        "state_name":"Illinois",
        "brand":"Arby's"
    },
    {
        "store_id":"7146",
        "store_name":"Altoona \u2013 8th St",
        "street":"3553 8th St SW",
        "city":"Altoona",
        "state":"IA",
        "zip":"50009",
        "timezone":"America\/Chicago",
        "phone":"(515) 957-9556",
        "latitude":41.6447121,
        "longitude":-93.505498,
        "url":"us\/ia\/altoona\/3553-8th-st-sw\/store-7146",
        "state_name":"Iowa",
        "brand":"Arby's"
    },
    {
        "store_id":"8337",
        "store_name":"Branson \u2013 Branson Hills Pkwy",
        "street":"1077 Branson Hills Pkwy",
        "city":"Branson",
        "state":"MO",
        "zip":"65616",
        "timezone":"America\/Chicago",
        "phone":"(417) 239-3066",
        "latitude":36.6702622,
        "longitude":-93.2273345,
        "url":"us\/mo\/branson\/1077-branson-hills-pkwy\/store-8337",
        "state_name":"Missouri",
        "brand":"Arby's"
    },
    {
        "store_id":"951",
        "store_name":"Fremont \u2013 N Bell St",
        "street":"2040 N Bell St",
        "city":"Fremont",
        "state":"NE",
        "zip":"68025",
        "timezone":"America\/Chicago",
        "phone":"(402) 727-6266",
        "latitude":41.4490379,
        "longitude":-96.4831185,
        "url":"us\/ne\/fremont\/2040-n-bell-st\/store-951",
        "state_name":"Nebraska",
        "brand":"Arby's"
    },
    {
        "store_id":"1536",
        "store_name":"Hutchinson \u2013 30th Ave",
        "street":"910 E 30th Ave",
        "city":"Hutchinson",
        "state":"KS",
        "zip":"67501",
        "timezone":"America\/Chicago",
        "phone":"(620) 669-0180",
        "latitude":38.0869598,
        "longitude":-97.9115622,
        "url":"us\/ks\/hutchinson\/910-e-30th-ave\/store-1536",
        "state_name":"Kansas",
        "brand":"Arby's"
    },
    {
        "store_id":"7733",
        "store_name":"Hutchinson \u2013 11th St",
        "street":"1423 E 11th Street",
        "city":"Hutchinson",
        "state":"KS",
        "zip":"67501",
        "timezone":"America\/Chicago",
        "phone":"(620) 664-5294",
        "latitude":38.0645405,
        "longitude":-97.8996733,
        "url":"us\/ks\/hutchinson\/1423-e-11th-street\/store-7733",
        "state_name":"Kansas",
        "brand":"Arby's"
    },
    {
        "store_id":"5697",
        "store_name":"Bentonville \u2013 N Walton Blvd",
        "street":"1202 N Walton Blvd",
        "city":"Bentonville",
        "state":"AR",
        "zip":"72712",
        "timezone":"America\/Chicago",
        "phone":"(479) 273-1632",
        "latitude":36.3864216,
        "longitude":-94.2207011,
        "url":"us\/ar\/bentonville\/1202-n-walton-blvd\/store-5697",
        "state_name":"Arkansas",
        "brand":"Arby's"
    },
    {
        "store_id":"6903",
        "store_name":"Arkansas City \u2013 N Summit Street",
        "street":"1321 N Summit Street",
        "city":"Arkansas City",
        "state":"KS",
        "zip":"67005",
        "timezone":"America\/Chicago",
        "phone":"(620) 442-6947",
        "latitude":37.0773185,
        "longitude":-97.0395734,
        "url":"us\/ks\/arkansas-city\/1321-n-summit-street\/store-6903",
        "state_name":"Kansas",
        "brand":"Arby's"
    },
    {
        "store_id":"5722",
        "store_name":"Ankeny \u2013 E 1st St",
        "street":"1017 E 1st St",
        "city":"Ankeny",
        "state":"IA",
        "zip":"50021",
        "timezone":"America\/Chicago",
        "phone":"(515) 964-1135",
        "latitude":41.7315239,
        "longitude":-93.5821788,
        "url":"us\/ia\/ankeny\/1017-e-1st-st\/store-5722",
        "state_name":"Iowa",
        "brand":"Arby's"
    },
    {
        "store_id":"7471",
        "store_name":"Bentonville \u2013 Se 14th St",
        "street":"2807 Se 14th St",
        "city":"Bentonville",
        "state":"AR",
        "zip":"72712",
        "timezone":"America\/Chicago",
        "phone":"(479) 273-6605",
        "latitude":36.3568954,
        "longitude":-94.1804557,
        "url":"us\/ar\/bentonville\/2807-se-14th-st\/store-7471",
        "state_name":"Arkansas",
        "brand":"Arby's"
    },
    {
        "store_id":"7457",
        "store_name":"Rogers \u2013 W Walnut St",
        "street":"3929 W Walnut St",
        "city":"Rogers",
        "state":"AR",
        "zip":"72756",
        "timezone":"America\/Chicago",
        "phone":"(479) 633-0092",
        "latitude":36.3353313,
        "longitude":-94.174717,
        "url":"us\/ar\/rogers\/3929-w-walnut-st\/store-7457",
        "state_name":"Arkansas",
        "brand":"Arby's"
    },
    {
        "store_id":"1603",
        "store_name":"Rogers \u2013 8th St",
        "street":"501 S 8th St",
        "city":"Rogers",
        "state":"AR",
        "zip":"72756",
        "timezone":"America\/Chicago",
        "phone":"(479) 631-2304",
        "latitude":36.3294818,
        "longitude":-94.1253508,
        "url":"us\/ar\/rogers\/501-s-8th-st\/store-1603",
        "state_name":"Arkansas",
        "brand":"Arby's"
    },
    {
        "store_id":"1656",
        "store_name":"York \u2013 S Lincoln Ave",
        "street":"4030 S Lincoln Ave",
        "city":"York",
        "state":"NE",
        "zip":"68467",
        "timezone":"America\/Chicago",
        "phone":"(402) 362-2325",
        "latitude":40.8237092,
        "longitude":-97.5987787,
        "url":"us\/ne\/york\/4030-s-lincoln-ave\/store-1656",
        "state_name":"Nebraska",
        "brand":"Arby's"
    },
    {
        "store_id":"8842",
        "store_name":"Unit 8842",
        "street":"3444 Main St.",
        "city":"Keokuk",
        "state":"IA",
        "zip":"52632",
        "timezone":"America\/Chicago",
        "phone":"(319) 313-8275",
        "latitude":40.4200147,
        "longitude":-91.4093329,
        "url":"us\/ia\/keokuk\/3444-main-st\/store-8842",
        "state_name":"Iowa",
        "brand":"Arby's"
    },
    {
        "store_id":"1418",
        "store_name":"Pryor \u2013 S Mill St",
        "street":"315 S Mill St",
        "city":"Pryor",
        "state":"OK",
        "zip":"74361",
        "timezone":"America\/Chicago",
        "phone":"(918) 825-3192",
        "latitude":36.3013749,
        "longitude":-95.3204209,
        "url":"us\/ok\/pryor\/315-s-mill-st\/store-1418",
        "state_name":"Oklahoma",
        "brand":"Arby's"
    },
    {
        "store_id":"8556",
        "store_name":"Troy \u2013 The Plaza",
        "street":"3 The Plaza",
        "city":"Troy",
        "state":"MO",
        "zip":"63379",
        "timezone":"America\/Chicago",
        "phone":"(636) 528-0281",
        "latitude":38.9861561,
        "longitude":-90.9812762,
        "url":"us\/mo\/troy\/3-the-plaza\/store-8556",
        "state_name":"Missouri",
        "brand":"Arby's"
    },
    {
        "store_id":"6991",
        "store_name":"Newton \u2013 Iowa Speedway Dr",
        "street":"400 Iowa Speedway Dr.",
        "city":"Newton",
        "state":"IA",
        "zip":"50208",
        "timezone":"America\/Chicago",
        "phone":"(641) 792-1444",
        "latitude":41.6965483,
        "longitude":-93.0144719,
        "url":"us\/ia\/newton\/400-iowa-speedway-dr\/store-6991",
        "state_name":"Iowa",
        "brand":"Arby's"
    },
    {
        "store_id":"7747",
        "store_name":"Lowell \u2013 S Dixieland Street",
        "street":"111 S. Dixieland Street",
        "city":"Lowell",
        "state":"AR",
        "zip":"72745",
        "timezone":"America\/Chicago",
        "phone":"(479) 770-0092",
        "latitude":36.2536203,
        "longitude":-94.1451787,
        "url":"us\/ar\/lowell\/111-s--dixieland-street\/store-7747",
        "state_name":"Arkansas",
        "brand":"Arby's"
    },
    {
        "store_id":"1260",
        "store_name":"Claremore \u2013 W Will Rogers Blvd",
        "street":"850 W Will Rogers Blvd",
        "city":"Claremore",
        "state":"OK",
        "zip":"74017",
        "timezone":"America\/Chicago",
        "phone":"(918) 341-6446",
        "latitude":36.3147519,
        "longitude":-95.6201881,
        "url":"us\/ok\/claremore\/850-w-will-rogers-blvd\/store-1260",
        "state_name":"Oklahoma",
        "brand":"Arby's"
    },
    {
        "store_id":"8227",
        "store_name":"Sullivan \u2013 S Service Road East",
        "street":"30 S. Service Road East",
        "city":"Sullivan",
        "state":"MO",
        "zip":"63080",
        "timezone":"America\/Chicago",
        "phone":"(573) 242-6135",
        "latitude":38.2769887,
        "longitude":-91.1055285,
        "url":"us\/mo\/sullivan\/30-s--service-road-east\/store-8227",
        "state_name":"Missouri",
        "brand":"Arby's"
    },
    {
        "store_id":"7024",
        "store_name":"Washington \u2013 Washington Crossing",
        "street":"1920 Washington Crossing",
        "city":"Washington",
        "state":"MO",
        "zip":"63090",
        "timezone":"America\/Chicago",
        "phone":"(636) 390-8383",
        "latitude":38.5372097,
        "longitude":-91.0062339,
        "url":"us\/mo\/washington\/1920-washington-crossing\/store-7024",
        "state_name":"Missouri",
        "brand":"Arby's"
    },
    {
        "store_id":"8494",
        "store_name":"Owasso \u2013 140th E",
        "street":"11500 N. 137th East Avenue",
        "city":"Owasso",
        "state":"OK",
        "zip":"74055",
        "timezone":"America\/Chicago",
        "phone":"(918) 371-3600",
        "latitude":36.3206327,
        "longitude":-95.8195822,
        "url":"us\/ok\/owasso\/11500-n--137th-east-avenue\/store-8494",
        "state_name":"Oklahoma",
        "brand":"Arby's"
    },
    {
        "store_id":"5397",
        "store_name":"Siloam Springs \u2013 Highway 412 W",
        "street":"1001 Highway 412 W",
        "city":"Siloam Springs",
        "state":"AR",
        "zip":"72761",
        "timezone":"America\/Chicago",
        "phone":"(479) 524-5972",
        "latitude":36.1754252,
        "longitude":-94.5518655,
        "url":"us\/ar\/siloam-springs\/1001-highway-412-w\/store-5397",
        "state_name":"Arkansas",
        "brand":"Arby's"
    },
    {
        "store_id":"8235",
        "store_name":"Springdale \u2013 W Sunset Ave",
        "street":"7460 W. Sunset Ave.",
        "city":"Springdale",
        "state":"AR",
        "zip":"72762",
        "timezone":"America\/Chicago",
        "phone":"(479) 306-4311",
        "latitude":36.1762731,
        "longitude":-94.2132941,
        "url":"us\/ar\/springdale\/7460-w--sunset-ave\/store-8235",
        "state_name":"Arkansas",
        "brand":"Arby's"
    },
    {
        "store_id":"7758",
        "store_name":"Carroll \u2013 Plaza Drive",
        "street":"1515 Plaza Drive",
        "city":"Carroll",
        "state":"IA",
        "zip":"51401",
        "timezone":"America\/Chicago",
        "phone":"(712) 775-2729",
        "latitude":42.0651547,
        "longitude":-94.8432733,
        "url":"us\/ia\/carroll\/1515-plaza-drive\/store-7758",
        "state_name":"Iowa",
        "brand":"Arby's"
    },
    {
        "store_id":"1489",
        "store_name":"Springdale \u2013 S Thompson St",
        "street":"908 S Thompson St",
        "city":"Springdale",
        "state":"AR",
        "zip":"72764",
        "timezone":"America\/Chicago",
        "phone":"(479) 756-2503",
        "latitude":36.1759618,
        "longitude":-94.1394814,
        "url":"us\/ar\/springdale\/908-s-thompson-st\/store-1489",
        "state_name":"Arkansas",
        "brand":"Arby's"
    },
    {
        "store_id":"7917",
        "store_name":"Union \u2013 Denmark Rd",
        "street":"1535 Denmark Rd",
        "city":"Union",
        "state":"MO",
        "zip":"63084",
        "timezone":"America\/Chicago",
        "phone":"(636) 584-8117",
        "latitude":38.4316266,
        "longitude":-90.9709965,
        "url":"us\/mo\/union\/1535-denmark-rd\/store-7917",
        "state_name":"Missouri",
        "brand":"Arby's"
    },
    {
        "store_id":"7556",
        "store_name":"Wentzville \u2013 Wentzville Pkwy",
        "street":"1988 Wentzville Pkwy",
        "city":"Wentzville",
        "state":"MO",
        "zip":"63385",
        "timezone":"America\/Chicago",
        "phone":"(636) 327-3710",
        "latitude":38.8130862,
        "longitude":-90.8733601,
        "url":"us\/mo\/wentzville\/1988-wentzville-pkwy\/store-7556",
        "state_name":"Missouri",
        "brand":"Arby's"
    },
    {
        "store_id":"6092",
        "store_name":"Owasso \u2013 86th St",
        "street":"11653 E 86th St N",
        "city":"Owasso",
        "state":"OK",
        "zip":"74055",
        "timezone":"America\/Chicago",
        "phone":"(918) 272-7539",
        "latitude":36.2791525,
        "longitude":-95.8440965,
        "url":"us\/ok\/owasso\/11653-e-86th-st-n\/store-6092",
        "state_name":"Oklahoma",
        "brand":"Arby's"
    },
    {
        "store_id":"7745",
        "store_name":"Fayetteville \u2013 East Joyce Blvd",
        "street":"220 East Joyce Blvd",
        "city":"Fayetteville",
        "state":"AR",
        "zip":"72703",
        "timezone":"America\/Chicago",
        "phone":"(479) 582-2336",
        "latitude":36.1245966,
        "longitude":-94.1533155,
        "url":"us\/ar\/fayetteville\/220-east-joyce-blvd\/store-7745",
        "state_name":"Arkansas",
        "brand":"Arby's"
    },
    {
        "store_id":"5537",
        "store_name":"Ames \u2013 S Duff Ave",
        "street":"409 S Duff Ave",
        "city":"Ames",
        "state":"IA",
        "zip":"50010",
        "timezone":"America\/Chicago",
        "phone":"(515) 232-0867",
        "latitude":42.0185767,
        "longitude":-93.6108976,
        "url":"us\/ia\/ames\/409-s-duff-ave\/store-5537",
        "state_name":"Iowa",
        "brand":"Arby's"
    },
    {
        "store_id":"5949",
        "store_name":"Ponca City \u2013 N 14th St",
        "street":"2408 N 14th St",
        "city":"Ponca City",
        "state":"OK",
        "zip":"74601",
        "timezone":"America\/Chicago",
        "phone":"(580) 762-8202",
        "latitude":36.7329119,
        "longitude":-97.0678482,
        "url":"us\/ok\/ponca-city\/2408-n-14th-st\/store-5949",
        "state_name":"Oklahoma",
        "brand":"Arby's"
    },
    {
        "store_id":"7063",
        "store_name":"Ames \u2013 East 13th Street",
        "street":"2722 East 13th Street",
        "city":"Ames",
        "state":"IA",
        "zip":"50010",
        "timezone":"America\/Chicago",
        "phone":"(515) 233-1670",
        "latitude":42.0337703,
        "longitude":-93.5771962,
        "url":"us\/ia\/ames\/2722-east-13th-street\/store-7063",
        "state_name":"Iowa",
        "brand":"Arby's"
    },
    {
        "store_id":"8323",
        "store_name":"Lake St. Louis \u2013 Robert Raymond Dr",
        "street":"909 Robert Raymond Dr",
        "city":"Lake St. Louis",
        "state":"MO",
        "zip":"63367",
        "timezone":"America\/Chicago",
        "phone":"(636) 625-0836",
        "latitude":38.7669412,
        "longitude":-90.7839359,
        "url":"us\/mo\/lake-st--louis\/909-robert-raymond-dr\/store-8323",
        "state_name":"Missouri",
        "brand":"Arby's"
    },
    {
        "store_id":"8456",
        "store_name":"Mt Pleasant \u2013 North Grande Ave",
        "street":"1300 North Grande Ave.",
        "city":"Mt. Pleasant",
        "state":"IA",
        "zip":"52641",
        "timezone":"America\/Chicago",
        "phone":"(319) 385-1298",
        "latitude":40.9819186,
        "longitude":-91.5393845,
        "url":"us\/ia\/mt--pleasant\/1300-north-grande-ave\/store-8456",
        "state_name":"Iowa",
        "brand":"Arby's"
    },
    {
        "store_id":"7480",
        "store_name":"Aurora \u2013 Madison Ave",
        "street":"1539 Madison Ave",
        "city":"Aurora",
        "state":"NE",
        "zip":"68818",
        "timezone":"America\/Chicago",
        "phone":"(402) 694-2862",
        "latitude":40.8188492,
        "longitude":-97.998343,
        "url":"us\/ne\/aurora\/1539-madison-ave\/store-7480",
        "state_name":"Nebraska",
        "brand":"Arby's"
    },
    {
        "store_id":"6675",
        "store_name":"Fayetteville \u2013 W Martin Luther King Jr Blvd",
        "street":"1263 W. Martin Luther King Jr. Blvd.",
        "city":"Fayetteville",
        "state":"AR",
        "zip":"72701",
        "timezone":"America\/Chicago",
        "phone":"(479) 571-2056",
        "latitude":36.0563306,
        "longitude":-94.1786352,
        "url":"us\/ar\/fayetteville\/1263-w--martin-luther-king-jr--blvd\/store-6675",
        "state_name":"Arkansas",
        "brand":"Arby's"
    },
    {
        "store_id":"6148",
        "store_name":"Catoosa \u2013 16415 E Admiral Pl",
        "street":"16415 E Admiral Pl",
        "city":"Tulsa",
        "state":"OK",
        "zip":"74116",
        "timezone":"America\/Chicago",
        "phone":"(918) 438-7557",
        "latitude":36.1610435,
        "longitude":-95.7949957,
        "url":"us\/ok\/tulsa\/16415-e-admiral-pl\/store-6148",
        "state_name":"Oklahoma",
        "brand":"Arby's"
    },
    {
        "store_id":"7322",
        "store_name":"Harrison \u2013 Hwy 62-65",
        "street":"1419 N Hwy 62-65",
        "city":"Harrison",
        "state":"AR",
        "zip":"72601",
        "timezone":"America\/Chicago",
        "phone":"(870) 743-6739",
        "latitude":36.2683628,
        "longitude":-93.1413482,
        "url":"us\/ar\/harrison\/1419-n-hwy-62-65\/store-7322",
        "state_name":"Arkansas",
        "brand":"Arby's"
    },
    {
        "store_id":"1646",
        "store_name":"Columbus \u2013 23rd St",
        "street":"2521 23rd St",
        "city":"Columbus",
        "state":"NE",
        "zip":"68601",
        "timezone":"America\/Chicago",
        "phone":"(402) 563-4111",
        "latitude":41.4384012,
        "longitude":-97.3586191,
        "url":"us\/ne\/columbus\/2521-23rd-st\/store-1646",
        "state_name":"Nebraska",
        "brand":"Arby's"
    },
    {
        "store_id":"1604",
        "store_name":"Tulsa \u2013 6331 E Admiral Pl",
        "street":"6331 E Admiral Pl",
        "city":"Tulsa",
        "state":"OK",
        "zip":"74115",
        "timezone":"America\/Chicago",
        "phone":"(918) 835-4377",
        "latitude":36.1610689,
        "longitude":-95.9051979,
        "url":"us\/ok\/tulsa\/6331-e-admiral-pl\/store-1604",
        "state_name":"Oklahoma",
        "brand":"Arby's"
    },
    {
        "store_id":"6860",
        "store_name":"O'fallon \u2013 705 Hwy K",
        "street":"705 Hwy K",
        "city":"O'fallon",
        "state":"MO",
        "zip":"63366",
        "timezone":"America\/Chicago",
        "phone":"(636) 240-1004",
        "latitude":38.8013909,
        "longitude":-90.7007112,
        "url":"us\/mo\/o'fallon\/705-hwy-k\/store-6860",
        "state_name":"Missouri",
        "brand":"Arby's"
    },
    {
        "store_id":"783",
        "store_name":"Tulsa \u2013 21st St",
        "street":"12926 E 21st St",
        "city":"Tulsa",
        "state":"OK",
        "zip":"74129",
        "timezone":"America\/Chicago",
        "phone":"(918) 437-9238",
        "latitude":36.1330252,
        "longitude":-95.8321283,
        "url":"us\/ok\/tulsa\/12926-e-21st-st\/store-783",
        "state_name":"Oklahoma",
        "brand":"Arby's"
    },
    {
        "store_id":"680",
        "store_name":"Tulsa \u2013 11th St",
        "street":"2918 E 11th St",
        "city":"Tulsa",
        "state":"OK",
        "zip":"74104",
        "timezone":"America\/Chicago",
        "phone":"(918) 583-8545",
        "latitude":36.1475269,
        "longitude":-95.9465341,
        "url":"us\/ok\/tulsa\/2918-e-11th-st\/store-680",
        "state_name":"Oklahoma",
        "brand":"Arby's"
    },
    {
        "store_id":"801",
        "store_name":"Tulsa \u2013 S Harvard",
        "street":"1943 S Harvard",
        "city":"Tulsa",
        "state":"OK",
        "zip":"74112",
        "timezone":"America\/Chicago",
        "phone":"(918) 747-2935",
        "latitude":36.133665,
        "longitude":-95.9400009,
        "url":"us\/ok\/tulsa\/1943-s-harvard\/store-801",
        "state_name":"Oklahoma",
        "brand":"Arby's"
    },
    {
        "store_id":"798",
        "store_name":"Tulsa \u2013 S Garnet",
        "street":"4027 S Garnet",
        "city":"Tulsa",
        "state":"OK",
        "zip":"74145",
        "timezone":"America\/Chicago",
        "phone":"(918) 270-2877",
        "latitude":36.105173,
        "longitude":-95.850651,
        "url":"us\/ok\/tulsa\/4027-s-garnet\/store-798",
        "state_name":"Oklahoma",
        "brand":"Arby's"
    },
    {
        "store_id":"797",
        "store_name":"Broken Arrow \u2013 71st & County Line",
        "street":"2540 E Kenosha St",
        "city":"Broken Arrow",
        "state":"OK",
        "zip":"74014",
        "timezone":"America\/Chicago",
        "phone":"(918) 355-5762",
        "latitude":36.0613616,
        "longitude":-95.7579201,
        "url":"us\/ok\/broken-arrow\/2540-e-kenosha-st\/store-797",
        "state_name":"Oklahoma",
        "brand":"Arby's"
    },
    {
        "store_id":"7985",
        "store_name":"St Peters \u2013 6086 Mid Rivers Mall Dr",
        "street":"6086 Mid-Rivers Mall Dr",
        "city":"St. Peters",
        "state":"MO",
        "zip":"63304",
        "timezone":"America\/Chicago",
        "phone":"(636) 447-4904",
        "latitude":38.7459652,
        "longitude":-90.6342792,
        "url":"us\/mo\/st--peters\/6086-mid-rivers-mall-dr\/store-7985",
        "state_name":"Missouri",
        "brand":"Arby's"
    },
    {
        "store_id":"1566",
        "store_name":"St Peters \u2013 225 Mid Rivers Mall Dr",
        "street":"225 Mid Rivers Mall Dr",
        "city":"St. Peters",
        "state":"MO",
        "zip":"63376",
        "timezone":"America\/Chicago",
        "phone":"(636) 970-1300",
        "latitude":38.7954594,
        "longitude":-90.6224336,
        "url":"us\/mo\/st--peters\/225-mid-rivers-mall-dr\/store-1566",
        "state_name":"Missouri",
        "brand":"Arby's"
    },
    {
        "store_id":"748",
        "store_name":"Broken Arrow \u2013 71st & Elm",
        "street":"624 W Kenosha",
        "city":"Broken Arrow",
        "state":"OK",
        "zip":"74012",
        "timezone":"America\/Chicago",
        "phone":"(918) 258-7477",
        "latitude":36.0613489,
        "longitude":-95.7970438,
        "url":"us\/ok\/broken-arrow\/624-w-kenosha\/store-748",
        "state_name":"Oklahoma",
        "brand":"Arby's"
    },
    {
        "store_id":"7058",
        "store_name":"Broken Arrow \u2013 S Garnett",
        "street":"6237 S Garnett",
        "city":"Broken Arrow",
        "state":"OK",
        "zip":"74012",
        "timezone":"America\/Chicago",
        "phone":"(918) 294-8151",
        "latitude":36.0731653,
        "longitude":-95.8503701,
        "url":"us\/ok\/broken-arrow\/6237-s-garnett\/store-7058",
        "state_name":"Oklahoma",
        "brand":"Arby's"
    },
    {
        "store_id":"622",
        "store_name":"Tulsa \u2013 4909 S Yale Ave",
        "street":"4909 S Yale",
        "city":"Tulsa",
        "state":"OK",
        "zip":"74135",
        "timezone":"America\/Chicago",
        "phone":"(918) 622-1413",
        "latitude":36.0908906,
        "longitude":-95.9217723,
        "url":"us\/ok\/tulsa\/4909-s-yale\/store-622",
        "state_name":"Oklahoma",
        "brand":"Arby's"
    },
    {
        "store_id":"687",
        "store_name":"Sand Springs \u2013 E 2nd St",
        "street":"122 E 2nd St",
        "city":"Sand Springs",
        "state":"OK",
        "zip":"74063",
        "timezone":"America\/Chicago",
        "phone":"(918) 245-4138",
        "latitude":36.1381188,
        "longitude":-96.1079222,
        "url":"us\/ok\/sand-springs\/122-e-2nd-st\/store-687",
        "state_name":"Oklahoma",
        "brand":"Arby's"
    },
    {
        "store_id":"6588",
        "store_name":"Tulsa \u2013 71st St",
        "street":"9419 E 71st St",
        "city":"Tulsa",
        "state":"OK",
        "zip":"74133",
        "timezone":"America\/Chicago",
        "phone":"(918) 250-3831",
        "latitude":36.0613049,
        "longitude":-95.8708665,
        "url":"us\/ok\/tulsa\/9419-e-71st-st\/store-6588",
        "state_name":"Oklahoma",
        "brand":"Arby's"
    },
    {
        "store_id":"1465",
        "store_name":"Tulsa \u2013 Southwest Blvd",
        "street":"4335 Southwest Blvd",
        "city":"Tulsa",
        "state":"OK",
        "zip":"74107",
        "timezone":"America\/Chicago",
        "phone":"(918) 446-2050",
        "latitude":36.100582,
        "longitude":-96.0282045,
        "url":"us\/ok\/tulsa\/4335-southwest-blvd\/store-1465",
        "state_name":"Oklahoma",
        "brand":"Arby's"
    },
    {
        "store_id":"6207",
        "store_name":"Wagoner \u2013 W Cherokee",
        "street":"1302 W. Cherokee",
        "city":"Wagoner",
        "state":"OK",
        "zip":"74467",
        "timezone":"America\/Chicago",
        "phone":"(918) 485-3609",
        "latitude":35.9605605,
        "longitude":-95.3939756,
        "url":"us\/ok\/wagoner\/1302-w--cherokee\/store-6207",
        "state_name":"Oklahoma",
        "brand":"Arby's"
    },
    {
        "store_id":"6078",
        "store_name":"Burlington \u2013 S Roosevelt Ave",
        "street":"405 S Roosevelt Ave",
        "city":"Burlington",
        "state":"IA",
        "zip":"52601",
        "timezone":"America\/Chicago",
        "phone":"(319) 754-8046",
        "latitude":40.8072992,
        "longitude":-91.1421615,
        "url":"us\/ia\/burlington\/405-s-roosevelt-ave\/store-6078",
        "state_name":"Iowa",
        "brand":"Arby's"
    },
    {
        "store_id":"5764",
        "store_name":"Marshalltown \u2013 S Center St",
        "street":"2500 S Center St",
        "city":"Marshalltown",
        "state":"IA",
        "zip":"50158",
        "timezone":"America\/Chicago",
        "phone":"(641) 752-0321",
        "latitude":42.0152884,
        "longitude":-92.9105862,
        "url":"us\/ia\/marshalltown\/2500-s-center-st\/store-5764",
        "state_name":"Iowa",
        "brand":"Arby's"
    },
    {
        "store_id":"6424",
        "store_name":"Prattville \u2013 S Highway 97",
        "street":"3510 S. Hwy. 97",
        "city":"Sand Springs",
        "state":"OK",
        "zip":"74063",
        "timezone":"America\/Chicago",
        "phone":"(918) 245-3129",
        "latitude":36.1115918,
        "longitude":-96.1177875,
        "url":"us\/ok\/sand-springs\/3510-s--hwy--97\/store-6424",
        "state_name":"Oklahoma",
        "brand":"Arby's"
    },
    {
        "store_id":"8269",
        "store_name":"Eureka \u2013 Hilltop Village Center Dr",
        "street":"60 Hilltop Village Center Dr.",
        "city":"Eureka",
        "state":"MO",
        "zip":"63025",
        "timezone":"America\/Chicago",
        "phone":"(636) 587-2247",
        "latitude":38.5065816,
        "longitude":-90.6344643,
        "url":"us\/mo\/eureka\/60-hilltop-village-center-dr\/store-8269",
        "state_name":"Missouri",
        "brand":"Arby's"
    },
    {
        "store_id":"1711",
        "store_name":"Hastings \u2013 S Burlington Ave",
        "street":"401 S Burlington Ave",
        "city":"Hastings",
        "state":"NE",
        "zip":"68901",
        "timezone":"America\/Chicago",
        "phone":"(402) 462-4555",
        "latitude":40.5802805,
        "longitude":-98.3920618,
        "url":"us\/ne\/hastings\/401-s-burlington-ave\/store-1711",
        "state_name":"Nebraska",
        "brand":"Arby's"
    },
    {
        "store_id":"6761",
        "store_name":"Broken Arrow \u2013 S Elm Place",
        "street":"3325 S Elm Place",
        "city":"Broken Arrow",
        "state":"OK",
        "zip":"74012",
        "timezone":"America\/Chicago",
        "phone":"(918) 449-0025",
        "latitude":36.0177537,
        "longitude":-95.7968316,
        "url":"us\/ok\/broken-arrow\/3325-s-elm-place\/store-6761",
        "state_name":"Oklahoma",
        "brand":"Arby's"
    },
    {
        "store_id":"5443",
        "store_name":"Tahlequah \u2013 S Muskogee Ave",
        "street":"1414 S Muskogee Ave",
        "city":"Tahlequah",
        "state":"OK",
        "zip":"74464",
        "timezone":"America\/Chicago",
        "phone":"(918) 456-3007",
        "latitude":35.8973375,
        "longitude":-94.9766135,
        "url":"us\/ok\/tahlequah\/1414-s-muskogee-ave\/store-5443",
        "state_name":"Oklahoma",
        "brand":"Arby's"
    },
    {
        "store_id":"6413",
        "store_name":"Tulsa \u2013 S 49th West Ave",
        "street":"5980 S 49th West Ave",
        "city":"Tulsa",
        "state":"OK",
        "zip":"74107",
        "timezone":"America\/Chicago",
        "phone":"(918) 445-6835",
        "latitude":36.0775468,
        "longitude":-96.0483557,
        "url":"us\/ok\/tulsa\/5980-s-49th-west-ave\/store-6413",
        "state_name":"Oklahoma",
        "brand":"Arby's"
    },
    {
        "store_id":"8774",
        "store_name":"Hastings \u2013 Osborne Dr West",
        "street":"3207 Osborne Dr. West",
        "city":"Hastings",
        "state":"NE",
        "zip":"68901",
        "timezone":"America\/Chicago",
        "phone":"(402) 303-6230",
        "latitude":40.6181785,
        "longitude":-98.3840216,
        "url":"us\/ne\/hastings\/3207-osborne-dr--west\/store-8774",
        "state_name":"Nebraska",
        "brand":"Arby's"
    },
    {
        "store_id":"8331",
        "store_name":"Tulsa \u2013 S Olympia Ave",
        "street":"7117 S. Olympia Ave.",
        "city":"Tulsa",
        "state":"OK",
        "zip":"74132",
        "timezone":"America\/Chicago",
        "phone":"(918) 447-3711",
        "latitude":36.0604349,
        "longitude":-96.003131,
        "url":"us\/ok\/tulsa\/7117-s--olympia-ave\/store-8331",
        "state_name":"Oklahoma",
        "brand":"Arby's"
    },
    {
        "store_id":"5698",
        "store_name":"Tulsa \u2013 9101 S Yale Ave",
        "street":"9101 S Yale Ave",
        "city":"Tulsa",
        "state":"OK",
        "zip":"74137",
        "timezone":"America\/Chicago",
        "phone":"(918) 492-8122",
        "latitude":36.0314659,
        "longitude":-95.9215307,
        "url":"us\/ok\/tulsa\/9101-s-yale-ave\/store-5698",
        "state_name":"Oklahoma",
        "brand":"Arby's"
    },
    {
        "store_id":"6422",
        "store_name":"Coweta \u2013 S State Highway 51",
        "street":"13589 S State Highway 51",
        "city":"Coweta",
        "state":"OK",
        "zip":"74429",
        "timezone":"America\/Chicago",
        "phone":"(918) 486-7371",
        "latitude":35.9669372,
        "longitude":-95.6564557,
        "url":"us\/ok\/coweta\/13589-s-state-highway-51\/store-6422",
        "state_name":"Oklahoma",
        "brand":"Arby's"
    },
    {
        "store_id":"802",
        "store_name":"Tulsa \u2013 10118 S Memorial Dr",
        "street":"10118 S Memorial Dr",
        "city":"Tulsa",
        "state":"OK",
        "zip":"74133",
        "timezone":"America\/Chicago",
        "phone":"(918) 420-1908",
        "latitude":36.0163015,
        "longitude":-95.8871203,
        "url":"us\/ok\/tulsa\/10118-s-memorial-dr\/store-802",
        "state_name":"Oklahoma",
        "brand":"Arby's"
    },
    {
        "store_id":"800",
        "store_name":"Jenks \u2013 W Main St",
        "street":"520 W Main St",
        "city":"Jenks",
        "state":"OK",
        "zip":"74037",
        "timezone":"America\/Chicago",
        "phone":"(918) 299-3720",
        "latitude":36.022334,
        "longitude":-95.9754346,
        "url":"us\/ok\/jenks\/520-w-main-st\/store-800",
        "state_name":"Oklahoma",
        "brand":"Arby's"
    },
    {
        "store_id":"8429",
        "store_name":"West Plains \u2013 Southern Hills Center",
        "street":"1342 Southern Hills Center",
        "city":"West Plains",
        "state":"MO",
        "zip":"65775",
        "timezone":"America\/Chicago",
        "phone":"(417) 256-0433",
        "latitude":36.7157307,
        "longitude":-91.8730157,
        "url":"us\/mo\/west-plains\/1342-southern-hills-center\/store-8429",
        "state_name":"Missouri",
        "brand":"Arby's"
    },
    {
        "store_id":"8593",
        "store_name":"St Charles \u2013 - 1st Capitol Drive",
        "street":"1830 - 1st Capitol Drive",
        "city":"St Charles",
        "state":"MO",
        "zip":"63301",
        "timezone":"America\/Chicago",
        "phone":"(636) 925-3133",
        "latitude":38.783881,
        "longitude":-90.5009412,
        "url":"us\/mo\/st-charles\/1830---1st-capitol-drive\/store-8593",
        "state_name":"Missouri",
        "brand":"Arby's"
    },
    {
        "store_id":"6195",
        "store_name":"Williamsburg \u2013 E Evans St",
        "street":"335 E Evans St",
        "city":"Williamsburg",
        "state":"IA",
        "zip":"52361",
        "timezone":"America\/Chicago",
        "phone":"(319) 668-9338",
        "latitude":41.6901823,
        "longitude":-92.0063929,
        "url":"us\/ia\/williamsburg\/335-e-evans-st\/store-6195",
        "state_name":"Iowa",
        "brand":"Arby's"
    },
    {
        "store_id":"5670",
        "store_name":"Great Bend \u2013 10th St",
        "street":"3413 10th St",
        "city":"Great Bend",
        "state":"KS",
        "zip":"67530",
        "timezone":"America\/Chicago",
        "phone":"(620) 792-2717",
        "latitude":38.3613557,
        "longitude":-98.7858023,
        "url":"us\/ks\/great-bend\/3413-10th-st\/store-5670",
        "state_name":"Kansas",
        "brand":"Arby's"
    },