[
    {
        "id":"2070",
        "displayName":"Anchorage Supercenter",
        "type":"STORE",
        "phoneNumber":"907-563-5900",
        "name":"Walmart Supercenter",
        "open24Hours":false,
        "street":"3101 A St",
        "city":"Anchorage",
        "state":"AK",
        "zip":"99503",
        "geoPoint":{
            "latitude":61.192239,
            "longitude":-149.879581
        },
        "latitude":61.192239,
        "longitude":-149.879581,
        "state_name":"Alaska"
    },
    {
        "id":"2071",
        "displayName":"Anchorage Supercenter",
        "type":"STORE",
        "phoneNumber":"907-344-5300",
        "name":"Walmart Supercenter",
        "open24Hours":false,
        "street":"8900 Old Seward Hwy",
        "city":"Anchorage",
        "state":"AK",
        "zip":"99515",
        "geoPoint":{
            "latitude":61.140195,
            "longitude":-149.869863
        },
        "latitude":61.140195,
        "longitude":-149.869863,
        "state_name":"Alaska"
    },
    {
        "id":"4359",
        "displayName":"Anchorage Supercenter",
        "type":"STORE",
        "phoneNumber":"907-339-9039",
        "name":"Walmart Supercenter",
        "open24Hours":false,
        "street":"7405 Debarr Road",
        "city":"Anchorage",
        "state":"AK",
        "zip":"99504",
        "geoPoint":{
            "latitude":61.211988,
            "longitude":-149.743184
        },
        "latitude":61.211988,
        "longitude":-149.743184,
        "state_name":"Alaska"
    },
    {
        "id":"2188",
        "displayName":"Eagle River Supercenter",
        "type":"STORE",
        "phoneNumber":"907-694-9780",
        "name":"Walmart Supercenter",
        "open24Hours":false,
        "street":"18600 Eagle River Rd",
        "city":"Eagle River",
        "state":"AK",
        "zip":"99577",
        "geoPoint":{
            "latitude":61.309037,
            "longitude":-149.535439
        },
        "latitude":61.309037,
        "longitude":-149.535439,
        "state_name":"Alaska"
    },
    {
        "id":"2722",
        "displayName":"Fairbanks Supercenter",
        "type":"STORE",
        "phoneNumber":"907-451-9900",
        "name":"Walmart Supercenter",
        "open24Hours":false,
        "street":"537 Johansen Expy",
        "city":"Fairbanks",
        "state":"AK",
        "zip":"99701",
        "geoPoint":{
            "latitude":64.856378,
            "longitude":-147.689549
        },
        "latitude":64.856378,
        "longitude":-147.689549,
        "state_name":"Alaska"
    },
    {
        "id":"4474",
        "displayName":"Kenai Supercenter",
        "type":"STORE",
        "phoneNumber":"907-395-0971",
        "name":"Walmart Supercenter",
        "open24Hours":false,
        "street":"10096 Kenai Spur Hwy",
        "city":"Kenai",
        "state":"AK",
        "zip":"99611",
        "geoPoint":{
            "latitude":60.564278,
            "longitude":-151.225228
        },
        "latitude":60.564278,
        "longitude":-151.225228,
        "state_name":"Alaska"
    },
    {
        "id":"2710",
        "displayName":"Ketchikan Store",
        "type":"STORE",
        "phoneNumber":"907-247-2156",
        "name":"Walmart",
        "open24Hours":false,
        "street":"4230 Don King Rd",
        "city":"Ketchikan",
        "state":"AK",
        "zip":"99901",
        "geoPoint":{
            "latitude":55.375474,
            "longitude":-131.720399
        },
        "latitude":55.375474,
        "longitude":-131.720399,
        "state_name":"Alaska"
    },
    {
        "id":"2711",
        "displayName":"Kodiak Store",
        "type":"STORE",
        "phoneNumber":"907-481-1670",
        "name":"Walmart",
        "open24Hours":false,
        "street":"2911 Mill Bay Rd",
        "city":"Kodiak",
        "state":"AK",
        "zip":"99615",
        "geoPoint":{
            "latitude":57.811934,
            "longitude":-152.365273
        },
        "latitude":57.811934,
        "longitude":-152.365273,
        "state_name":"Alaska"
    },
    {
        "id":"2074",
        "displayName":"Wasilla Supercenter",
        "type":"STORE",
        "phoneNumber":"907-376-9780",
        "name":"Walmart Supercenter",
        "open24Hours":false,
        "street":"1350 S Seward Meridian Pkwy",
        "city":"Wasilla",
        "state":"AK",
        "zip":"99654",
        "geoPoint":{
            "latitude":61.568719,
            "longitude":-149.365105
        },
        "latitude":61.568719,
        "longitude":-149.365105,
        "state_name":"Alaska"
    },
    {
        "id":"1158",
        "displayName":"Adamsville Supercenter",
        "type":"STORE",
        "phoneNumber":"205-798-9721",
        "name":"Walmart Supercenter",
        "open24Hours":false,
        "street":"2473 Hackworth Rd",
        "city":"Adamsville",
        "state":"AL",
        "zip":"35214",
        "geoPoint":{
            "latitude":33.579051,
            "longitude":-86.924237
        },
        "latitude":33.579051,
        "longitude":-86.924237,
        "state_name":"Alabama"
    },
    {
        "id":"4756",
        "displayName":"Alabaster Neighborhood Market",
        "type":"STORE",
        "phoneNumber":"205-624-6229",
        "name":"Neighborhood Market",
        "open24Hours":false,
        "street":"9085 Hwy 119",
        "city":"Alabaster",
        "state":"AL",
        "zip":"35007",
        "geoPoint":{
            "latitude":33.212135,
            "longitude":-86.829994
        },
        "latitude":33.212135,
        "longitude":-86.829994,
        "state_name":"Alabama"
    },
    {
        "id":"423",
        "displayName":"Alabaster Supercenter",
        "type":"STORE",
        "phoneNumber":"205-620-0360",
        "name":"Walmart Supercenter",
        "open24Hours":false,
        "street":"630 Colonial Promenade Pkwy",
        "city":"Alabaster",
        "state":"AL",
        "zip":"35007",
        "geoPoint":{
            "latitude":33.235531,
            "longitude":-86.801229
        },
        "latitude":33.235531,
        "longitude":-86.801229,
        "state_name":"Alabama"
    },
    {
        "id":"726",
        "displayName":"Alexander City Supercenter",
        "type":"STORE",
        "phoneNumber":"256-234-0316",
        "name":"Walmart Supercenter",
        "open24Hours":false,
        "street":"2643 Highway 280",
        "city":"Alexander City",
        "state":"AL",
        "zip":"35010",
        "geoPoint":{
            "latitude":32.941298,
            "longitude":-85.975822
        },
        "latitude":32.941298,
        "longitude":-85.975822,
        "state_name":"Alabama"
    },
    {
        "id":"1091",
        "displayName":"Andalusia Supercenter",
        "type":"STORE",
        "phoneNumber":"334-222-6561",
        "name":"Walmart Supercenter",
        "open24Hours":false,
        "street":"1991 M. L. King Jr.",
        "city":"Andalusia",
        "state":"AL",
        "zip":"36420",
        "geoPoint":{
            "latitude":31.321761,
            "longitude":-86.444966
        },
        "latitude":31.321761,
        "longitude":-86.444966,
        "state_name":"Alabama"
    },
    {
        "id":"329",
        "displayName":"Anniston Supercenter",
        "type":"STORE",
        "phoneNumber":"256-820-3326",
        "name":"Walmart Supercenter",
        "open24Hours":false,
        "street":"5560 Mcclellan Blvd",
        "city":"Anniston",
        "state":"AL",
        "zip":"36206",
        "geoPoint":{
            "latitude":33.720207,
            "longitude":-85.819839
        },
        "latitude":33.720207,
        "longitude":-85.819839,
        "state_name":"Alabama"
    },
    {
        "id":"306",
        "displayName":"Arab Supercenter",
        "type":"STORE",
        "phoneNumber":"256-586-8168",
        "name":"Walmart Supercenter",
        "open24Hours":false,
        "street":"1450 No. Brindlee Mt",
        "city":"Arab",
        "state":"AL",
        "zip":"35016",
        "geoPoint":{
            "latitude":34.341786,
            "longitude":-86.500541
        },
        "latitude":34.341786,
        "longitude":-86.500541,
        "state_name":"Alabama"
    },
    {
        "id":"661",
        "displayName":"Athens Supercenter",
        "type":"STORE",
        "phoneNumber":"256-230-2981",
        "name":"Walmart Supercenter",
        "open24Hours":false,
        "street":"1011 Us Highway 72 E",
        "city":"Athens",
        "state":"AL",
        "zip":"35611",
        "geoPoint":{
            "latitude":34.788552,
            "longitude":-86.958843
        },
        "latitude":34.788552,
        "longitude":-86.958843,
        "state_name":"Alabama"
    },
    {
        "id":"7247",
        "displayName":"Atmore Supercenter",
        "type":"STORE",
        "phoneNumber":"251-368-1403",
        "name":"Walmart Supercenter",
        "open24Hours":false,
        "street":"911 N Main St",
        "city":"Atmore",
        "state":"AL",
        "zip":"36502",
        "geoPoint":{
            "latitude":31.037968,
            "longitude":-87.495173
        },
        "latitude":31.037968,
        "longitude":-87.495173,
        "state_name":"Alabama"
    },
    {
        "id":"316",
        "displayName":"Attalla Supercenter",
        "type":"STORE",
        "phoneNumber":"256-538-3811",
        "name":"Walmart Supercenter",
        "open24Hours":false,
        "street":"973 Gilbert Ferry Rd Se",
        "city":"Attalla",
        "state":"AL",
        "zip":"35954",
        "geoPoint":{
            "latitude":33.993761,
            "longitude":-86.093617
        },
        "latitude":33.993761,
        "longitude":-86.093617,
        "state_name":"Alabama"
    },
    {
        "id":"4673",
        "displayName":"Auburn Neighborhood Market",
        "type":"STORE",
        "phoneNumber":"334-539-6318",
        "name":"Neighborhood Market",
        "open24Hours":false,
        "street":"1810 Shug Jordan Pkwy",
        "city":"Auburn",
        "state":"AL",
        "zip":"36830",
        "geoPoint":{
            "latitude":32.630421,
            "longitude":-85.495521
        },
        "latitude":32.630421,
        "longitude":-85.495521,
        "state_name":"Alabama"
    },
    {
        "id":"5062",
        "displayName":"Auburn Neighborhood Market",
        "type":"STORE",
        "phoneNumber":"334-539-6214",
        "name":"Neighborhood Market",
        "open24Hours":false,
        "street":"2047 E University Dr",
        "city":"Auburn",
        "state":"AL",
        "zip":"36830",
        "geoPoint":{
            "latitude":32.624546,
            "longitude":-85.450138
        },
        "latitude":32.624546,
        "longitude":-85.450138,
        "state_name":"Alabama"
    },
    {
        "id":"356",
        "displayName":"Auburn Supercenter",
        "type":"STORE",
        "phoneNumber":"334-821-2493",
        "name":"Walmart Supercenter",
        "open24Hours":false,
        "street":"1717 S College St",
        "city":"Auburn",
        "state":"AL",
        "zip":"36832",
        "geoPoint":{
            "latitude":32.570709,
            "longitude":-85.496576
        },
        "latitude":32.570709,
        "longitude":-85.496576,
        "state_name":"Alabama"
    },
    {
        "id":"2739",
        "displayName":"Bay Minette Supercenter",
        "type":"STORE",
        "phoneNumber":"251-937-5558",
        "name":"Walmart Supercenter",
        "open24Hours":false,
        "street":"701 Mcmeans Ave",
        "city":"Bay Minette",
        "state":"AL",
        "zip":"36507",
        "geoPoint":{
            "latitude":30.886057,
            "longitude":-87.790093
        },
        "latitude":30.886057,
        "longitude":-87.790093,
        "state_name":"Alabama"
    },
    {
        "id":"764",
        "displayName":"Bessemer Supercenter",
        "type":"STORE",
        "phoneNumber":"205-424-5890",
        "name":"Walmart Supercenter",
        "open24Hours":false,
        "street":"750 Academy Dr",
        "city":"Bessemer",
        "state":"AL",
        "zip":"35022",
        "geoPoint":{
            "latitude":33.361589,
            "longitude":-87.001926
        },
        "latitude":33.361589,
        "longitude":-87.001926,
        "state_name":"Alabama"
    },
    {
        "id":"3424",
        "displayName":"Birmingham Neighborhood Market",
        "type":"STORE",
        "phoneNumber":"205-582-6183",
        "name":"Neighborhood Market",
        "open24Hours":false,
        "street":"2653 Valleydale Road",
        "city":"Birmingham",
        "state":"AL",
        "zip":"35244",
        "geoPoint":{
            "latitude":33.382398,
            "longitude":-86.739212
        },
        "latitude":33.382398,
        "longitude":-86.739212,
        "state_name":"Alabama"
    },
    {
        "id":"4504",
        "displayName":"Birmingham Neighborhood Market",
        "type":"STORE",
        "phoneNumber":"205-870-8101",
        "name":"Neighborhood Market",
        "open24Hours":false,
        "street":"312 Palisades Blvd",
        "city":"Birmingham",
        "state":"AL",
        "zip":"35209",
        "geoPoint":{
            "latitude":33.467841,
            "longitude":-86.821602
        },
        "latitude":33.467841,
        "longitude":-86.821602,
        "state_name":"Alabama"
    },
    {
        "id":"5100",
        "displayName":"Birmingham Neighborhood Market",
        "type":"STORE",
        "phoneNumber":"205-520-0269",
        "name":"Neighborhood Market",
        "open24Hours":false,
        "street":"1916 Center Point Pkwy",
        "city":"Birmingham",
        "state":"AL",
        "zip":"35215",
        "geoPoint":{
            "latitude":33.637398,
            "longitude":-86.684501
        },
        "latitude":33.637398,
        "longitude":-86.684501,
        "state_name":"Alabama"
    },
    {
        "id":"762",
        "displayName":"Birmingham Supercenter",
        "type":"STORE",
        "phoneNumber":"205-833-7676",
        "name":"Walmart Supercenter",
        "open24Hours":false,
        "street":"9248 Parkway E",
        "city":"Birmingham",
        "state":"AL",
        "zip":"35206",
        "geoPoint":{
            "latitude":33.590204,
            "longitude":-86.700222
        },
        "latitude":33.590204,
        "longitude":-86.700222,
        "state_name":"Alabama"
    },
    {
        "id":"1711",
        "displayName":"Birmingham Supercenter",
        "type":"STORE",
        "phoneNumber":"205-956-0416",
        "name":"Walmart Supercenter",
        "open24Hours":false,
        "street":"1600 Montclair Rd",
        "city":"Birmingham",
        "state":"AL",
        "zip":"35210",
        "geoPoint":{
            "latitude":33.528969,
            "longitude":-86.720194
        },
        "latitude":33.528969,
        "longitude":-86.720194,
        "state_name":"Alabama"
    },
    {
        "id":"2111",
        "displayName":"Hoover Supercenter",
        "type":"STORE",
        "phoneNumber":"205-980-5156",
        "name":"Walmart Supercenter",
        "open24Hours":false,
        "street":"5335 Highway 280",
        "city":"Hoover",
        "state":"AL",
        "zip":"35242",
        "geoPoint":{
            "latitude":33.421916,
            "longitude":-86.675875
        },
        "latitude":33.421916,
        "longitude":-86.675875,
        "state_name":"Alabama"
    },
    {
        "id":"298",
        "displayName":"Boaz Supercenter",
        "type":"STORE",
        "phoneNumber":"256-593-0195",
        "name":"Walmart Supercenter",
        "open24Hours":false,
        "street":"1972 Hwy 431",
        "city":"Boaz",
        "state":"AL",
        "zip":"35957",
        "geoPoint":{
            "latitude":34.214797,
            "longitude":-86.153409
        },
        "latitude":34.214797,
        "longitude":-86.153409,
        "state_name":"Alabama"
    },
    {
        "id":"425",
        "displayName":"Brent Supercenter",
        "type":"STORE",
        "phoneNumber":"205-926-4878",
        "name":"Walmart Supercenter",
        "open24Hours":false,
        "street":"10675 Highway 5",
        "city":"Brent",
        "state":"AL",
        "zip":"35034",
        "geoPoint":{
            "latitude":32.963956,
            "longitude":-87.171887
        },
        "latitude":32.963956,
        "longitude":-87.171887,
        "state_name":"Alabama"
    },
    {
        "id":"1620",
        "displayName":"Brewton Supercenter",
        "type":"STORE",
        "phoneNumber":"251-867-4680",
        "name":"Walmart Supercenter",
        "open24Hours":false,
        "street":"2578 Douglas Ave",
        "city":"Brewton",
        "state":"AL",
        "zip":"36426",
        "geoPoint":{
            "latitude":31.148441,
            "longitude":-87.063735
        },
        "latitude":31.148441,
        "longitude":-87.063735,
        "state_name":"Alabama"
    },
    {
        "id":"3271",
        "displayName":"Calera Supercenter",
        "type":"STORE",
        "phoneNumber":"205-668-0831",
        "name":"Walmart Supercenter",
        "open24Hours":false,
        "street":"5100 Highway 31",
        "city":"Calera",
        "state":"AL",
        "zip":"35040",
        "geoPoint":{
            "latitude":33.146252,
            "longitude":-86.751885
        },
        "latitude":33.146252,
        "longitude":-86.751885,
        "state_name":"Alabama"
    },
    {
        "id":"5126",
        "displayName":"Centre Supercenter",
        "type":"STORE",
        "phoneNumber":"256-927-9900",
        "name":"Walmart Supercenter",
        "open24Hours":false,
        "street":"1950 W Main St",
        "city":"Centre",
        "state":"AL",
        "zip":"35960",
        "geoPoint":{
            "latitude":34.162885,
            "longitude":-85.712618
        },
        "latitude":34.162885,
        "longitude":-85.712618,
        "state_name":"Alabama"
    },
    {
        "id":"4330",
        "displayName":"Chelsea Supercenter",
        "type":"STORE",
        "phoneNumber":"205-678-2222",
        "name":"Walmart Supercenter",
        "open24Hours":false,
        "street":"16077 Highway 280",
        "city":"Chelsea",
        "state":"AL",
        "zip":"35043",
        "geoPoint":{
            "latitude":33.347786,
            "longitude":-86.619238
        },
        "latitude":33.347786,
        "longitude":-86.619238,
        "state_name":"Alabama"
    },
    {
        "id":"424",
        "displayName":"Clanton Supercenter",
        "type":"STORE",
        "phoneNumber":"205-755-7574",
        "name":"Walmart Supercenter",
        "open24Hours":false,
        "street":"1415 7th St S",
        "city":"Clanton",
        "state":"AL",
        "zip":"35045",
        "geoPoint":{
            "latitude":32.816741,
            "longitude":-86.609419
        },
        "latitude":32.816741,
        "longitude":-86.609419,
        "state_name":"Alabama"
    },
    {
        "id":"670",
        "displayName":"Cullman Supercenter",
        "type":"STORE",
        "phoneNumber":"256-739-1664",
        "name":"Walmart Supercenter",
        "open24Hours":false,
        "street":"626 Olive St Sw",
        "city":"Cullman",
        "state":"AL",
        "zip":"35055",
        "geoPoint":{
            "latitude":34.149151,
            "longitude":-86.842058
        },
        "latitude":34.149151,
        "longitude":-86.842058,
        "state_name":"Alabama"
    },
    {
        "id":"7280",
        "displayName":"Cullman Supercenter",
        "type":"STORE",
        "phoneNumber":"256-615-6667",
        "name":"Walmart Supercenter",
        "open24Hours":false,
        "street":"5601 Al Highway 157",
        "city":"Cullman",
        "state":"AL",
        "zip":"35058",
        "geoPoint":{
            "latitude":34.204319,
            "longitude":-86.869567
        },
        "latitude":34.204319,
        "longitude":-86.869567,
        "state_name":"Alabama"
    },
    {
        "id":"934",
        "displayName":"Daphne Supercenter",
        "type":"STORE",
        "phoneNumber":"251-626-0923",
        "name":"Walmart Supercenter",
        "open24Hours":false,
        "street":"27520 Us Highway 98",
        "city":"Daphne",
        "state":"AL",
        "zip":"36526",
        "geoPoint":{
            "latitude":30.625092,
            "longitude":-87.904582
        },
        "latitude":30.625092,
        "longitude":-87.904582,
        "state_name":"Alabama"
    },
    {
        "id":"2488",
        "displayName":"Decatur Neighborhood Market",
        "type":"STORE",
        "phoneNumber":"256-822-6366",
        "name":"Neighborhood Market",
        "open24Hours":false,
        "street":"1203 6th Ave Se",
        "city":"Decatur",
        "state":"AL",
        "zip":"35601",
        "geoPoint":{
            "latitude":34.588891,
            "longitude":-86.981859
        },
        "latitude":34.588891,
        "longitude":-86.981859,
        "state_name":"Alabama"
    },
    {
        "id":"662",
        "displayName":"Decatur Supercenter",
        "type":"STORE",
        "phoneNumber":"256-350-4624",
        "name":"Walmart Supercenter",
        "open24Hours":false,
        "street":"2800 Spring Ave Sw",
        "city":"Decatur",
        "state":"AL",
        "zip":"35603",
        "geoPoint":{
            "latitude":34.556564,
            "longitude":-86.995961
        },
        "latitude":34.556564,
        "longitude":-86.995961,
        "state_name":"Alabama"
    },
    {
        "id":"731",
        "displayName":"Demopolis Supercenter",
        "type":"STORE",
        "phoneNumber":"334-289-2385",
        "name":"Walmart Supercenter",
        "open24Hours":false,
        "street":"969 Us Highway 80 W",
        "city":"Demopolis",
        "state":"AL",
        "zip":"36732",
        "geoPoint":{
            "latitude":32.493017,
            "longitude":-87.849283
        },
        "latitude":32.493017,
        "longitude":-87.849283,
        "state_name":"Alabama"
    },
    {
        "id":"5769",
        "displayName":"Dothan Neighborhood Market",
        "type":"STORE",
        "phoneNumber":"334-547-6508",
        "name":"Neighborhood Market",
        "open24Hours":false,
        "street":"3871 W Main St",
        "city":"Dothan",
        "state":"AL",
        "zip":"36305",
        "geoPoint":{
            "latitude":31.231958,
            "longitude":-85.450808
        },
        "latitude":31.231958,
        "longitude":-85.450808,
        "state_name":"Alabama"
    },
    {
        "id":"604",
        "displayName":"Dothan Supercenter",
        "type":"STORE",
        "phoneNumber":"334-793-3099",
        "name":"Walmart Supercenter",
        "open24Hours":false,
        "street":"4310 Montgomery Hwy",
        "city":"Dothan",
        "state":"AL",
        "zip":"36303",
        "geoPoint":{
            "latitude":31.268096,
            "longitude":-85.441104
        },
        "latitude":31.268096,
        "longitude":-85.441104,
        "state_name":"Alabama"
    },
    {
        "id":"2534",
        "displayName":"Dothan Supercenter",
        "type":"STORE",
        "phoneNumber":"334-702-1310",
        "name":"Walmart Supercenter",
        "open24Hours":false,
        "street":"3300 S Oates St",
        "city":"Dothan",
        "state":"AL",
        "zip":"36301",
        "geoPoint":{
            "latitude":31.178814,
            "longitude":-85.404472
        },
        "latitude":31.178814,
        "longitude":-85.404472,
        "state_name":"Alabama"
    },
    {
        "id":"734",
        "displayName":"Enterprise Supercenter",
        "type":"STORE",
        "phoneNumber":"334-347-5353",
        "name":"Walmart Supercenter",
        "open24Hours":false,
        "street":"600 Boll Weevil Cir",
        "city":"Enterprise",
        "state":"AL",
        "zip":"36330",
        "geoPoint":{
            "latitude":31.315813,
            "longitude":-85.826521
        },
        "latitude":31.315813,
        "longitude":-85.826521,
        "state_name":"Alabama"
    },
    {
        "id":"1638",
        "displayName":"Eufaula Supercenter",
        "type":"STORE",
        "phoneNumber":"334-687-2218",
        "name":"Walmart Supercenter",
        "open24Hours":false,
        "street":"3176 S Eufaula Ave",
        "city":"Eufaula",
        "state":"AL",
        "zip":"36027",
        "geoPoint":{
            "latitude":31.843586,
            "longitude":-85.171043
        },
        "latitude":31.843586,
        "longitude":-85.171043,
        "state_name":"Alabama"
    },
    {
        "id":"4333",
        "displayName":"Fairhope Supercenter",
        "type":"STORE",
        "phoneNumber":"251-990-9006",
        "name":"Walmart Supercenter",
        "open24Hours":false,
        "street":"10040 County Road 48",
        "city":"Fairhope",
        "state":"AL",
        "zip":"36532",
        "geoPoint":{
            "latitude":30.522315,
            "longitude":-87.848815
        },
        "latitude":30.522315,
        "longitude":-87.848815,
        "state_name":"Alabama"
    },
    {
        "id":"1052",
        "displayName":"Fayette Supercenter",
        "type":"STORE",
        "phoneNumber":"205-932-5277",
        "name":"Walmart Supercenter",
        "open24Hours":false,
        "street":"3186 Highway 171 N",
        "city":"Fayette",
        "state":"AL",
        "zip":"35555",
        "geoPoint":{
            "latitude":33.731681,
            "longitude":-87.808643
        },
        "latitude":33.731681,
        "longitude":-87.808643,
        "state_name":"Alabama"
    },
    {
        "id":"4188",
        "displayName":"Florence Neighborhood Market",
        "type":"STORE",
        "phoneNumber":"256-712-6195",
        "name":"Neighborhood Market",
        "open24Hours":false,
        "street":"1410 Florence Blvd",
        "city":"Florence",
        "state":"AL",
        "zip":"35630",
        "geoPoint":{
            "latitude":34.817981,
            "longitude":-87.656457
        },
        "latitude":34.817981,
        "longitude":-87.656457,
        "state_name":"Alabama"
    },
    {
        "id":"766",
        "displayName":"Florence Supercenter",
        "type":"STORE",
        "phoneNumber":"256-767-7581",
        "name":"Walmart Supercenter",
        "open24Hours":false,
        "street":"3100 Hough Rd",
        "city":"Florence",
        "state":"AL",
        "zip":"35630",
        "geoPoint":{
            "latitude":34.834305,
            "longitude":-87.625777
        },
        "latitude":34.834305,
        "longitude":-87.625777,
        "state_name":"Alabama"
    },
    {
        "id":"4187",
        "displayName":"Florence Supercenter",
        "type":"STORE",
        "phoneNumber":"256-712-6410",
        "name":"Walmart Supercenter",
        "open24Hours":false,
        "street":"2701 Cloverdale Road",
        "city":"Florence",
        "state":"AL",
        "zip":"35633",
        "geoPoint":{
            "latitude":34.843005,
            "longitude":-87.691828
        },
        "latitude":34.843005,
        "longitude":-87.691828,
        "state_name":"Alabama"
    },
    {
        "id":"904",
        "displayName":"Foley Supercenter",
        "type":"STORE",
        "phoneNumber":"251-943-3400",
        "name":"Walmart Supercenter",
        "open24Hours":false,
        "street":"2200 S Mckenzie St",
        "city":"Foley",
        "state":"AL",
        "zip":"36535",
        "geoPoint":{
            "latitude":30.382509,
            "longitude":-87.686413
        },
        "latitude":30.382509,
        "longitude":-87.686413,
        "state_name":"Alabama"
    },
    {
        "id":"691",
        "displayName":"Fort Payne Supercenter",
        "type":"STORE",
        "phoneNumber":"256-845-3163",
        "name":"Walmart Supercenter",
        "open24Hours":false,
        "street":"2001 Glenn Blvd Sw",
        "city":"Fort Payne",
        "state":"AL",
        "zip":"35968",
        "geoPoint":{
            "latitude":34.440139,
            "longitude":-85.761831
        },
        "latitude":34.440139,
        "longitude":-85.761831,
        "state_name":"Alabama"
    },
    {
        "id":"301",
        "displayName":"Gadsden Supercenter",
        "type":"STORE",
        "phoneNumber":"256-547-2637",
        "name":"Walmart Supercenter",
        "open24Hours":false,
        "street":"340 E Meighan Blvd",
        "city":"Gadsden",
        "state":"AL",
        "zip":"35903",
        "geoPoint":{
            "latitude":34.012884,
            "longitude":-85.987298
        },
        "latitude":34.012884,
        "longitude":-85.987298,
        "state_name":"Alabama"
    },
    {
        "id":"1201",
        "displayName":"Gardendale Supercenter",
        "type":"STORE",
        "phoneNumber":"205-631-8110",
        "name":"Walmart Supercenter",
        "open24Hours":false,
        "street":"890 Odum Rd",
        "city":"Gardendale",
        "state":"AL",
        "zip":"35071",
        "geoPoint":{
            "latitude":33.647044,
            "longitude":-86.822763
        },
        "latitude":33.647044,
        "longitude":-86.822763,
        "state_name":"Alabama"
    },
    {
        "id":"1063",
        "displayName":"Geneva Store",
        "type":"STORE",
        "phoneNumber":"334-684-3681",
        "name":"Walmart",
        "open24Hours":false,
        "street":"1608 W Magnolia Ave",
        "city":"Geneva",
        "state":"AL",
        "zip":"36340",
        "geoPoint":{
            "latitude":31.051466,
            "longitude":-85.899381
        },
        "latitude":31.051466,
        "longitude":-85.899381,
        "state_name":"Alabama"
    },
    {
        "id":"1462",
        "displayName":"Greenville Supercenter",
        "type":"STORE",
        "phoneNumber":"334-382-2655",
        "name":"Walmart Supercenter",
        "open24Hours":false,
        "street":"501 Willow Ln",
        "city":"Greenville",
        "state":"AL",
        "zip":"36037",
        "geoPoint":{
            "latitude":31.849507,
            "longitude":-86.647223
        },
        "latitude":31.849507,
        "longitude":-86.647223,
        "state_name":"Alabama"
    },
    {
        "id":"2748",
        "displayName":"Gulf Shores Supercenter",
        "type":"STORE",
        "phoneNumber":"251-968-5871",
        "name":"Walmart Supercenter",
        "open24Hours":false,
        "street":"170 E Fort Morgan Rd",
        "city":"Gulf Shores",
        "state":"AL",
        "zip":"36542",
        "geoPoint":{
            "latitude":30.267429,
            "longitude":-87.686246
        },
        "latitude":30.267429,
        "longitude":-87.686246,
        "state_name":"Alabama"
    },
    {
        "id":"681",
        "displayName":"Guntersville Supercenter",
        "type":"STORE",
        "phoneNumber":"256-878-0685",
        "name":"Walmart Supercenter",
        "open24Hours":false,
        "street":"11697 Us Highway 431",
        "city":"Guntersville",
        "state":"AL",
        "zip":"35976",
        "geoPoint":{
            "latitude":34.299417,
            "longitude":-86.278983
        },
        "latitude":34.299417,
        "longitude":-86.278983,
        "state_name":"Alabama"
    },
    {
        "id":"409",
        "displayName":"Haleyville Supercenter",
        "type":"STORE",
        "phoneNumber":"205-486-9498",
        "name":"Walmart Supercenter",
        "open24Hours":false,
        "street":"42466 Highway 195",
        "city":"Haleyville",
        "state":"AL",
        "zip":"35565",
        "geoPoint":{
            "latitude":34.240523,
            "longitude":-87.598792
        },
        "latitude":34.240523,
        "longitude":-87.598792,
        "state_name":"Alabama"
    },
    {
        "id":"1100",
        "displayName":"Hamilton Supercenter",
        "type":"STORE",
        "phoneNumber":"205-921-3090",
        "name":"Walmart Supercenter",
        "open24Hours":false,
        "street":"1706 Military St S",
        "city":"Hamilton",
        "state":"AL",
        "zip":"35570",
        "geoPoint":{
            "latitude":34.119544,
            "longitude":-87.992083
        },
        "latitude":34.119544,
        "longitude":-87.992083,
        "state_name":"Alabama"
    },
    {
        "id":"1124",
        "displayName":"Hartselle Supercenter",
        "type":"STORE",
        "phoneNumber":"256-773-1675",
        "name":"Walmart Supercenter",
        "open24Hours":false,
        "street":"1201 Highway 31 Nw",
        "city":"Hartselle",
        "state":"AL",
        "zip":"35640",
        "geoPoint":{
            "latitude":34.452544,
            "longitude":-86.948605
        },
        "latitude":34.452544,
        "longitude":-86.948605,
        "state_name":"Alabama"
    },
    {
        "id":"6878",
        "displayName":"Hazel Green Supercenter",
        "type":"STORE",
        "phoneNumber":"256-828-0486",
        "name":"Walmart Supercenter",
        "open24Hours":false,
        "street":"14595 Highway 231 431 N",
        "city":"Hazel Green",
        "state":"AL",
        "zip":"35750",
        "geoPoint":{
            "latitude":34.945866,
            "longitude":-86.574801
        },
        "latitude":34.945866,
        "longitude":-86.574801,
        "state_name":"Alabama"
    },
    {
        "id":"4189",
        "displayName":"Helena Neighborhood Market",
        "type":"STORE",
        "phoneNumber":"205-624-1640",
        "name":"Neighborhood Market",
        "open24Hours":false,
        "street":"335 Helena Marketplace",
        "city":"Helena",
        "state":"AL",
        "zip":"35080",
        "geoPoint":{
            "latitude":33.279558,
            "longitude":-86.850869
        },
        "latitude":33.279558,
        "longitude":-86.850869,
        "state_name":"Alabama"
    },
    {
        "id":"1481",
        "displayName":"Homewood Supercenter",
        "type":"STORE",
        "phoneNumber":"205-945-8692",
        "name":"Walmart Supercenter",
        "open24Hours":false,
        "street":"209 Lakeshore Pkwy",
        "city":"Homewood",
        "state":"AL",
        "zip":"35209",
        "geoPoint":{
            "latitude":33.447061,
            "longitude":-86.821007
        },
        "latitude":33.447061,
        "longitude":-86.821007,
        "state_name":"Alabama"
    },
    {
        "id":"3184",
        "displayName":"Hoover Neighborhood Market",
        "type":"STORE",
        "phoneNumber":"205-909-4306",
        "name":"Neighborhood Market",
        "open24Hours":false,
        "street":"3320 Lorna Rd",
        "city":"Hoover",
        "state":"AL",
        "zip":"35216",
        "geoPoint":{
            "latitude":33.393005,
            "longitude":-86.799345
        },
        "latitude":33.393005,
        "longitude":-86.799345,
        "state_name":"Alabama"
    },
    {
        "id":"1229",
        "displayName":"Hoover Supercenter",
        "type":"STORE",
        "phoneNumber":"205-733-0303",
        "name":"Walmart Supercenter",
        "open24Hours":false,
        "street":"2780 John Hawkins Pkwy",
        "city":"Hoover",
        "state":"AL",
        "zip":"35244",
        "geoPoint":{
            "latitude":33.361773,
            "longitude":-86.824653
        },
        "latitude":33.361773,
        "longitude":-86.824653,
        "state_name":"Alabama"
    },
    {
        "id":"4497",
        "displayName":"Hueytown Supercenter",
        "type":"STORE",
        "phoneNumber":"205-744-9997",
        "name":"Walmart Supercenter",
        "open24Hours":false,
        "street":"1007 Red Farmer Dr",
        "city":"Hueytown",
        "state":"AL",
        "zip":"35023",
        "geoPoint":{
            "latitude":33.460574,
            "longitude":-86.968321
        },
        "latitude":33.460574,
        "longitude":-86.968321,
        "state_name":"Alabama"
    },
    {
        "id":"5197",
        "displayName":"Owens Cross Roads Supercenter",
        "type":"STORE",
        "phoneNumber":"256-534-4140",
        "name":"Walmart Supercenter",
        "open24Hours":false,
        "street":"330 Sutton Rd Se",
        "city":"Owens Cross Roads",
        "state":"AL",
        "zip":"35763",
        "geoPoint":{
            "latitude":34.657641,
            "longitude":-86.485439
        },
        "latitude":34.657641,
        "longitude":-86.485439,
        "state_name":"Alabama"
    },
    {
        "id":"7254",
        "displayName":"Huntsville Pharmacy",
        "type":"STORE",
        "phoneNumber":"256-746-1638",
        "name":"Clinic Pharmacy",
        "open24Hours":false,
        "street":"1 Cotton Valley Drive Nw",
        "city":"Huntsville",
        "state":"AL",
        "zip":"35810",
        "geoPoint":{
            "latitude":34.830417,
            "longitude":-86.640115
        },
        "latitude":34.830417,
        "longitude":-86.640115,
        "state_name":"Alabama"
    },
    {
        "id":"3185",
        "displayName":"Huntsville Neighborhood Market",
        "type":"STORE",
        "phoneNumber":"256-361-2083",
        "name":"Neighborhood Market",
        "open24Hours":false,
        "street":"4226 Oakwood Ave Nw",
        "city":"Huntsville",
        "state":"AL",
        "zip":"35810",
        "geoPoint":{
            "latitude":34.750358,
            "longitude":-86.633691
        },
        "latitude":34.750358,
        "longitude":-86.633691,
        "state_name":"Alabama"
    },
    {
        "id":"5716",
        "displayName":"Huntsville Neighborhood Market",
        "type":"STORE",
        "phoneNumber":"256-970-6552",
        "name":"Neighborhood Market",
        "open24Hours":false,
        "street":"9020 Bailey Cove Rd Se",
        "city":"Huntsville",
        "state":"AL",
        "zip":"35802",
        "geoPoint":{
            "latitude":34.647306,
            "longitude":-86.541579
        },
        "latitude":34.647306,
        "longitude":-86.541579,
        "state_name":"Alabama"
    },
    {
        "id":"5925",
        "displayName":"Huntsville Neighborhood Market",
        "type":"STORE",
        "phoneNumber":"256-755-3080",
        "name":"Neighborhood Market",
        "open24Hours":false,
        "street":"2305 Jordan Ln Sw",
        "city":"Huntsville",
        "state":"AL",
        "zip":"35805",
        "geoPoint":{
            "latitude":34.713602,
            "longitude":-86.624894
        },
        "latitude":34.713602,
        "longitude":-86.624894,
        "state_name":"Alabama"
    },
    {
        "id":"332",
        "displayName":"Huntsville Supercenter",
        "type":"STORE",
        "phoneNumber":"256-837-7272",
        "name":"Walmart Supercenter",
        "open24Hours":false,
        "street":"6140a University Dr Nw",
        "city":"Huntsville",
        "state":"AL",
        "zip":"35806",
        "geoPoint":{
            "latitude":34.747008,
            "longitude":-86.675822
        },
        "latitude":34.747008,
        "longitude":-86.675822,
        "state_name":"Alabama"
    },
    {
        "id":"375",
        "displayName":"Huntsville Supercenter",
        "type":"STORE",
        "phoneNumber":"256-536-2870",
        "name":"Walmart Supercenter",
        "open24Hours":false,
        "street":"3031 Memorial Pkwy Sw",
        "city":"Huntsville",
        "state":"AL",
        "zip":"35801",
        "geoPoint":{
            "latitude":34.703017,
            "longitude":-86.585392
        },
        "latitude":34.703017,
        "longitude":-86.585392,
        "state_name":"Alabama"
    },
    {
        "id":"433",
        "displayName":"Huntsville Supercenter",
        "type":"STORE",
        "phoneNumber":"256-852-2236",
        "name":"Walmart Supercenter",
        "open24Hours":false,
        "street":"2200 Sparkman Dr Nw",
        "city":"Huntsville",
        "state":"AL",
        "zip":"35810",
        "geoPoint":{
            "latitude":34.765271,
            "longitude":-86.592518
        },
        "latitude":34.765271,
        "longitude":-86.592518,
        "state_name":"Alabama"
    },
    {
        "id":"434",
        "displayName":"Huntsville Supercenter",
        "type":"STORE",
        "phoneNumber":"256-881-0581",
        "name":"Walmart Supercenter",
        "open24Hours":false,
        "street":"11610 Memorial Pkwy Sw",
        "city":"Huntsville",
        "state":"AL",
        "zip":"35803",
        "geoPoint":{
            "latitude":34.615879,
            "longitude":-86.570722
        },
        "latitude":34.615879,
        "longitude":-86.570722,
        "state_name":"Alabama"
    },
    {
        "id":"7324",
        "displayName":"Huntsville Supercenter",
        "type":"STORE",
        "phoneNumber":"256-716-6773",
        "name":"Walmart Supercenter",
        "open24Hours":false,
        "street":"2165 Winchester Rd Ne",
        "city":"Huntsville",
        "state":"AL",
        "zip":"35811",
        "geoPoint":{
            "latitude":34.820138,
            "longitude":-86.492473
        },
        "latitude":34.820138,
        "longitude":-86.492473,
        "state_name":"Alabama"
    },
    {
        "id":"2760",
        "displayName":"Jackson Supercenter",
        "type":"STORE",
        "phoneNumber":"251-247-7101",
        "name":"Walmart Supercenter",
        "open24Hours":false,
        "street":"4206 N College Ave",
        "city":"Jackson",
        "state":"AL",
        "zip":"36545",
        "geoPoint":{
            "latitude":31.559638,
            "longitude":-87.875509
        },
        "latitude":31.559638,
        "longitude":-87.875509,
        "state_name":"Alabama"
    },
    {
        "id":"300",
        "displayName":"Jacksonville Supercenter",
        "type":"STORE",
        "phoneNumber":"256-435-8100",
        "name":"Walmart Supercenter",
        "open24Hours":false,
        "street":"1625 Pelham Rd S",
        "city":"Jacksonville",
        "state":"AL",
        "zip":"36265",
        "geoPoint":{
            "latitude":33.788222,
            "longitude":-85.765028
        },
        "latitude":33.788222,
        "longitude":-85.765028,
        "state_name":"Alabama"
    },
    {
        "id":"287",
        "displayName":"Jasper Supercenter",
        "type":"STORE",
        "phoneNumber":"205-384-1100",
        "name":"Walmart Supercenter",
        "open24Hours":false,
        "street":"1801 Highway 78 E",
        "city":"Jasper",
        "state":"AL",
        "zip":"35501",
        "geoPoint":{
            "latitude":33.842929,
            "longitude":-87.254431
        },
        "latitude":33.842929,
        "longitude":-87.254431,
        "state_name":"Alabama"
    },
    {
        "id":"562",
        "displayName":"Leeds Supercenter",
        "type":"STORE",
        "phoneNumber":"205-699-0701",
        "name":"Walmart Supercenter",
        "open24Hours":false,
        "street":"8551 Whitfield Ave",
        "city":"Leeds",
        "state":"AL",
        "zip":"35094",
        "geoPoint":{
            "latitude":33.562249,
            "longitude":-86.518651
        },
        "latitude":33.562249,
        "longitude":-86.518651,
        "state_name":"Alabama"
    },
    {
        "id":"7342",
        "displayName":"Madison Neighborhood Market",
        "type":"STORE",
        "phoneNumber":"256-970-6193",
        "name":"Neighborhood Market",
        "open24Hours":false,
        "street":"7140 Wall Triana Hwy",
        "city":"Madison",
        "state":"AL",
        "zip":"35757",
        "geoPoint":{
            "latitude":34.793292,
            "longitude":-86.750837
        },
        "latitude":34.793292,
        "longitude":-86.750837,
        "state_name":"Alabama"
    },
    {
        "id":"2690",
        "displayName":"Madison Supercenter",
        "type":"STORE",
        "phoneNumber":"256-461-7403",
        "name":"Walmart Supercenter",
        "open24Hours":false,
        "street":"8650 Madison Blvd",
        "city":"Madison",
        "state":"AL",
        "zip":"35758",
        "geoPoint":{
            "latitude":34.683846,
            "longitude":-86.741089
        },
        "latitude":34.683846,
        "longitude":-86.741089,
        "state_name":"Alabama"
    },
    {
        "id":"5703",
        "displayName":"Madison Supercenter",
        "type":"STORE",
        "phoneNumber":"256-716-6951",
        "name":"Walmart Supercenter",
        "open24Hours":false,
        "street":"8580 Hwy 72 W",
        "city":"Madison",
        "state":"AL",
        "zip":"35758",
        "geoPoint":{
            "latitude":34.751176,
            "longitude":-86.773609
        },
        "latitude":34.751176,
        "longitude":-86.773609,
        "state_name":"Alabama"
    },
    {
        "id":"4318",
        "displayName":"Millbrook Supercenter",
        "type":"STORE",
        "phoneNumber":"334-285-0311",
        "name":"Walmart Supercenter",
        "open24Hours":false,
        "street":"145 Kelley Blvd",
        "city":"Millbrook",
        "state":"AL",
        "zip":"36054",
        "geoPoint":{
            "latitude":32.493848,
            "longitude":-86.398481
        },
        "latitude":32.493848,
        "longitude":-86.398481,
        "state_name":"Alabama"
    },
    {
        "id":"4210",
        "displayName":"Mobile Neighborhood Market",
        "type":"STORE",
        "phoneNumber":"251-586-6227",
        "name":"Neighborhood Market",
        "open24Hours":false,
        "street":"1300 North University",
        "city":"Mobile",
        "state":"AL",
        "zip":"36618",
        "geoPoint":{
            "latitude":30.717131,
            "longitude":-88.163341
        },
        "latitude":30.717131,
        "longitude":-88.163341,
        "state_name":"Alabama"
    },
    {
        "id":"4648",
        "displayName":"Mobile Neighborhood Market",
        "type":"STORE",
        "phoneNumber":"251-370-9845",
        "name":"Neighborhood Market",
        "open24Hours":false,
        "street":"6575 Airport Blvd",
        "city":"Mobile",
        "state":"AL",
        "zip":"36608",
        "geoPoint":{
            "latitude":30.678101,
            "longitude":-88.194902
        },
        "latitude":30.678101,
        "longitude":-88.194902,
        "state_name":"Alabama"
    },
    {
        "id":"4657",
        "displayName":"Mobile Neighborhood Market",
        "type":"STORE",
        "phoneNumber":"251-661-1717",
        "name":"Neighborhood Market",
        "open24Hours":false,
        "street":"6350 Cottage Hill Rd",
        "city":"Mobile",
        "state":"AL",
        "zip":"36609",
        "geoPoint":{
            "latitude":30.641503,
            "longitude":-88.189305
        },
        "latitude":30.641503,
        "longitude":-88.189305,
        "state_name":"Alabama"
    },
    {
        "id":"5098",
        "displayName":"Mobile Neighborhood Market",
        "type":"STORE",
        "phoneNumber":"251-666-3373",
        "name":"Neighborhood Market",
        "open24Hours":false,
        "street":"1970 S University Blvd",
        "city":"Mobile",
        "state":"AL",
        "zip":"36609",
        "geoPoint":{
            "latitude":30.649576,
            "longitude":-88.162311
        },
        "latitude":30.649576,
        "longitude":-88.162311,
        "state_name":"Alabama"
    },
    {
        "id":"5740",
        "displayName":"Mobile Neighborhood Market",
        "type":"STORE",
        "phoneNumber":"251-586-6481",
        "name":"Neighborhood Market",
        "open24Hours":false,
        "street":"2570 Government Blvd",
        "city":"Mobile",
        "state":"AL",
        "zip":"36606",
        "geoPoint":{
            "latitude":30.669712,
            "longitude":-88.105083
        },
        "latitude":30.669712,
        "longitude":-88.105083,
        "state_name":"Alabama"
    },
    {
        "id":"853",
        "displayName":"Mobile Supercenter",
        "type":"STORE",
        "phoneNumber":"251-633-2211",
        "name":"Walmart Supercenter",
        "open24Hours":false,
        "street":"685 Schillinger Rd S",
        "city":"Mobile",
        "state":"AL",
        "zip":"36695",
        "geoPoint":{
            "latitude":30.678199,
            "longitude":-88.222575
        },
        "latitude":30.678199,
        "longitude":-88.222575,
        "state_name":"Alabama"
    },
    {
        "id":"866",
        "displayName":"Mobile Supercenter",
        "type":"STORE",
        "phoneNumber":"251-666-7972",
        "name":"Walmart Supercenter",
        "open24Hours":false,
        "street":"5245 Rangeline Service Rd S",
        "city":"Mobile",
        "state":"AL",
        "zip":"36619",
        "geoPoint":{
            "latitude":30.593985,
            "longitude":-88.162776
        },
        "latitude":30.593985,
        "longitude":-88.162776,
        "state_name":"Alabama"
    },
    {
        "id":"991",
        "displayName":"Mobile Supercenter",
        "type":"STORE",
        "phoneNumber":"251-471-1105",
        "name":"Walmart Supercenter",
        "open24Hours":false,
        "street":"101 E I65 Service Rd S",
        "city":"Mobile",
        "state":"AL",
        "zip":"36606",
        "geoPoint":{
            "latitude":30.684424,
            "longitude":-88.124959
        },
        "latitude":30.684424,
        "longitude":-88.124959,
        "state_name":"Alabama"
    },
    {
        "id":"4581",
        "displayName":"Mobile Supercenter",
        "type":"STORE",
        "phoneNumber":"251-633-6023",
        "name":"Walmart Supercenter",
        "open24Hours":false,
        "street":"2500 Dawes Rd",
        "city":"Mobile",
        "state":"AL",
        "zip":"36695",
        "geoPoint":{
            "latitude":30.639106,
            "longitude":-88.246405
        },
        "latitude":30.639106,
        "longitude":-88.246405,
        "state_name":"Alabama"
    },
    {
        "id":"1493",
        "displayName":"Monroeville Supercenter",
        "type":"STORE",
        "phoneNumber":"251-575-3333",
        "name":"Walmart Supercenter",
        "open24Hours":false,
        "street":"3371 S Alabama Ave",
        "city":"Monroeville",
        "state":"AL",
        "zip":"36460",
        "geoPoint":{
            "latitude":31.480615,
            "longitude":-87.328286
        },
        "latitude":31.480615,
        "longitude":-87.328286,
        "state_name":"Alabama"
    },
    {
        "id":"4672",
        "displayName":"Montgomery Neighborhood Market",
        "type":"STORE",
        "phoneNumber":"334-777-5865",
        "name":"Neighborhood Market",
        "open24Hours":false,
        "street":"1600 Federal Dr",
        "city":"Montgomery",
        "state":"AL",
        "zip":"36107",
        "geoPoint":{
            "latitude":32.402505,
            "longitude":-86.266962
        },
        "latitude":32.402505,
        "longitude":-86.266962,
        "state_name":"Alabama"
    },
    {
        "id":"4691",
        "displayName":"Montgomery Neighborhood Market",
        "type":"STORE",
        "phoneNumber":"334-777-5881",
        "name":"Neighborhood Market",
        "open24Hours":false,
        "street":"8035 Vaughn Road",
        "city":"Montgomery",
        "state":"AL",
        "zip":"36116",
        "geoPoint":{
            "latitude":32.340452,
            "longitude":-86.175231
        },
        "latitude":32.340452,
        "longitude":-86.175231,
        "state_name":"Alabama"
    },
    {
        "id":"930",
        "displayName":"Montgomery Supercenter",
        "type":"STORE",
        "phoneNumber":"334-284-4181",
        "name":"Walmart Supercenter",
        "open24Hours":false,
        "street":"3801 Eastern Blvd",
        "city":"Montgomery",
        "state":"AL",
        "zip":"36116",
        "geoPoint":{
            "latitude":32.325764,
            "longitude":-86.232163
        },
        "latitude":32.325764,
        "longitude":-86.232163,
        "state_name":"Alabama"
    },
    {
        "id":"938",
        "displayName":"Montgomery Supercenter",
        "type":"STORE",
        "phoneNumber":"334-272-0263",
        "name":"Walmart Supercenter",
        "open24Hours":false,
        "street":"6495 Atlanta Hwy",
        "city":"Montgomery",
        "state":"AL",
        "zip":"36117",
        "geoPoint":{
            "latitude":32.385046,
            "longitude":-86.184915
        },
        "latitude":32.385046,
        "longitude":-86.184915,
        "state_name":"Alabama"
    },
    {
        "id":"4407",
        "displayName":"Montgomery Supercenter",
        "type":"STORE",
        "phoneNumber":"334-272-7377",
        "name":"Walmart Supercenter",
        "open24Hours":false,
        "street":"10710 Chantilly Pkwy",
        "city":"Montgomery",
        "state":"AL",
        "zip":"36117",
        "geoPoint":{
            "latitude":32.354805,
            "longitude":-86.135007
        },
        "latitude":32.354805,
        "longitude":-86.135007,
        "state_name":"Alabama"
    },
    {
        "id":"5348",
        "displayName":"Montgomery Supercenter",
        "type":"STORE",
        "phoneNumber":"334-223-7177",
        "name":"Walmart Supercenter",
        "open24Hours":false,
        "street":"851 Ann St",
        "city":"Montgomery",
        "state":"AL",
        "zip":"36107",
        "geoPoint":{
            "latitude":32.370783,
            "longitude":-86.268184
        },
        "latitude":32.370783,
        "longitude":-86.268184,
        "state_name":"Alabama"
    },
    {
        "id":"394",
        "displayName":"Moulton Supercenter",
        "type":"STORE",
        "phoneNumber":"256-974-1128",
        "name":"Walmart Supercenter",
        "open24Hours":false,
        "street":"15445 Highway 24",
        "city":"Moulton",
        "state":"AL",
        "zip":"35650",
        "geoPoint":{
            "latitude":34.495579,
            "longitude":-87.276941
        },
        "latitude":34.495579,
        "longitude":-87.276941,
        "state_name":"Alabama"
    },
    {
        "id":"660",
        "displayName":"Muscle Shoals Supercenter",
        "type":"STORE",
        "phoneNumber":"256-381-0987",
        "name":"Walmart Supercenter",
        "open24Hours":false,
        "street":"301 Avalon Ave",
        "city":"Muscle Shoals",
        "state":"AL",
        "zip":"35661",
        "geoPoint":{
            "latitude":34.747901,
            "longitude":-87.673729
        },
        "latitude":34.747901,
        "longitude":-87.673729,
        "state_name":"Alabama"
    },
    {
        "id":"5248",
        "displayName":"Northport Neighborhood Market",
        "type":"STORE",
        "phoneNumber":"205-861-1263",
        "name":"Neighborhood Market",
        "open24Hours":false,
        "street":"1660 Mcfarland Blvd",
        "city":"Northport",
        "state":"AL",
        "zip":"35476",
        "geoPoint":{
            "latitude":33.239706,
            "longitude":-87.573611
        },
        "latitude":33.239706,
        "longitude":-87.573611,
        "state_name":"Alabama"
    },
    {
        "id":"2306",
        "displayName":"Northport Supercenter",
        "type":"STORE",
        "phoneNumber":"205-333-7820",
        "name":"Walmart Supercenter",
        "open24Hours":false,
        "street":"5710 Mcfarland Blvd",
        "city":"Northport",
        "state":"AL",
        "zip":"35476",
        "geoPoint":{
            "latitude":33.236372,
            "longitude":-87.615269
        },
        "latitude":33.236372,
        "longitude":-87.615269,
        "state_name":"Alabama"
    },
    {
        "id":"315",
        "displayName":"Oneonta Supercenter",
        "type":"STORE",
        "phoneNumber":"205-625-6474",
        "name":"Walmart Supercenter",
        "open24Hours":false,
        "street":"2453 2nd Ave E",
        "city":"Oneonta",
        "state":"AL",
        "zip":"35121",
        "geoPoint":{
            "latitude":33.971218,
            "longitude":-86.446599
        },
        "latitude":33.971218,
        "longitude":-86.446599,
        "state_name":"Alabama"
    },
    {
        "id":"355",
        "displayName":"Opelika Supercenter",
        "type":"STORE",
        "phoneNumber":"334-745-9333",
        "name":"Walmart Supercenter",
        "open24Hours":false,
        "street":"2900 Pepperell Pkwy",
        "city":"Opelika",
        "state":"AL",
        "zip":"36801",
        "geoPoint":{
            "latitude":32.637656,
            "longitude":-85.421699
        },
        "latitude":32.637656,
        "longitude":-85.421699,
        "state_name":"Alabama"
    },
    {
        "id":"5653",
        "displayName":"Orange Beach Neighborhood Market",
        "type":"STORE",
        "phoneNumber":"251-974-1810",
        "name":"Neighborhood Market",
        "open24Hours":false,
        "street":"25241 Perdido Beach Blvd Ste W",
        "city":"Orange Beach",
        "state":"AL",
        "zip":"36561",
        "geoPoint":{
            "latitude":30.269256,
            "longitude":-87.594288
        },
        "latitude":30.269256,
        "longitude":-87.594288,
        "state_name":"Alabama"
    },
    {
        "id":"809",
        "displayName":"Oxford Supercenter",
        "type":"STORE",
        "phoneNumber":"256-835-4701",
        "name":"Walmart Supercenter",
        "open24Hours":false,
        "street":"92 Plaza Ln",
        "city":"Oxford",
        "state":"AL",
        "zip":"36203",
        "geoPoint":{
            "latitude":33.598998,
            "longitude":-85.832345
        },
        "latitude":33.598998,
        "longitude":-85.832345,
        "state_name":"Alabama"
    },
    {
        "id":"740",
        "displayName":"Ozark Supercenter",
        "type":"STORE",
        "phoneNumber":"334-774-0272",
        "name":"Walmart Supercenter",
        "open24Hours":false,
        "street":"1537 S Us Highway 231",
        "city":"Ozark",
        "state":"AL",
        "zip":"36360",
        "geoPoint":{
            "latitude":31.445222,
            "longitude":-85.650719
        },
        "latitude":31.445222,
        "longitude":-85.650719,
        "state_name":"Alabama"
    },
    {
        "id":"5262",
        "displayName":"Pelham Supercenter",
        "type":"STORE",
        "phoneNumber":"205-987-0108",
        "name":"Walmart Supercenter",
        "open24Hours":false,
        "street":"2181 Pelham Pkwy",
        "city":"Pelham",
        "state":"AL",
        "zip":"35124",
        "geoPoint":{
            "latitude":33.340851,
            "longitude":-86.791181
        },
        "latitude":33.340851,
        "longitude":-86.791181,
        "state_name":"Alabama"
    },
    {
        "id":"5113",
        "displayName":"Pell City Supercenter",
        "type":"STORE",
        "phoneNumber":"205-338-5300",
        "name":"Walmart Supercenter",
        "open24Hours":false,
        "street":"165 Vaughan Ln",
        "city":"Pell City",
        "state":"AL",
        "zip":"35125",
        "geoPoint":{
            "latitude":33.609393,
            "longitude":-86.277232
        },
        "latitude":33.609393,
        "longitude":-86.277232,
        "state_name":"Alabama"
    },
    {
        "id":"5903",
        "displayName":"Phenix City Neighborhood Market",
        "type":"STORE",
        "phoneNumber":"334-408-6069",
        "name":"Neighborhood Market",
        "open24Hours":false,
        "street":"3864 Us Highway 80 W",
        "city":"Phenix City",
        "state":"AL",
        "zip":"36870",
        "geoPoint":{
            "latitude":32.470196,
            "longitude":-85.0840538
        },
        "latitude":32.470196,
        "longitude":-85.0840538,
        "state_name":"Alabama"
    },
    {
        "id":"1284",
        "displayName":"Phenix City Supercenter",
        "type":"STORE",
        "phoneNumber":"334-291-1700",
        "name":"Walmart Supercenter",
        "open24Hours":false,
        "street":"3700 Us-280",
        "city":"Phenix City",
        "state":"AL",
        "zip":"36867",
        "geoPoint":{
            "latitude":32.501376,
            "longitude":-85.043413
        },
        "latitude":32.501376,
        "longitude":-85.043413,
        "state_name":"Alabama"
    },
    {
        "id":"483",
        "displayName":"Prattville Supercenter",
        "type":"STORE",
        "phoneNumber":"334-361-2135",
        "name":"Walmart Supercenter",
        "open24Hours":false,
        "street":"1903 Cobbs Ford Rd",
        "city":"Prattville",
        "state":"AL",
        "zip":"36066",
        "geoPoint":{
            "latitude":32.463135,
            "longitude":-86.416312
        },
        "latitude":32.463135,
        "longitude":-86.416312,
        "state_name":"Alabama"
    },
    {
        "id":"863",
        "displayName":"Roanoke Supercenter",
        "type":"STORE",
        "phoneNumber":"334-863-2147",
        "name":"Walmart Supercenter",
        "open24Hours":false,
        "street":"4180 Us Hwy 431",
        "city":"Roanoke",
        "state":"AL",
        "zip":"36274",
        "geoPoint":{
            "latitude":33.164667,
            "longitude":-85.364434
        },
        "latitude":33.164667,
        "longitude":-85.364434,
        "state_name":"Alabama"
    },
    {
        "id":"6173",
        "displayName":"Robertsdale Supercenter",
        "type":"STORE",
        "phoneNumber":"251-947-4424",
        "name":"Walmart Supercenter",
        "open24Hours":false,
        "street":"21141 State Highway 59",
        "city":"Robertsdale",
        "state":"AL",
        "zip":"36567",
        "geoPoint":{
            "latitude":30.532086,
            "longitude":-87.711089
        },
        "latitude":30.532086,
        "longitude":-87.711089,
        "state_name":"Alabama"
    },
    {
        "id":"403",
        "displayName":"Russellville Supercenter",
        "type":"STORE",
        "phoneNumber":"256-332-7382",
        "name":"Walmart Supercenter",
        "open24Hours":false,
        "street":"13675 Highway 43",
        "city":"Russellville",
        "state":"AL",
        "zip":"35653",
        "geoPoint":{
            "latitude":34.495376,
            "longitude":-87.729011
        },
        "latitude":34.495376,
        "longitude":-87.729011,
        "state_name":"Alabama"
    },
    {
        "id":"1212",
        "displayName":"Saraland Supercenter",
        "type":"STORE",
        "phoneNumber":"251-675-8000",
        "name":"Walmart Supercenter",
        "open24Hours":false,
        "street":"1095 Industrial Pkwy",
        "city":"Saraland",
        "state":"AL",
        "zip":"36571",
        "geoPoint":{
            "latitude":30.799311,
            "longitude":-88.097054
        },
        "latitude":30.799311,
        "longitude":-88.097054,
        "state_name":"Alabama"
    },
    {
        "id":"712",
        "displayName":"Scottsboro Supercenter",
        "type":"STORE",
        "phoneNumber":"256-574-1126",
        "name":"Walmart Supercenter",
        "open24Hours":false,
        "street":"24833 John T Reid Pkwy",
        "city":"Scottsboro",
        "state":"AL",
        "zip":"35768",
        "geoPoint":{
            "latitude":34.668443,
            "longitude":-86.005791
        },
        "latitude":34.668443,
        "longitude":-86.005791,
        "state_name":"Alabama"
    },
    {
        "id":"700",
        "displayName":"Selma Supercenter",
        "type":"STORE",
        "phoneNumber":"334-874-7793",
        "name":"Walmart Supercenter",
        "open24Hours":false,
        "street":"1501 Al Highway 14 E",
        "city":"Selma",
        "state":"AL",
        "zip":"36703",
        "geoPoint":{
            "latitude":32.434137,
            "longitude":-87.012949
        },
        "latitude":32.434137,
        "longitude":-87.012949,
        "state_name":"Alabama"
    },
    {
        "id":"5174",
        "displayName":"Semmes Supercenter",
        "type":"STORE",
        "phoneNumber":"251-645-8224",
        "name":"Walmart Supercenter",
        "open24Hours":false,
        "street":"7855 Moffett Rd",
        "city":"Semmes",
        "state":"AL",
        "zip":"36575",
        "geoPoint":{
            "latitude":30.761799,
            "longitude":-88.229522
        },
        "latitude":30.761799,
        "longitude":-88.229522,
        "state_name":"Alabama"
    },
    {
        "id":"3386",
        "displayName":"Springville Supercenter",
        "type":"STORE",
        "phoneNumber":"205-467-6656",
        "name":"Walmart Supercenter",
        "open24Hours":false,
        "street":"160 Springville Station Blvd",
        "city":"Springville",
        "state":"AL",
        "zip":"35146",
        "geoPoint":{
            "latitude":33.779732,
            "longitude":-86.432946
        },
        "latitude":33.779732,
        "longitude":-86.432946,
        "state_name":"Alabama"
    },
    {
        "id":"2723",
        "displayName":"Sumiton Supercenter",
        "type":"STORE",
        "phoneNumber":"205-648-4100",
        "name":"Walmart Supercenter",
        "open24Hours":false,
        "street":"690 Highway 78",
        "city":"Sumiton",
        "state":"AL",
        "zip":"35148",
        "geoPoint":{
            "latitude":33.745493,
            "longitude":-87.041799
        },
        "latitude":33.745493,
        "longitude":-87.041799,
        "state_name":"Alabama"
    },
    {
        "id":"730",
        "displayName":"Sylacauga Supercenter",
        "type":"STORE",
        "phoneNumber":"256-245-0356",
        "name":"Walmart Supercenter",
        "open24Hours":false,
        "street":"41301 Us Highway 280",
        "city":"Sylacauga",
        "state":"AL",
        "zip":"35150",
        "geoPoint":{
            "latitude":33.175908,
            "longitude":-86.285403
        },
        "latitude":33.175908,
        "longitude":-86.285403,
        "state_name":"Alabama"
    },
    {
        "id":"432",
        "displayName":"Talladega Supercenter",
        "type":"STORE",
        "phoneNumber":"256-761-1681",
        "name":"Walmart Supercenter",
        "open24Hours":false,
        "street":"214 Haynes St",
        "city":"Talladega",
        "state":"AL",
        "zip":"35160",
        "geoPoint":{
            "latitude":33.438617,
            "longitude":-86.080367
        },
        "latitude":33.438617,
        "longitude":-86.080367,
        "state_name":"Alabama"
    },
    {
        "id":"1057",
        "displayName":"Tallassee Supercenter",
        "type":"STORE",
        "phoneNumber":"334-283-6841",
        "name":"Walmart Supercenter",
        "open24Hours":false,
        "street":"2190 Gilmer Avenue",
        "city":"Tallassee",
        "state":"AL",
        "zip":"36078",
        "geoPoint":{
            "latitude":32.5659197,
            "longitude":-85.931333
        },
        "latitude":32.5659197,
        "longitude":-85.931333,
        "state_name":"Alabama"
    },
    {
        "id":"5744",
        "displayName":"Theodore Neighborhood Market",
        "type":"STORE",
        "phoneNumber":"251-370-1723",
        "name":"Neighborhood Market",
        "open24Hours":false,
        "street":"7320 Theodore Dawes Rd",
        "city":"Theodore",
        "state":"AL",
        "zip":"36582",
        "geoPoint":{
            "latitude":30.563659,
            "longitude":-88.213981
        },
        "latitude":30.563659,
        "longitude":-88.213981,
        "state_name":"Alabama"
    },
    {
        "id":"1174",
        "displayName":"Thomasville Supercenter",
        "type":"STORE",
        "phoneNumber":"334-636-0219",
        "name":"Walmart Supercenter",
        "open24Hours":false,
        "street":"34301 Highway 43",
        "city":"Thomasville",
        "state":"AL",
        "zip":"36784",
        "geoPoint":{
            "latitude":31.939592,
            "longitude":-87.739498
        },
        "latitude":31.939592,
        "longitude":-87.739498,
        "state_name":"Alabama"
    },
    {
        "id":"723",
        "displayName":"Troy Supercenter",
        "type":"STORE",
        "phoneNumber":"334-566-8012",
        "name":"Walmart Supercenter",
        "open24Hours":false,
        "street":"1420 Highway 231 S",
        "city":"Troy",
        "state":"AL",
        "zip":"36081",
        "geoPoint":{
            "latitude":31.780755,
            "longitude":-85.939323
        },
        "latitude":31.780755,
        "longitude":-85.939323,
        "state_name":"Alabama"
    },
    {
        "id":"2713",
        "displayName":"Birmingham Supercenter",
        "type":"STORE",
        "phoneNumber":"205-661-1957",
        "name":"Walmart Supercenter",
        "open24Hours":false,
        "street":"5919 Trussville Crossings Pkwy",
        "city":"Birmingham",
        "state":"AL",
        "zip":"35235",
        "geoPoint":{
            "latitude":33.639101,
            "longitude":-86.629168
        },
        "latitude":33.639101,
        "longitude":-86.629168,
        "state_name":"Alabama"
    },
    {
        "id":"5256",
        "displayName":"Tuscaloosa Neighborhood Market",
        "type":"STORE",
        "phoneNumber":"205-632-6205",
        "name":"Neighborhood Market",
        "open24Hours":false,
        "street":"4201 Hargrove Rd E",
        "city":"Tuscaloosa",
        "state":"AL",
        "zip":"35405",
        "geoPoint":{
            "latitude":33.169989,
            "longitude":-87.482461
        },
        "latitude":33.169989,
        "longitude":-87.482461,
        "state_name":"Alabama"
    },
    {
        "id":"715",
        "displayName":"Tuscaloosa Supercenter",
        "type":"STORE",
        "phoneNumber":"205-750-0823",
        "name":"Walmart Supercenter",
        "open24Hours":false,
        "street":"1501 Skyland Blvd E",
        "city":"Tuscaloosa",
        "state":"AL",
        "zip":"35405",
        "geoPoint":{
            "latitude":33.165299,
            "longitude":-87.518681
        },
        "latitude":33.165299,
        "longitude":-87.518681,
        "state_name":"Alabama"
    },
    {
        "id":"733",
        "displayName":"Valley Supercenter",
        "type":"STORE",
        "phoneNumber":"334-768-2118",
        "name":"Walmart Supercenter",
        "open24Hours":false,
        "street":"3501 20th Ave",
        "city":"Valley",
        "state":"AL",
        "zip":"36854",
        "geoPoint":{
            "latitude":32.834994,
            "longitude":-85.178765
        },
        "latitude":32.834994,
        "longitude":-85.178765,
        "state_name":"Alabama"
    },
    {
        "id":"4580",
        "displayName":"Vestavia Hills Neighborhood Market",
        "type":"STORE",
        "phoneNumber":"205-822-9994",
        "name":"Neighborhood Market",
        "open24Hours":false,
        "street":"1300 Montgomery Hwy",
        "city":"Vestavia Hills",
        "state":"AL",
        "zip":"35216",
        "geoPoint":{
            "latitude":33.42864,
            "longitude":-86.791822
        },
        "latitude":33.42864,
        "longitude":-86.791822,
        "state_name":"Alabama"
    },
    {
        "id":"1101",
        "displayName":"Wetumpka Supercenter",
        "type":"STORE",
        "phoneNumber":"334-567-3066",
        "name":"Walmart Supercenter",
        "open24Hours":false,
        "street":"4538 Us Highway 231",
        "city":"Wetumpka",
        "state":"AL",
        "zip":"36092",
        "geoPoint":{
            "latitude":32.507362,
            "longitude":-86.212189
        },
        "latitude":32.507362,
        "longitude":-86.212189,
        "state_name":"Alabama"
    },
    {
        "id":"362",
        "displayName":"Winfield Supercenter",
        "type":"STORE",
        "phoneNumber":"205-487-4359",
        "name":"Walmart Supercenter",
        "open24Hours":false,
        "street":"2575 Us Highway 43",
        "city":"Winfield",
        "state":"AL",
        "zip":"35594",
        "geoPoint":{
            "latitude":33.935256,
            "longitude":-87.840529
        },
        "latitude":33.935256,
        "longitude":-87.840529,
        "state_name":"Alabama"
    },
    {
        "id":"358",
        "displayName":"Alma Supercenter",
        "type":"STORE",
        "phoneNumber":"479-632-4585",
        "name":"Walmart Supercenter",
        "open24Hours":false,
        "street":"367 W Cherry St",
        "city":"Alma",
        "state":"AR",
        "zip":"72921",
        "geoPoint":{
            "latitude":35.479122,
            "longitude":-94.228792
        },
        "latitude":35.479122,
        "longitude":-94.228792,
        "state_name":"Arkansas"
    },
    {
        "id":"318",
        "displayName":"Arkadelphia Supercenter",
        "type":"STORE",
        "phoneNumber":"870-246-2459",
        "name":"Walmart Supercenter",
        "open24Hours":false,
        "street":"109 Wp Malone Dr",
        "city":"Arkadelphia",
        "state":"AR",
        "zip":"71923",
        "geoPoint":{
            "latitude":34.119874,
            "longitude":-93.096562
        },
        "latitude":34.119874,
        "longitude":-93.096562,
        "state_name":"Arkansas"
    },
    {
        "id":"160",
        "displayName":"Ash Flat Supercenter",
        "type":"STORE",
        "phoneNumber":"870-994-7520",
        "name":"Walmart Supercenter",
        "open24Hours":false,
        "street":"219 Highway 412",
        "city":"Ash Flat",
        "state":"AR",
        "zip":"72513",
        "geoPoint":{
            "latitude":36.241189,
            "longitude":-91.596294
        },
        "latitude":36.241189,
        "longitude":-91.596294,
        "state_name":"Arkansas"
    },
    {
        "id":"133",
        "displayName":"Ashdown Supercenter",
        "type":"STORE",
        "phoneNumber":"870-898-5126",
        "name":"Walmart Supercenter",
        "open24Hours":false,
        "street":"297 Hwy 32 By-pass E",
        "city":"Ashdown",
        "state":"AR",
        "zip":"71822",
        "geoPoint":{
            "latitude":33.657021,
            "longitude":-94.109289
        },
        "latitude":33.657021,
        "longitude":-94.109289,
        "state_name":"Arkansas"
    },
    {
        "id":"119",
        "displayName":"Batesville Supercenter",
        "type":"STORE",
        "phoneNumber":"870-793-9004",
        "name":"Walmart Supercenter",
        "open24Hours":false,
        "street":"3150 Harrison St",
        "city":"Batesville",
        "state":"AR",
        "zip":"72501",
        "geoPoint":{
            "latitude":35.762726,
            "longitude":-91.614251
        },
        "latitude":35.762726,
        "longitude":-91.614251,
        "state_name":"Arkansas"
    },
    {
        "id":"4168",
        "displayName":"Beebe Supercenter",
        "type":"STORE",
        "phoneNumber":"501-882-1017",
        "name":"Walmart Supercenter",
        "open24Hours":false,
        "street":"2003 W Center St",
        "city":"Beebe",
        "state":"AR",
        "zip":"72012",
        "geoPoint":{
            "latitude":35.065651,
            "longitude":-91.905412
        },
        "latitude":35.065651,
        "longitude":-91.905412,
        "state_name":"Arkansas"
    },
    {
        "id":"85",
        "displayName":"Benton Supercenter",
        "type":"STORE",
        "phoneNumber":"501-860-6135",
        "name":"Walmart Supercenter",
        "open24Hours":false,
        "street":"17309 Interstate 30 S",
        "city":"Benton",
        "state":"AR",
        "zip":"72015",
        "geoPoint":{
            "latitude":34.577512,
            "longitude":-92.580185
        },
        "latitude":34.577512,
        "longitude":-92.580185,
        "state_name":"Arkansas"
    },
    {
        "id":"2203",
        "displayName":"Bentonville Pharmacy",
        "type":"STORE",
        "phoneNumber":"479-273-4941",
        "name":"Clinic Pharmacy",
        "open24Hours":false,
        "street":"702 Sw 8th St Pharmacy",
        "city":"Bentonville",
        "state":"AR",
        "zip":"72712",
        "geoPoint":{
            "latitude":36.364942,
            "longitude":-94.216923
        },
        "latitude":36.364942,
        "longitude":-94.216923,
        "state_name":"Arkansas"
    },
    {
        "id":"7368",
        "displayName":"Bentonville Gas Station",
        "type":"STORE",
        "phoneNumber":"479-271-2209",
        "name":"Convenience with Fuel",
        "open24Hours":false,
        "street":"1300 S Walton Blvd",
        "city":"Bentonville",
        "state":"AR",
        "zip":"72712",
        "geoPoint":{
            "latitude":36.357486,
            "longitude":-94.214669
        },
        "latitude":36.357486,
        "longitude":-94.214669,
        "state_name":"Arkansas"
    },
    {
        "id":"2686",
        "displayName":"Bentonville Neighborhood Market",
        "type":"STORE",
        "phoneNumber":"479-418-0227",
        "name":"Neighborhood Market",
        "open24Hours":false,
        "street":"1703 E Central Ave",
        "city":"Bentonville",
        "state":"AR",
        "zip":"72712",
        "geoPoint":{
            "latitude":36.372272,
            "longitude":-94.189048
        },
        "latitude":36.372272,
        "longitude":-94.189048,
        "state_name":"Arkansas"
    },
    {
        "id":"2741",
        "displayName":"Bentonville Neighborhood Market",
        "type":"STORE",
        "phoneNumber":"479-621-6450",
        "name":"Neighborhood Market",
        "open24Hours":false,
        "street":"3510 Se 14th St",
        "city":"Bentonville",
        "state":"AR",
        "zip":"72712",
        "geoPoint":{
            "latitude":36.354293,
            "longitude":-94.171088
        },
        "latitude":36.354293,
        "longitude":-94.171088,
        "state_name":"Arkansas"
    },
    {
        "id":"3164",
        "displayName":"Bentonville Neighborhood Market",
        "type":"STORE",
        "phoneNumber":"479-268-9244",
        "name":"Neighborhood Market",
        "open24Hours":false,
        "street":"205 North Main Street",
        "city":"Bentonville",
        "state":"AR",
        "zip":"72712",
        "geoPoint":{
            "latitude":36.373679,
            "longitude":-94.209149
        },
        "latitude":36.373679,
        "longitude":-94.209149,
        "state_name":"Arkansas"
    },
    {
        "id":"4376",
        "displayName":"Bentonville Neighborhood Market",
        "type":"STORE",
        "phoneNumber":"479-268-9829",
        "name":"Neighborhood Market",
        "open24Hours":false,
        "street":"1400 N Walton Blvd",
        "city":"Bentonville",
        "state":"AR",
        "zip":"72712",
        "geoPoint":{
            "latitude":36.389152,
            "longitude":-94.219316
        },
        "latitude":36.389152,
        "longitude":-94.219316,
        "state_name":"Arkansas"
    },
    {
        "id":"4686",
        "displayName":"Bentonville Neighborhood Market",
        "type":"STORE",
        "phoneNumber":"479-268-7678",
        "name":"Neighborhood Market",
        "open24Hours":false,
        "street":"906 Sw Regional Airport Blvd",
        "city":"Bentonville",
        "state":"AR",
        "zip":"72712",
        "geoPoint":{
            "latitude":36.337252,
            "longitude":-94.223909
        },
        "latitude":36.337252,
        "longitude":-94.223909,
        "state_name":"Arkansas"
    },
    {
        "id":"100",
        "displayName":"Bentonville Supercenter",
        "type":"STORE",
        "phoneNumber":"479-273-0060",
        "name":"Walmart Supercenter",
        "open24Hours":false,
        "street":"406 S Walton Blvd",
        "city":"Bentonville",
        "state":"AR",
        "zip":"72712",
        "geoPoint":{
            "latitude":36.368173,
            "longitude":-94.224844
        },
        "latitude":36.368173,
        "longitude":-94.224844,
        "state_name":"Arkansas"
    },
    {
        "id":"76",
        "displayName":"Berryville Supercenter",
        "type":"STORE",
        "phoneNumber":"870-423-4636",
        "name":"Walmart Supercenter",
        "open24Hours":false,
        "street":"1000 W Trimble Ave",
        "city":"Berryville",
        "state":"AR",
        "zip":"72616",
        "geoPoint":{
            "latitude":36.376273,
            "longitude":-93.587015
        },
        "latitude":36.376273,
        "longitude":-93.587015,
        "state_name":"Arkansas"
    },
    {
        "id":"62",
        "displayName":"Blytheville Supercenter",
        "type":"STORE",
        "phoneNumber":"870-763-0440",
        "name":"Walmart Supercenter",
        "open24Hours":false,
        "street":"3700 E Highway 18",
        "city":"Blytheville",
        "state":"AR",
        "zip":"72315",
        "geoPoint":{
            "latitude":35.931101,
            "longitude":-89.872276
        },
        "latitude":35.931101,
        "longitude":-89.872276,
        "state_name":"Arkansas"
    },
    {
        "id":"55",
        "displayName":"Booneville Supercenter",
        "type":"STORE",
        "phoneNumber":"479-675-3688",
        "name":"Walmart Supercenter",
        "open24Hours":false,
        "street":"1400 East Main St",
        "city":"Booneville",
        "state":"AR",
        "zip":"72927",
        "geoPoint":{
            "latitude":35.139838,
            "longitude":-93.902656
        },
        "latitude":35.139838,
        "longitude":-93.902656,
        "state_name":"Arkansas"
    },
    {
        "id":"3230",
        "displayName":"Bryant Supercenter",
        "type":"STORE",
        "phoneNumber":"501-847-2857",
        "name":"Walmart Supercenter",
        "open24Hours":false,
        "street":"400 Bryant Ave",
        "city":"Bryant",
        "state":"AR",
        "zip":"72022",
        "geoPoint":{
            "latitude":34.624163,
            "longitude":-92.494462
        },
        "latitude":34.624163,
        "longitude":-92.494462,
        "state_name":"Arkansas"
    },
    {
        "id":"6975",
        "displayName":"Cabot Neighborhood Market",
        "type":"STORE",
        "phoneNumber":"501-628-9200",
        "name":"Neighborhood Market",
        "open24Hours":false,
        "street":"1203 S Pine St",
        "city":"Cabot",
        "state":"AR",
        "zip":"72023",
        "geoPoint":{
            "latitude":34.953376,
            "longitude":-92.006983
        },
        "latitude":34.953376,
        "longitude":-92.006983,
        "state_name":"Arkansas"
    },
    {
        "id":"2587",
        "displayName":"Cabot Supercenter",
        "type":"STORE",
        "phoneNumber":"501-941-5200",
        "name":"Walmart Supercenter",
        "open24Hours":false,
        "street":"304 S Rockwood Dr",
        "city":"Cabot",
        "state":"AR",
        "zip":"72023",
        "geoPoint":{
            "latitude":34.976507,
            "longitude":-92.040706
        },
        "latitude":34.976507,
        "longitude":-92.040706,
        "state_name":"Arkansas"
    },
    {
        "id":"171",
        "displayName":"Camden Supercenter",
        "type":"STORE",
        "phoneNumber":"870-836-8000",
        "name":"Walmart Supercenter",
        "open24Hours":false,
        "street":"950 California Ave Sw",
        "city":"Camden",
        "state":"AR",
        "zip":"71701",
        "geoPoint":{
            "latitude":33.567226,
            "longitude":-92.836826
        },
        "latitude":33.567226,
        "longitude":-92.836826,
        "state_name":"Arkansas"
    },
    {
        "id":"6953",
        "displayName":"Centerton Neighborhood Market",
        "type":"STORE",
        "phoneNumber":"479-795-4100",
        "name":"Neighborhood Market",
        "open24Hours":false,
        "street":"1800 E Centerton Blvd",
        "city":"Centerton",
        "state":"AR",
        "zip":"72712",
        "geoPoint":{
            "latitude":36.358878,
            "longitude":-94.253026
        },
        "latitude":36.358878,
        "longitude":-94.253026,
        "state_name":"Arkansas"
    },
    {
        "id":"66",
        "displayName":"Clarksville Supercenter",
        "type":"STORE",
        "phoneNumber":"479-754-2046",
        "name":"Walmart Supercenter",
        "open24Hours":false,
        "street":"230 Market St.",
        "city":"Clarksville",
        "state":"AR",
        "zip":"72830",
        "geoPoint":{
            "latitude":35.448688,
            "longitude":-93.460473
        },
        "latitude":35.448688,
        "longitude":-93.460473,
        "state_name":"Arkansas"
    },
    {
        "id":"788",
        "displayName":"Clinton Supercenter",
        "type":"STORE",
        "phoneNumber":"501-745-2498",
        "name":"Walmart Supercenter",
        "open24Hours":false,
        "street":"1966 Highway 65 S",
        "city":"Clinton",
        "state":"AR",
        "zip":"72031",
        "geoPoint":{
            "latitude":35.566853,
            "longitude":-92.454442
        },
        "latitude":35.566853,
        "longitude":-92.454442,
        "state_name":"Arkansas"
    },
    {
        "id":"3168",
        "displayName":"Conway Neighborhood Market",
        "type":"STORE",
        "phoneNumber":"501-205-7262",
        "name":"Neighborhood Market",
        "open24Hours":false,
        "street":"2550 Prince St",
        "city":"Conway",
        "state":"AR",
        "zip":"72034",
        "geoPoint":{
            "latitude":35.094647,
            "longitude":-92.462954
        },
        "latitude":35.094647,
        "longitude":-92.462954,
        "state_name":"Arkansas"
    },
    {
        "id":"5",
        "displayName":"Conway Supercenter",
        "type":"STORE",
        "phoneNumber":"501-329-0023",
        "name":"Walmart Supercenter",
        "open24Hours":false,
        "street":"1155 Hwy 65 North",
        "city":"Conway",
        "state":"AR",
        "zip":"72032",
        "geoPoint":{
            "latitude":35.108595,
            "longitude":-92.437042
        },
        "latitude":35.108595,
        "longitude":-92.437042,
        "state_name":"Arkansas"
    },
    {
        "id":"2575",
        "displayName":"Conway Supercenter",
        "type":"STORE",
        "phoneNumber":"501-328-9570",
        "name":"Walmart Supercenter",
        "open24Hours":false,
        "street":"3900 Dave Ward Dr",
        "city":"Conway",
        "state":"AR",
        "zip":"72034",
        "geoPoint":{
            "latitude":35.072895,
            "longitude":-92.495185
        },
        "latitude":35.072895,
        "longitude":-92.495185,
        "state_name":"Arkansas"
    },
    {
        "id":"167",
        "displayName":"Crossett Supercenter",
        "type":"STORE",
        "phoneNumber":"870-364-2165",
        "name":"Walmart Supercenter",
        "open24Hours":false,
        "street":"910 Unity Rd",
        "city":"Crossett",
        "state":"AR",
        "zip":"71635",
        "geoPoint":{
            "latitude":33.136263,
            "longitude":-91.942183
        },
        "latitude":33.136263,
        "longitude":-91.942183,
        "state_name":"Arkansas"
    },
    {
        "id":"296",
        "displayName":"Dardanelle Supercenter",
        "type":"STORE",
        "phoneNumber":"479-229-2502",
        "name":"Walmart Supercenter",
        "open24Hours":false,
        "street":"1172 N State Highway 7",
        "city":"Dardanelle",
        "state":"AR",
        "zip":"72834",
        "geoPoint":{
            "latitude":35.2179534,
            "longitude":-93.1665787
        },
        "latitude":35.2179534,
        "longitude":-93.1665787,
        "state_name":"Arkansas"
    },
    {
        "id":"279",
        "displayName":"De Queen Supercenter",
        "type":"STORE",
        "phoneNumber":"870-642-2794",
        "name":"Walmart Supercenter",
        "open24Hours":false,
        "street":"926 E Collin Raye Dr",
        "city":"De Queen",
        "state":"AR",
        "zip":"71832",
        "geoPoint":{
            "latitude":34.043619,
            "longitude":-94.319085
        },
        "latitude":34.043619,
        "longitude":-94.319085,
        "state_name":"Arkansas"
    },
    {
        "id":"530",
        "displayName":"El Dorado Supercenter",
        "type":"STORE",
        "phoneNumber":"870-862-2128",
        "name":"Walmart Supercenter",
        "open24Hours":false,
        "street":"2730 N West Ave",
        "city":"El Dorado",
        "state":"AR",
        "zip":"71730",
        "geoPoint":{
            "latitude":33.241937,
            "longitude":-92.668684
        },
        "latitude":33.241937,
        "longitude":-92.668684,
        "state_name":"Arkansas"
    },
    {
        "id":"7242",
        "displayName":"Farmington Neighborhood Market",
        "type":"STORE",
        "phoneNumber":"479-267-0040",
        "name":"Neighborhood Market",
        "open24Hours":false,
        "street":"367 W Main St",
        "city":"Farmington",
        "state":"AR",
        "zip":"72730",
        "geoPoint":{
            "latitude":36.036758,
            "longitude":-94.256232
        },
        "latitude":36.036758,
        "longitude":-94.256232,
        "state_name":"Arkansas"
    },
    {
        "id":"2997",
        "displayName":"Fayetteville Pharmacy",
        "type":"STORE",
        "phoneNumber":"479-443-1588",
        "name":"Clinic Pharmacy",
        "open24Hours":false,
        "street":"616 N Garland Ave Ste 363",
        "city":"Fayetteville",
        "state":"AR",
        "zip":"72701",
        "geoPoint":{
            "latitude":36.073259,
            "longitude":-94.175171
        },
        "latitude":36.073259,
        "longitude":-94.175171,
        "state_name":"Arkansas"
    },
    {
        "id":"2745",
        "displayName":"Fayetteville Neighborhood Market",
        "type":"STORE",
        "phoneNumber":"479-571-6670",
        "name":"Neighborhood Market",
        "open24Hours":false,
        "street":"2690 E Citizens Dr",
        "city":"Fayetteville",
        "state":"AR",
        "zip":"72703",
        "geoPoint":{
            "latitude":36.089525,
            "longitude":-94.123034
        },
        "latitude":36.089525,
        "longitude":-94.123034,
        "state_name":"Arkansas"
    },
    {
        "id":"4516",
        "displayName":"Fayetteville Neighborhood Market",
        "type":"STORE",
        "phoneNumber":"479-435-2009",
        "name":"Neighborhood Market",
        "open24Hours":false,
        "street":"660 W Martin Luther King Jr Blvd",
        "city":"Fayetteville",
        "state":"AR",
        "zip":"72701",
        "geoPoint":{
            "latitude":36.057332,
            "longitude":-94.168638
        },
        "latitude":36.057332,
        "longitude":-94.168638,
        "state_name":"Arkansas"
    },
    {
        "id":"5737",
        "displayName":"Fayetteville Neighborhood Market",
        "type":"STORE",
        "phoneNumber":"479-442-1778",
        "name":"Neighborhood Market",
        "open24Hours":false,
        "street":"3475 W Black Forest Drive",
        "city":"Fayetteville",
        "state":"AR",
        "zip":"72704",
        "geoPoint":{
            "latitude":36.076341,
            "longitude":-94.210117
        },
        "latitude":36.076341,
        "longitude":-94.210117,
        "state_name":"Arkansas"
    },
    {
        "id":"144",
        "displayName":"Fayetteville Supercenter",
        "type":"STORE",
        "phoneNumber":"479-582-0428",
        "name":"Walmart Supercenter",
        "open24Hours":false,
        "street":"2875 W Martin Luther King Blvd",
        "city":"Fayetteville",
        "state":"AR",
        "zip":"72704",
        "geoPoint":{
            "latitude":36.050728,
            "longitude":-94.201344
        },
        "latitude":36.050728,
        "longitude":-94.201344,
        "state_name":"Arkansas"
    },
    {
        "id":"359",
        "displayName":"Fayetteville Supercenter",
        "type":"STORE",
        "phoneNumber":"479-443-7679",
        "name":"Walmart Supercenter",
        "open24Hours":false,
        "street":"3919 No. Mall Ave",
        "city":"Fayetteville",
        "state":"AR",
        "zip":"72703",
        "geoPoint":{
            "latitude":36.122626,
            "longitude":-94.152711
        },
        "latitude":36.122626,
        "longitude":-94.152711,
        "state_name":"Arkansas"
    },
    {
        "id":"1147",
        "displayName":"Flippin Supercenter",
        "type":"STORE",
        "phoneNumber":"870-453-2211",
        "name":"Walmart Supercenter",
        "open24Hours":false,
        "street":"168 Walmart Dr",
        "city":"Flippin",
        "state":"AR",
        "zip":"72634",
        "geoPoint":{
            "latitude":36.275329,
            "longitude":-92.604509
        },
        "latitude":36.275329,
        "longitude":-92.604509,
        "state_name":"Arkansas"
    },
    {
        "id":"339",
        "displayName":"Fordyce Store",
        "type":"STORE",
        "phoneNumber":"870-352-5167",
        "name":"Walmart",
        "open24Hours":false,
        "street":"1123 Highway 79 167 Byp",
        "city":"Fordyce",
        "state":"AR",
        "zip":"71742",
        "geoPoint":{
            "latitude":33.820451,
            "longitude":-92.435508
        },
        "latitude":33.820451,
        "longitude":-92.435508,
        "state_name":"Arkansas"
    },
    {
        "id":"91",
        "displayName":"Forrest City Supercenter",
        "type":"STORE",
        "phoneNumber":"870-633-0021",
        "name":"Walmart Supercenter",
        "open24Hours":false,
        "street":"205 Deadrick Rd",
        "city":"Forrest City",
        "state":"AR",
        "zip":"72335",
        "geoPoint":{
            "latitude":35.028039,
            "longitude":-90.793582
        },
        "latitude":35.028039,
        "longitude":-90.793582,
        "state_name":"Arkansas"
    },
    {
        "id":"2744",
        "displayName":"Fort Smith Neighborhood Market",
        "type":"STORE",
        "phoneNumber":"479-484-9122",
        "name":"Neighborhood Market",
        "open24Hours":false,
        "street":"4900 Rogers Ave Ste 101j",
        "city":"Fort Smith",
        "state":"AR",
        "zip":"72903",
        "geoPoint":{
            "latitude":35.363955,
            "longitude":-94.378731
        },
        "latitude":35.363955,
        "longitude":-94.378731,
        "state_name":"Arkansas"
    },
    {
        "id":"4579",
        "displayName":"Fort Smith Neighborhood Market",
        "type":"STORE",
        "phoneNumber":"479-289-6896",
        "name":"Neighborhood Market",
        "open24Hours":false,
        "street":"8600 Hwy 71 S",
        "city":"Fort Smith",
        "state":"AR",
        "zip":"72908",
        "geoPoint":{
            "latitude":35.303448,
            "longitude":-94.394716
        },
        "latitude":35.303448,
        "longitude":-94.394716,
        "state_name":"Arkansas"
    },
    {
        "id":"125",
        "displayName":"Fort Smith Supercenter",
        "type":"STORE",
        "phoneNumber":"479-646-6382",
        "name":"Walmart Supercenter",
        "open24Hours":false,
        "street":"2425 S Zero St",
        "city":"Fort Smith",
        "state":"AR",
        "zip":"72901",
        "geoPoint":{
            "latitude":35.329176,
            "longitude":-94.406411
        },
        "latitude":35.329176,
        "longitude":-94.406411,
        "state_name":"Arkansas"
    },
    {
        "id":"141",
        "displayName":"Fort Smith Supercenter",
        "type":"STORE",
        "phoneNumber":"479-484-5205",
        "name":"Walmart Supercenter",
        "open24Hours":false,
        "street":"8301 Rogers Ave",
        "city":"Fort Smith",
        "state":"AR",
        "zip":"72903",
        "geoPoint":{
            "latitude":35.350045,
            "longitude":-94.338946
        },
        "latitude":35.350045,
        "longitude":-94.338946,
        "state_name":"Arkansas"
    },
    {
        "id":"388",
        "displayName":"Fort Smith Supercenter",
        "type":"STORE",
        "phoneNumber":"479-785-5964",
        "name":"Walmart Supercenter",
        "open24Hours":false,
        "street":"2100 N 62nd St",
        "city":"Fort Smith",
        "state":"AR",
        "zip":"72904",
        "geoPoint":{
            "latitude":35.399808,
            "longitude":-94.363097
        },
        "latitude":35.399808,
        "longitude":-94.363097,
        "state_name":"Arkansas"
    },
    {
        "id":"7317",
        "displayName":"Greenbrier Neighborhood Market",
        "type":"STORE",
        "phoneNumber":"501-287-6001",
        "name":"Neighborhood Market",
        "open24Hours":false,
        "street":"75 South Broadview",
        "city":"Greenbrier",
        "state":"AR",
        "zip":"72058",
        "geoPoint":{
            "latitude":35.225788,
            "longitude":-92.389561
        },
        "latitude":35.225788,
        "longitude":-92.389561,
        "state_name":"Arkansas"
    },
    {
        "id":"3231",
        "displayName":"Greenwood Supercenter",
        "type":"STORE",
        "phoneNumber":"479-996-8500",
        "name":"Walmart Supercenter",
        "open24Hours":false,
        "street":"551 Liberty Dr",
        "city":"Greenwood",
        "state":"AR",
        "zip":"72936",
        "geoPoint":{
            "latitude":35.220709,
            "longitude":-94.296655
        },
        "latitude":35.220709,
        "longitude":-94.296655,
        "state_name":"Arkansas"
    },
    {
        "id":"2",
        "displayName":"Harrison Supercenter",
        "type":"STORE",
        "phoneNumber":"870-365-8400",
        "name":"Walmart Supercenter",
        "open24Hours":false,
        "street":"161 N Walmart Dr",
        "city":"Harrison",
        "state":"AR",
        "zip":"72601",
        "geoPoint":{
            "latitude":36.268968,
            "longitude":-93.139134
        },
        "latitude":36.268968,
        "longitude":-93.139134,
        "state_name":"Arkansas"
    },
    {
        "id":"281",
        "displayName":"Heber Spgs Supercenter",
        "type":"STORE",
        "phoneNumber":"501-362-8188",
        "name":"Walmart Supercenter",
        "open24Hours":false,
        "street":"1500 Hwy 25b",
        "city":"Heber Spgs",
        "state":"AR",
        "zip":"72543",
        "geoPoint":{
            "latitude":35.507372,
            "longitude":-92.032141
        },
        "latitude":35.507372,
        "longitude":-92.032141,
        "state_name":"Arkansas"
    },
    {
        "id":"714",
        "displayName":"Helena-west Helena Supercenter",
        "type":"STORE",
        "phoneNumber":"870-572-2442",
        "name":"Walmart Supercenter",
        "open24Hours":false,
        "street":"602 Shelia Street",
        "city":"Helena-west Helena",
        "state":"AR",
        "zip":"72390",
        "geoPoint":{
            "latitude":34.555517,
            "longitude":-90.65063
        },
        "latitude":34.555517,
        "longitude":-90.65063,
        "state_name":"Arkansas"
    },
    {
        "id":"1065",
        "displayName":"Hope Supercenter",
        "type":"STORE",
        "phoneNumber":"870-777-5500",
        "name":"Walmart Supercenter",
        "open24Hours":false,
        "street":"2400 N Hervey St",
        "city":"Hope",
        "state":"AR",
        "zip":"71801",
        "geoPoint":{
            "latitude":33.680862,
            "longitude":-93.614652
        },
        "latitude":33.680862,
        "longitude":-93.614652,
        "state_name":"Arkansas"
    },