store_id,street,city,state,zip,phone,url,latitude,longitude,state_name
2642,300 20th St S,Birmingham,AL,35233,(205) 326-8572,al/birmingham/300-20th-st-s,33.509721495414745,-86.80275567068401,Alabama
2894,3220 Morrow Rd,Birmingham,AL,35235,(205) 655-3734,al/birmingham/3220-morrow-rd,33.59558141391436,-86.64743684970284,Alabama
1131,4719 Highway 280,Birmingham,AL,35242,(205) 991-4846,al/birmingham/4719-highway-280,33.42258214624579,-86.69827946502971,Alabama
,5342 Highway 280,Birmingham,AL,35242,(659) 272-0321,al/birmingham/5342-highway-280,33.4190918,-86.6744839,Alabama
3605,1051 Amber Dr,Hoover,AL,35244,(205) 203-1028,al/hoover/1051-amber-dr,33.3785141,-86.82327269999999,Alabama
941,1759 Montgomery Hwy,Hoover,AL,35244,(205) 982-4833,al/hoover/1759-montgomery-hwy,33.37895802956859,-86.80380210088629,Alabama
,101 Outfield Dr,Madison,AL,35758,(256) 617-5312,al/madison/101-outfield-dr,34.684399,-86.717916,Alabama
3539,8294 Highway 72 W,Madison,AL,35758,(256) 929-6632,al/madison/8294-highway-72-w,34.750647294909975,-86.7611874285552,Alabama
2205,3871 Airport Blvd,Mobile,AL,36608,(251) 206-6548,al/mobile/3871-airport-blvd,30.675337809949887,-88.143753929995,Alabama
3029,7765 Airport Blvd,Mobile,AL,36608,(251) 639-9241,al/mobile/7765-airport-blvd,30.682695916631477,-88.22501248665195,Alabama
2054,1203 University Blvd,Tuscaloosa,AL,35401,(205) 391-2121,al/tuscaloosa/1203-university-blvd,33.21066866513092,-87.55362088910408,Alabama
989,1800 McFarland Blvd E,Tuscaloosa,AL,35404,(205) 391-0140,al/tuscaloosa/1800-mcfarland-blvd-e,33.19676916228953,-87.52703202203561,Alabama
,1055 W Chandler Blvd,Chandler,AZ,85224,(602) 742-3574,az/chandler/1055-w-chandler-blvd,33.30549462745462,-111.86011763369193,Arizona
742,2895 S Alma School Rd,Chandler,AZ,85286,(480) 786-1122,az/chandler/2895-s-alma-school-rd,33.2639222376452,-111.85726059752221,Arizona
1718,3395 W Chandler Blvd,Chandler,AZ,85226,(480) 499-2884,az/chandler/3395-w-chandler-blvd,33.30528109389568,-111.89998219286281,Arizona
26,890 N 54th St,Chandler,AZ,85226,(480) 783-0200,az/chandler/890-n-54th-st,33.317420390822654,-111.96882761900793,Arizona
1542,1111 S Plaza Way,Flagstaff,AZ,86001,(928) 774-4254,az/flagstaff/1111-s-plaza-way,35.18986,-111.661643,Arizona
3569,4409 N US Highway 89,Flagstaff,AZ,86004,(928) 433-3844,az/flagstaff/4409-n-us-highway-89,35.22332797052031,-111.58526951285657,Arizona
305,1084 S Gilbert Rd,Gilbert,AZ,85296,(480) 892-8307,az/gilbert/1084-s-gilbert-rd,33.32988022270755,-111.79089592376448,Arizona
658,1546 N Cooper Rd,Gilbert,AZ,85233,(480) 632-1875,az/gilbert/1546-n-cooper-rd,33.37792420216465,-111.80763961039872,Arizona
1798,2224 E Williams Field Rd,Gilbert,AZ,85295,(602) 429-2162,az/gilbert/2224-e-williams-field-rd,33.30783135227586,-111.74280506193034,Arizona
699,3757 S Gilbert Rd,Gilbert,AZ,85297,(480) 963-8585,az/gilbert/3757-s-gilbert-rd,33.28188695150705,-111.78889024926309,Arizona
,3785 S Val Vista Dr,Gilbert,AZ,85297,(928) 701-6051,az/gilbert/3785-s-val-vista-dr,33.28174926610554,-111.75468798648177,Arizona
1768,20004 N 67th Ave,Glendale,AZ,85308,(623) 240-1289,az/glendale/20004-n-67th-ave,33.66586688567123,-112.20341053026442,Arizona
1448,5849 W Northern Ave,Glendale,AZ,85301,(623) 215-0173,az/glendale/5849-w-northern-ave,33.552412562708156,-112.18544568239622,Arizona
86,5880 W Thunderbird Rd,Glendale,AZ,85306,(602) 504-2776,az/glendale/5880-w-thunderbird-rd,33.61131275531313,-112.18452254968548,Arizona
1917,7700 W Arrowhead Towne Ctr,Glendale,AZ,85308,(623) 240-2694,az/glendale/7700-w-arrowhead-towne-ctr,33.641830668399315,-112.22529981458467,Arizona
,9405 W Glendale Ave,Glendale,AZ,85305,(623) 239-4906,az/glendale/9405-w-glendale-ave,33.53689036221647,-112.26094486330905,Arizona
542,1560 N Litchfield Rd,Goodyear,AZ,85395,(623) 536-0025,az/goodyear/1560-n-litchfield-rd,33.463806634713315,-112.35866282944778,Arizona
,655 S Cotton Ln,Goodyear,AZ,85338,(602) 601-2987,az/goodyear/655-s-cotton-ln,33.4394938,-112.4268431,Arizona
3287,1229 E McKellips Rd,Mesa,AZ,85203,(480) 833-6547,az/mesa/1229-e-mckellips-rd,33.451019327889625,-111.80313939936569,Arizona
2535,1335 S Alma School Rd,Mesa,AZ,85210,(480) 833-0717,az/mesa/1335-s-alma-school-rd,33.38960599017438,-111.85682718956662,Arizona
3147,1411 S Power Rd,Mesa,AZ,85206,(480) 807-0477,az/mesa/1411-s-power-rd,33.38985461122482,-111.68395069882871,Arizona
1764,1955 S Signal Butte Rd,Mesa,AZ,85209,(480) 499-9636,az/mesa/1955-s-signal-butte-rd,33.37942481813418,-111.60094897883607,Arizona
1821,2849 N Power Rd,Mesa,AZ,85215,(480) 265-4916,az/mesa/2849-n-power-rd,33.46790531239631,-111.68346853282071,Arizona
1710,3440 E Baseline Rd,Mesa,AZ,85204,(480) 822-6622,az/mesa/3440-e-baseline-rd,33.37966761390607,-111.75581290980438,Arizona
698,4984 S Power Rd,Mesa,AZ,85212,(480) 988-6935,az/mesa/4984-s-power-rd,33.32550687825606,-111.6875981837469,Arizona
4189,9259 E. Ray Road,Mesa,AZ,85212,(480) 520-6775,az/mesa/9259-e-ray-road,33.3214659,-111.6321079,Arizona
734,16680 N 83rd Ave,Peoria,AZ,85382,(623) 487-1907,az/peoria/16680-n-83rd-ave,33.63626807976065,-112.23411100604244,Arizona
,28576 N El Mirage Rd,Peoria,AZ,85383,(602) 669-9476,az/peoria/28576-n-el-mirage-rd,33.74181955217287,-112.32317113119414,Arizona
916,9940 W Happy Valley Pkwy,Peoria,AZ,85383,(623) 362-1252,az/peoria/9940-w-happy-valley-pkwy,33.711451,-112.273128,Arizona
1684,11 W Washington St,Phoenix,AZ,85003,(602) 513-5751,az/phoenix/11-w-washington-st,33.44810001399615,-112.07450891917203,Arizona
1726,1515 N 7th Ave,Phoenix,AZ,85007,(602) 314-8127,az/phoenix/1515-n-7th-ave,33.46554843258087,-112.0823849754916,Arizona
543,1660 E Camelback Rd,Phoenix,AZ,85016,(602) 274-4455,az/phoenix/1660-e-camelback-rd,33.51037506402035,-112.04622043510204,Arizona
2531,16635 N Tatum Blvd,Phoenix,AZ,85032,(602) 992-0432,az/phoenix/16635-n-tatum-blvd,33.63818544112361,-111.97738650921002,Arizona
3399,1818 W Bethany Home Rd,Phoenix,AZ,85015,(623) 207-7338,az/phoenix/1818-w-bethany-home-rd,33.5243797,-112.0986855,Arizona
,1838 W Baseline Rd,Phoenix,AZ,85041,(480) 520-4470,az/phoenix/1838-w-baseline-rd,33.3777629,-112.0975448,Arizona
2853,21001 N Tatum Blvd,Phoenix,AZ,85050,(480) 473-5019,az/phoenix/21001-n-tatum-blvd,33.67474793839745,-111.97526479938048,Arizona
1079,2415 E Baseline Rd,Phoenix,AZ,85042,(602) 283-9500,az/phoenix/2415-e-baseline-rd,33.37724065500963,-112.02990183545892,Arizona
3306,2450 W Bell Rd,Phoenix,AZ,85023,(602) 354-3877,az/phoenix/2450-w-bell-rd,33.640372836488105,-112.1122786414017,Arizona
1119,2470 W Happy Valley Rd,Phoenix,AZ,85085,(623) 215-0900,az/phoenix/2470-w-happy-valley-rd,33.714789543328116,-112.11303150518675,Arizona
2314,3009 W Agua Fria Fwy,Phoenix,AZ,85027,(480) 285-0923,az/phoenix/3009-w-agua-fria-fwy,33.66665768531911,-112.12322165701374,Arizona
253,3039 W Peoria Ave,Phoenix,AZ,85029,(602) 944-5060,az/phoenix/3039-w-peoria-ave,33.581530994407736,-112.12515731554271,Arizona
2973,3125 E Indian School Rd,Phoenix,AZ,85016,(602) 957-5080,az/phoenix/3125-e-indian-school-rd,33.49495085405304,-112.01463337627501,Arizona
,3185 E Bell Rd,Phoenix,AZ,85032,(480) 618-4174,az/phoenix/3185-e-bell-rd,33.63859900338824,-111.99906302367391,Arizona
2859,4111 E Chandler Blvd,Phoenix,AZ,85048,(480) 759-4820,az/phoenix/4111-e-chandler-blvd,33.30479751662666,-111.99361395337297,Arizona
1450,425 E Bell Rd,Phoenix,AZ,85022,(602) 441-0740,az/phoenix/425-e-bell-rd,33.63993406534886,-112.06746827976605,Arizona
41,4423 E. Thomas Road,Phoenix,AZ,85018,(602) 522-2394,az/phoenix/4423-e-thomas-road,33.47971018719496,-111.98621165153793,Arizona
1595,4622 E Cactus Rd,Phoenix,AZ,85032,(602) 283-3941,az/phoenix/4622-e-cactus-rd,33.59949685496199,-111.98174381043337,Arizona
3170,4705 E Broadway Rd,Phoenix,AZ,85040,(602) 431-1645,az/phoenix/4705-e-broadway-rd,33.406421,-111.979649,Arizona
2808,52 E Camelback Road,Phoenix,AZ,85012,(602) 200-9416,az/phoenix/52-e-camelback-road,33.50968977590201,-112.07169147254652,Arizona
1767,7427 W Thomas Rd,Phoenix,AZ,85033,(623) 240-1662,az/phoenix/7427-w-thomas-rd,33.479676480750506,-112.21983422329617,Arizona
,170 W Ocotillo,Queen Creek,AZ,85140,(480) 903-5286,az/queen-creek/170-w-ocotillo,33.249137,-111.567125,Arizona
1163,21172 S Ellsworth Loop Rd,Queen Creek,AZ,85142,(480) 214-9200,az/queen-creek/21172-s-ellsworth-loop-rd,33.256185336370194,-111.63888845969365,Arizona
2478,11015 N Scottsdale Rd,Scottsdale,AZ,85254,(480) 951-4555,az/scottsdale/11015-n-scottsdale-rd,33.58595737304114,-111.92558185222026,Arizona
357,15035 N Thompson Peak Pkwy,Scottsdale,AZ,85260,(480) 661-5650,az/scottsdale/15035-n-thompson-peak-pkwy,33.622401247673174,-111.873954738914,Arizona
444,15425 N Scottsdale Rd,Scottsdale,AZ,85254,(480) 367-1218,az/scottsdale/15425-n-scottsdale-rd,33.6262957,-111.9248201,Arizona
2029,20851 N Scottsdale Rd,Scottsdale,AZ,85255,(480) 397-4092,az/scottsdale/20851-n-scottsdale-rd,33.67624139841698,-111.92401394661744,Arizona
1977,2805 N Scottsdale Rd,Scottsdale,AZ,85257,(480) 404-6296,az/scottsdale/2805-n-scottsdale-rd,33.479336912764616,-111.92576791791788,Arizona
1301,4513 N Scottsdale Rd,Scottsdale,AZ,85251,(480) 684-1090,az/scottsdale/4513-n-scottsdale-rd,33.50337052422998,-111.92569464601536,Arizona
2624,7014 E Camelback Rd,Scottsdale,AZ,85251,(480) 941-4786,az/scottsdale/7014-e-camelback-rd,33.50399472511519,-111.92985740478647,Arizona
1625,9010 E Talking Stick Way,Scottsdale,AZ,85250,(480) 270-5370,az/scottsdale/9010-e-talking-stick-way,33.5386903,-111.8876449,Arizona
45,9301 E Shea Blvd,Scottsdale,AZ,85260,(480) 860-6901,az/scottsdale/9301-e-shea-blvd,33.58028500000003,-111.88103432944774,Arizona
898,13869 W Bell Rd,Surprise,AZ,85374,(623) 544-2363,az/surprise/13869-w-bell-rd,33.63829071307527,-112.3590925355993,Arizona
,16810 W Waddell Rd,Surprise,AZ,85388,(623) 265-6570,az/surprise/16810-w-waddell-rd,33.61048202336274,-112.42057356588008,Arizona
1208,1038 S Mill Ave,Tempe,AZ,85281,(480) 273-8800,az/tempe/1038-s-mill-ave,33.41798133570578,-111.94040165583704,Arizona
3457,1655 W Elliot Rd,Tempe,AZ,85284,(623) 231-3098,az/tempe/1655-w-elliot-rd,33.348634,-111.965379,Arizona
744,2000 E Rio Salado Pkwy,Tempe,AZ,85288,(480) 829-0600,az/tempe/2000-e-rio-salado-pkwy,33.43397487875809,-111.90131958046948,Arizona
2628,2020 E Elliot Rd,Tempe,AZ,85284,(480) 491-2569,az/tempe/2020-e-elliot-rd,33.3497932916613,-111.9014793061342,Arizona
1322,815 E Baseline Rd,Tempe,AZ,85283,(480) 214-2122,az/tempe/815-e-baseline-rd,33.37791758045822,-111.92908496080338,Arizona
3043,1202 W Irvington Rd,Tucson,AZ,85714,(520) 294-0059,az/tucson/1202-w-irvington-rd,32.16395431844095,-110.9896125263815,Arizona
,1903 E Speedway Blvd,Tucson,AZ,85719,(520) 302-4250,az/tucson/1903-e-speedway-blvd,32.236527850280545,-110.94345887360345,Arizona
668,235 W Wetmore Rd,Tucson,AZ,85705,(520) 888-0444,az/tucson/235-w-wetmore-rd,32.286187017960835,-110.97557047489722,Arizona
421,3055 N Campbell Ave,Tucson,AZ,85719,(520) 325-1261,az/tucson/3055-n-campbell-ave,32.262380049822575,-110.94409368921954,Arizona
,3510 S. Kino Parkway,Tucson,AZ,85713,(520) 999-3100,az/tucson/3510-s-kino-parkway,32.18390973113682,-110.94501867350414,Arizona
,4857 E Grant Rd,Tucson,AZ,85712,(520) 910-0932,az/tucson/4857-e-grant-rd,32.25177128286577,-110.89006690858098,Arizona
,5353 E Broadway Blvd,Tucson,AZ,85711,(520) 675-0484,az/tucson/5353-e-broadway-blvd,32.222638975945905,-110.87664834462115,Arizona
2400,6501 E Grant Rd,Tucson,AZ,85715,(520) 296-1163,az/tucson/6501-e-grant-rd,32.25026412653463,-110.85154298893758,Arizona
372,7555 N La Cholla Blvd,Tucson,AZ,85741,(520) 544-3868,az/tucson/7555-n-la-cholla-blvd,32.343577682700435,-111.0133044276954,Arizona
116,905 E University Blvd,Tucson,AZ,85719,(520) 628-7967,az/tucson/905-e-university-blvd,32.231921707186025,-110.95746181562401,Arizona
2118,9484 E 22nd St,Tucson,AZ,85710,(520) 203-0004,az/tucson/9484-e-22nd-st,32.20596149006868,-110.79014354983957,Arizona
1662,1525 S Yuma Palms Pkwy,Yuma,AZ,85365,(928) 783-3044,az/yuma/1525-s-yuma-palms-pkwy,32.69978529949036,-114.60102888404407,Arizona
3374,3080 S 4th Avenue,Yuma,AZ,85364,(928) 257-1776,az/yuma/3080-s-4th-avenue,32.699878140781735,-114.60100324176364,Arizona
2458,3379 N College Ave,Fayetteville,AR,72703,(479) 251-1175,ar/fayetteville/3379-n-college-ave,36.11273654734074,-94.14538540335559,Arkansas
1603,550 W Dickson St,Fayetteville,AR,72701,(479) 444-1466,ar/fayetteville/550-w-dickson-st,36.066736703377906,-94.16612579287357,Arkansas
2057,100 S University Ave,Little Rock,AR,72205,(501) 404-2557,ar/little-rock/100-s-university-ave,34.75201036980043,-92.34153181349183,Arkansas
1632,11525 Cantrell Rd,Little Rock,AR,72212,(501) 221-0018,ar/little-rock/11525-cantrell-rd,34.793543504482834,-92.40281714293958,Arkansas
,12524 Chenal Pkwy,Little Rock,AR,72211,(501) 451-6783,ar/little-rock/12524-chenal-pkwy,34.75374197773934,-92.41274805453453,Arkansas
1206,2314 S Shore Ctr,Alameda,CA,94501,(510) 337-1592,ca/alameda/2314-s-shore-ctr,37.756040876734254,-122.25041514023036,California
2384,2610 5th St,Alameda,CA,94501,(510) 748-8949,ca/alameda/2610-5th-st,37.78614100776162,-122.28120659723874,California
2619,2002 E Lincoln Ave,Anaheim,CA,92806,(714) 991-1160,ca/anaheim/2002-e-lincoln-ave,33.83957989941753,-117.88867467392521,California
3697,2085 E Katella Ave,Anaheim,CA,92806,(657) 223-8051,ca/anaheim/2085-e-katella-ave,33.804139166756975,-117.88643166539222,California
1924,5631 E La Palma Ave,Anaheim,CA,92807,(714) 693-0882,ca/anaheim/5631-e-la-palma-ave,33.860569750992006,-117.79228294204808,California
111,8182 E Santa Ana Canyon Rd,Anaheim,CA,92808,(714) 283-3092,ca/anaheim/8182-e-santa-ana-canyon-rd,33.86802786130575,-117.74815098742596,California
2062,927 S Euclid St,Anaheim,CA,92802,(657) 549-6350,ca/anaheim/927-s-euclid-st,33.81873915326949,-117.94176619322118,California
,1250 W Foothill Blvd,Azusa,CA,91702,(626) 513-0000,ca/azusa/1250-w-foothill-blvd,34.13323576035784,-117.92699809727334,California
1433,860 E Alosta Ave,Azusa,CA,91702,(626) 969-8274,ca/azusa/860-e-alosta-ave,34.12814641664687,-117.89157162822437,California
1588,10510 Stockdale Hwy,Bakersfield,CA,93311,(661) 663-9329,ca/bakersfield/10510-stockdale-hwy,35.35212176910199,-119.11911787270185,California
3035,2630 Mount Vernon Ave,Bakersfield,CA,93306,(661) 872-3577,ca/bakersfield/2630-mount-vernon-ave,35.39223261450192,-118.96794031141218,California
2462,2701 Ming Ave,Bakersfield,CA,93304,(661) 398-6274,ca/bakersfield/2701-ming-ave,35.3377069,-119.0351604,California
,3345 Buena Vista Rd,Bakersfield,CA,93311,(661) 529-3575,ca/bakersfield/3345-buena-vista-rd,35.3241043,-119.1285617,California
2068,4580 Coffee Rd,Bakersfield,CA,93308,(661) 281-0408,ca/bakersfield/4580-coffee-rd,35.40116339582047,-119.091834844792,California
260,4950 Stockdale Hwy,Bakersfield,CA,93309,(661) 335-0400,ca/bakersfield/4950-stockdale-hwy,35.35453087454825,-119.05705893741703,California
2099,5321 Gosford Rd,Bakersfield,CA,93313,(661) 281-0372,ca/bakersfield/5321-gosford-rd,35.30652183893728,-119.09252875520804,California
,9723 Panama Ln,Bakersfield,CA,93311,(661) 529-3564,ca/bakersfield/9723-panama-ln,35.2960076,-119.1110519,California
231,1050 Gilman St,Berkeley,CA,94710,(510) 526-6047,ca/berkeley/1050-gilman-st,37.87939337077996,-122.2963244817883,California
2703,2225 Shattuck Ave,Berkeley,CA,94704,(510) 647-9166,ca/berkeley/2225-shattuck-ave,37.8688732912193,-122.26748664723874,California
697,2311 Telegraph Ave,Berkeley,CA,94704,(510) 548-0340,ca/berkeley/2311-telegraph-ave,37.868384336918915,-122.25895608037399,California
2114,1065 Brea Mall,Brea,CA,92821,(714) 784-2027,ca/brea/1065-brea-mall,33.91556014878462,-117.88656214737972,California
1306,477 S Associated Rd,Brea,CA,92821,(714) 582-6519,ca/brea/477-s-associated-rd,33.91179690220889,-117.88205261146413,California
1670,5401 Lone Tree Way,Brentwood,CA,94513,(925) 516-9012,ca/brentwood/5401-lone-tree-way,37.96126017826663,-121.74884971530332,California
,7580 Brentwood Blvd,Brentwood,CA,94513,(925) 390-0147,ca/brentwood/7580-brentwood-blvd,37.9453441,-121.6958194,California
364,135 E Palm Ave,Burbank,CA,91502,(818) 842-0622,ca/burbank/135-e-palm-ave,34.18195878665414,-118.31143974113996,California
1521,4012 W Riverside Dr,Burbank,CA,91505,(818) 561-2004,ca/burbank/4012-w-riverside-dr,34.151663886857776,-118.34332814293958,California
1660,2505 Palomar Airport Rd,Carlsbad,CA,92011,(760) 607-3220,ca/carlsbad/2505-palomar-airport-rd,33.12801536407042,-117.27044465652875,California
2367,3416 Via Mercato,Carlsbad,CA,92009,(760) 400-0056,ca/carlsbad/3416-via-mercato,33.081846051416996,-117.23594035921002,California
3184,10826 Alondra Blvd,Cerritos,CA,90703,(562) 402-4099,ca/cerritos/10826-alondra-blvd,33.88591759076357,-118.10198009524986,California
680,12560 Artesia Blvd,Cerritos,CA,90703,(562) 653-0701,ca/cerritos/12560-artesia-blvd,33.87279148159613,-118.06421767787731,California
2657,459 Los Cerritos Mall,Cerritos,CA,90703,(562) 402-0943,ca/cerritos/459-los-cerritos-mall,33.8619,-118.092552,California
1998,1960 E 20th St,Chico,CA,95928,(530) 879-1623,ca/chico/1960-e-20th-st,39.72754269084902,-121.80506296936574,California
382,620 Mangrove Ave,Chico,CA,95926,(530) 343-8707,ca/chico/620-mangrove-ave,39.73437615123794,-121.83515019816491,California
3612,962 East Ave,Chico,CA,95926,(530) 924-5953,ca/chico/962-east-ave,39.76118,-121.8422,California
2425,2290 Otay Lakes Rd,Chula Vista,CA,91915,(619) 421-0078,ca/chula-vista/2290-otay-lakes-rd,32.6471146,-116.9656259,California
2133,569 H St,Chula Vista,CA,91910,(619) 761-5847,ca/chula-vista/569-h-st,32.631538330080154,-117.0880960495063,California
1816,720 Otay Lakes Rd,Chula Vista,CA,91910,(619) 761-5452,ca/chula-vista/720-otay-lakes-rd,32.646182,-117.002625,California
2974,15495 Valley Blvd,City Of Industry,CA,91746,(626) 709-3534,ca/city-of-industry/15495-valley-blvd,34.02196253770011,-117.95960891159734,California
1288,17501 Colima Rd,City Of Industry,CA,91748,(626) 964-9606,ca/city-of-industry/17501-colima-rd,33.991108667992535,-117.92463514846213,California
912,1210 Shaw Ave,Clovis,CA,93612,(559) 298-4708,ca/clovis/1210-shaw-ave,36.80816451357602,-119.69365285818361,California
2876,1840 Herndon Ave,Clovis,CA,93611,(559) 323-4261,ca/clovis/1840-herndon-ave,36.837102806014755,-119.6829132847252,California
3183,2002 Salvio St,Concord,CA,94520,(925) 969-7751,ca/concord/2002-salvio-st,37.9767127,-122.0354564,California
,5434 Ygnacio Valley Rd,Concord,CA,94521,(925) 304-1080,ca/concord/5434-ygnacio-valley-rd,37.94999400485539,-121.95879676113468,California
1572,785 Oak Grove Rd,Concord,CA,94518,(925) 566-5005,ca/concord/785-oak-grove-rd,37.93720862373058,-122.02542678814535,California
1943,1160 E Ontario Ave,Corona,CA,92881,(951) 444-2000,ca/corona/1160-e-ontario-ave,33.84761569537094,-117.54381688956664,California
2610,2560 Tuscany St,Corona,CA,92881,(951) 340-2489,ca/corona/2560-tuscany-st,33.823651,-117.5165168,California
147,2300 Harbor Blvd,Costa Mesa,CA,92626,(949) 646-1288,ca/costa-mesa/2300-harbor-blvd,33.658184766787244,-117.91865890867801,California
3428,260 Bristol St,Costa Mesa,CA,92626,(657) 212-3017,ca/costa-mesa/260-bristol-st,33.667879243081295,-117.88292481349183,California
3588,468 E 17th St,Costa Mesa,CA,92627,(949) 688-2868,ca/costa-mesa/468-e-17th-st,33.62944251257753,-117.90953340965524,California
1876,4114 Sepulveda Blvd,Culver City,CA,90230,(424) 216-3171,ca/culver-city/4114-sepulveda-blvd,34.007161815291546,-118.41262312546246,California
2212,6000 Sepulveda Blvd,Culver City,CA,90230,(310) 773-9047,ca/culver-city/6000-sepulveda-blvd,33.98562677521357,-118.39336051175782,California
3011,6150 W Slauson Ave,Culver City,CA,90230,(310) 313-1051,ca/culver-city/6150-w-slauson-ave,33.98811135886199,-118.39300704814138,California
1167,9512 Culver Blvd,Culver City,CA,90232,(310) 841-0561,ca/culver-city/9512-culver-blvd,34.0233754,-118.3943383,California
211,10385 S De Anza Blvd,Cupertino,CA,95014,(408) 252-5421,ca/cupertino/10385-s-de-anza-blvd,37.31726503354268,-122.03278998505789,California
2549,20688 Homestead Rd,Cupertino,CA,95014,(408) 257-7682,ca/cupertino/20688-homestead-rd,37.337315054598356,-122.03648371994058,California
737,8500 Firestone Blvd,Downey,CA,90241,(562) 861-4988,ca/downey/8500-firestone-blvd,33.9378076569092,-118.12955238646725,California
2446,8890 Apollo Way,Downey,CA,90242,(562) 803-4354,ca/downey/8890-apollo-way,33.92222904425112,-118.13154774014572,California
2449,5240 Dublin Blvd,Dublin,CA,94568,(925) 479-0862,ca/dublin/5240-dublin-blvd,37.70561684178781,-121.89083598834327,California
1013,7020 Amador Plaza Rd,Dublin,CA,94568,(925) 828-4361,ca/dublin/7020-amador-plaza-rd,37.706373161666555,-121.92911820179427,California
3288,4730 Elk Grove Blvd,Elk Grove,CA,95758,(916) 478-0054,ca/elk-grove/4730-elk-grove-blvd,38.408341870819115,-121.44929689394961,California
137,7440 Laguna Blvd,Elk Grove,CA,95758,(916) 478-2360,ca/elk-grove/7440-laguna-blvd,38.4231808,-121.4155253,California
4311,7450 Elk Grove Blvd,Elk Grove,CA,95757,(279) 800-8758,ca/elk-grove/7450-elk-grove-blvd,38.40700456381073,-121.4170904681055,California
2092,1201 E Valley Pkwy,Escondido,CA,92027,(760) 884-3002,ca/escondido/1201-e-valley-pkwy,33.130322653305605,-117.06659018800502,California
600,1282 Auto Park Way,Escondido,CA,92029,(760) 746-0251,ca/escondido/1282-auto-park-way,33.113014851997406,-117.10103903834323,California
3078,200 E Via Rancho Pkwy,Escondido,CA,92025,(760) 743-3250,ca/escondido/200-e-via-rancho-pkwy,33.071379410599924,-117.06621495515303,California
191,1001 E Bidwell St,Folsom,CA,95630,(916) 983-9374,ca/folsom/1001-e-bidwell-st,38.66945594182111,-121.15562516034875,California
1953,2379 Iron Point Rd,Folsom,CA,95630,(916) 605-4040,ca/folsom/2379-iron-point-rd,38.64500627533872,-121.12336725425826,California
2317,10515 Sierra Ave,Fontana,CA,92337,(909) 349-0242,ca/fontana/10515-sierra-ave,34.0627057,-117.4350364,California
2866,16595 Sierra Lakes Pkwy,Fontana,CA,92336,(909) 350-0054,ca/fontana/16595-sierra-lakes-pkwy,34.138460305686856,-117.44145879080668,California
3132,17150 Brookhurst St,Fountain Valley,CA,92708,(714) 377-2698,ca/fountain-valley/17150-brookhurst-st,33.714134,-117.954105,California
229,18951 Brookhurst St,Fountain Valley,CA,92708,(714) 968-4003,ca/fountain-valley/18951-brookhurst-st,33.68759248664302,-117.95451643741706,California
651,2760 Mowry Ave,Fremont,CA,94538,(510) 791-8411,ca/fremont/2760-mowry-ave,37.554397790514614,-121.98171172607476,California
3005,44029 Osgood Rd,Fremont,CA,94539,(510) 657-8802,ca/fremont/44029-osgood-rd,37.51111452118028,-121.94075768554939,California
976,5565 Auto Mall Pkwy,Fremont,CA,94538,(510) 979-9397,ca/fremont/5565-auto-mall-pkwy,37.50434624597707,-121.97563680350913,California
2892,3520 N Blackstone Ave,Fresno,CA,93726,(559) 243-7418,ca/fresno/3520-n-blackstone-ave,36.78161964568193,-119.79007662149581,California
2739,4424 W Shaw Ave,Fresno,CA,93722,(559) 274-9973,ca/fresno/4424-w-shaw-ave,36.80942382028508,-119.87181903191185,California
1932,4978 N Cedar Ave,Fresno,CA,93726,(559) 490-0136,ca/fresno/4978-n-cedar-ave,36.8081309228704,-119.75344405147962,California
110,5128 N Palm Ave,Fresno,CA,93704,(559) 225-1166,ca/fresno/5128-n-palm-ave,36.81108327268125,-119.8080885580822,California
4212,6702 N Brawley Ave,Fresno,CA,93711,(559) 550-1809,ca/fresno/6702-n-brawley-ave,36.83564343834002,-119.86199011716194,California
1509,80 E Nees Ave,Fresno,CA,93720,(559) 490-0605,ca/fresno/80-e-nees-ave,36.852130620865516,-119.78899949694159,California
2681,101 E Orangethorpe Ave,Fullerton,CA,92832,(714) 578-6764,ca/fullerton/101-e-orangethorpe-ave,33.859725096408425,-117.92382825257039,California
684,501 N State College Blvd,Fullerton,CA,92831,(714) 525-2121,ca/fullerton/501-n-state-college-blvd,33.87455997679416,-117.8901444286216,California
2237,1135 Glendale Galleria,Glendale,CA,91210,(818) 507-8455,ca/glendale/1135-glendale-galleria,34.145124,-118.259326,California
1296,132 N Glendale Ave,Glendale,CA,91206,(818) 244-5091,ca/glendale/132-n-glendale-ave,34.14745710452632,-118.24634196073055,California
2500,155 N. Brand Blvd.,Glendale,CA,91203,(818) 543-7652,ca/glendale/155-n-brand-blvd,34.14795064352478,-118.25529353628349,California
1176,16241 Beach Blvd,Huntington Beach,CA,92647,(714) 841-8701,ca/huntington-beach/16241-beach-blvd,33.726848923164056,-117.98969228282067,California
,20962 Magnolia St,Huntington Beach,CA,92646,(657) 502-0007,ca/huntington-beach/20962-magnolia-st,33.8037935,-117.975649,California
1920,7101 Yorktown Ave,Huntington Beach,CA,92648,(657) 204-7171,ca/huntington-beach/7101-yorktown-ave,33.68070597247496,-118.0043468788187,California
3504,42213 Jackson St,Indio,CA,92203,(760) 989-4616,ca/indio/42213-jackson-st,33.7426696,-116.2167608,California
,49810 Jefferson St,Indio,CA,92201,(442) 307-5866,ca/indio/49810-jefferson-st,33.68870065427701,-116.26826015331797,California
2877,2944 W Imperial Hwy,Inglewood,CA,90303,(323) 779-2619,ca/inglewood/2944-w-imperial-hwy,33.93072,-118.32543,California
3578,3421 W Century Blvd,Inglewood,CA,90303,(424) 732-7533,ca/inglewood/3421-w-century-blvd,33.9464402,-118.332277,California
3960,3911 Irvine Blvd,Irvine,CA,92602,(657) 467-6310,ca/irvine/3911-irvine-blvd,33.722913861828914,-117.77250782885207,California
1492,3966 Barranca Pkwy,Irvine,CA,92606,(949) 390-8276,ca/irvine/3966-barranca-pkwy,33.68552416345209,-117.81125817954432,California
2116,4255 Campus Dr,Irvine,CA,92612,(949) 242-3737,ca/irvine/4255-campus-dr,33.64951310587863,-117.8390773262272,California
2070,6424 Irvine Blvd,Irvine,CA,92620,(949) 242-3284,ca/irvine/6424-irvine-blvd,33.69833291147472,-117.74095873973448,California
,6500 Irvine Center Dr,Irvine,CA,92618,(949) 202-5040,ca/irvine/6500-irvine-center-dr,33.669544,-117.765364,California
1026,731 Spectrum Center Dr,Irvine,CA,92618,(949) 753-0554,ca/irvine/731-spectrum-center-dr,33.65076778673915,-117.74288414416293,California
1349,27221 La Paz Rd,Laguna Niguel,CA,92677,(949) 448-8328,ca/laguna-niguel/27221-la-paz-rd,33.568050895227415,-117.70855873098566,California
1461,32391 Golden Lantern,Laguna Niguel,CA,92677,(949) 272-5605,ca/laguna-niguel/32391-golden-lantern,33.49306587332824,-117.69843000859211,California
132,22379 El Toro Rd,Lake Forest,CA,92630,(949) 830-9091,ca/lake-forest/22379-el-toro-rd,33.637965309430356,-117.6806010030881,California
1096,23645 El Toro Road,Lake Forest,CA,92630,(949) 587-1550,ca/lake-forest/23645-el-toro-road,33.61882578365792,-117.70345915116064,California
3537,26592 Towne Centre Dr,Lake Forest,CA,92610,(949) 273-0877,ca/lake-forest/26592-towne-centre-dr,33.677262,-117.666662,California
2687,3238 Livermore Outlets Dr,Livermore,CA,94551,(925) 373-0453,ca/livermore/3238-livermore-outlets-dr,37.698531464662665,-121.84489624614488,California
2078,4691 1st St,Livermore,CA,94551,(925) 243-9914,ca/livermore/4691-1st-st,37.69911086622164,-121.74162527883607,California
1556,2310 Tienda Dr,Lodi,CA,95242,(209) 371-0881,ca/lodi/2310-tienda-dr,38.116714,-121.302485,California
3506,2601 Reynolds Ranch Pkwy,Lodi,CA,95240,(209) 642-4273,ca/lodi/2601-reynolds-ranch-pkwy,38.100800650401936,-121.266857327001,California
825,1800 Ximeno Ave,Long Beach,CA,90815,(562) 597-0469,ca/long-beach/1800-ximeno-ave,33.79012665654251,-118.1386805582838,California
3168,245 Pine Ave,Long Beach,CA,90802,(562) 432-9472,ca/long-beach/245-pine-ave,33.770147975849525,-118.19266047015526,California
1807,6324 E Pacific Coast Hwy,Long Beach,CA,90803,(562) 430-2079,ca/long-beach/6324-e-pacific-coast-hwy,33.75992213118886,-118.11493196553525,California
2095,10250 Santa Monica Blvd,Los Angeles,CA,90067,(424) 204-0026,ca/los-angeles/10250-santa-monica-blvd,34.05797479768634,-118.41965665947433,California
1084,1077 Broxton Ave,Los Angeles,CA,90024,(310) 824-4180,ca/los-angeles/1077-broxton-ave,34.061058613094744,-118.44631431715572,California
758,110 S Fairfax Ave,Los Angeles,CA,90036,(323) 857-0608,ca/los-angeles/110-s-fairfax-ave,34.07371368469808,-118.36095654892976,California
3119,1122 W 6th St,Los Angeles,CA,90017,(213) 250-9277,ca/los-angeles/1122-w-6th-st,34.054200666523464,-118.26337541964341,California
1585,11690 San Vicente Blvd,Los Angeles,CA,90049,(424) 652-4336,ca/los-angeles/11690-san-vicente-blvd,34.05350633181874,-118.46487593252175,California
2944,11711 National Blvd,Los Angeles,CA,90064,(310) 231-1135,ca/los-angeles/11711-national-blvd,34.022681490352895,-118.43917967651839,California
4227,1550 S La Cienega Blvd,Los Angeles,CA,90035,(424) 421-1240,ca/los-angeles/1550-s-la-cienega-blvd,34.049130007714794,-118.37585584048001,California
3062,2134 W Sunset Blvd,Los Angeles,CA,90026,(213) 989-6914,ca/los-angeles/2134-w-sunset-blvd,34.07714537434653,-118.26476045157142,California
,2200 Trojan Way,Los Angeles,CA,90033,(909) 480-3436,ca/los-angeles/2200-trojan-way,34.06414329182321,-118.20230903510205,California
,255 S Grand Ave,Los Angeles,CA,90012,(213) 335-5025,ca/los-angeles/255-s-grand-ave,34.053450363282316,-118.25139227852469,California
,2595 S Hoover St,Los Angeles,CA,90007,(213) 863-4566,ca/los-angeles/2595-s-hoover-st,34.03208483607215,-118.28431885583643,California
1967,301 N Larchmont Blvd,Los Angeles,CA,90004,(323) 978-2047,ca/los-angeles/301-n-larchmont-blvd,34.07643494986921,-118.32395840740463,California
2988,301 W Olympic Blvd,Los Angeles,CA,90015,(213) 623-3306,ca/los-angeles/301-w-olympic-blvd,34.042015,-118.25841,California
1913,3183 Wilshire Blvd,Los Angeles,CA,90010,(213) 884-4094,ca/los-angeles/3183-wilshire-blvd,34.0621866752937,-118.29138750532945,California
945,3748 S Figueroa St,Los Angeles,CA,90007,(213) 765-9068,ca/los-angeles/3748-s-figueroa-st,34.01695555547079,-118.28258402025506,California
1945,4550 W Pico Blvd,Los Angeles,CA,90019,(323) 297-0628,ca/los-angeles/4550-w-pico-blvd,34.0481825,-118.33601217,California
2374,5047 Eagle Rock Blvd,Los Angeles,CA,90041,(323) 206-5414,ca/los-angeles/5047-eagle-rock-blvd,34.138332433303944,-118.2147237946707,California
913,5550 Wilshire Blvd,Los Angeles,CA,90036,(323) 272-6661,ca/los-angeles/5550-wilshire-blvd,34.06212336959151,-118.35021525720066,California
1500,601 W 7th St,Los Angeles,CA,90017,(213) 283-2058,ca/los-angeles/601-w-7th-st,34.04759612692327,-118.25664718579833,California
,6290 W Sunset Blvd,Los Angeles,CA,90028,(213) 521-2441,ca/los-angeles/6290-w-sunset-blvd,34.09784069977157,-118.3263496790029,California
3094,6719 La Tijera Blvd,Los Angeles,CA,90045,(310) 665-9478,ca/los-angeles/6719-la-tijera-blvd,33.978884768617974,-118.37066314049281,California
1538,7101 Melrose Ave,Los Angeles,CA,90046,(323) 297-0334,ca/los-angeles/7101-melrose-ave,34.08362649308188,-118.3443386895666,California
1413,7660 W Sunset Blvd,Los Angeles,CA,90046,(323) 952-5160,ca/los-angeles/7660-w-sunset-blvd,34.0978471129027,-118.35690521268083,California
2461,8420 Beverly Blvd,Los Angeles,CA,90048,(323) 782-1281,ca/los-angeles/8420-beverly-blvd,34.07313567,-118.37276533,California
1757,25523 Marguerite Pkwy,Mission Viejo,CA,92692,(949) 420-2316,ca/mission-viejo/25523-marguerite-pkwy,33.59225511328315,-117.66029921708538,California
2941,27750 Crown Valley Pkwy,Mission Viejo,CA,92691,(949) 347-1663,ca/mission-viejo/27750-crown-valley-pkwy,33.559430658968246,-117.67142648344975,California
3012,Vc10 Shops At Mission Viejo,Mission Viejo,CA,92691,(949) 347-1530,ca/mission-viejo/vc10-shops-at-mission-viejo,33.5577252,-117.6684666,California
2653,1801 McHenry Ave,Modesto,CA,95350,(209) 522-0013,ca/modesto/1801-mchenry-ave,37.670898363220275,-120.9946327764062,California
1378,3401 Dale Rd,Modesto,CA,95356,(209) 550-0540,ca/modesto/3401-dale-rd,37.6876585442444,-121.05255809897119,California
135,500 Del Monte Ctr,Monterey,CA,93940,(831) 641-9353,ca/monterey/500-del-monte-ctr,36.58351079602785,-121.89678568496998,California
2150,560 Munras Ave,Monterey,CA,93940,(831) 718-9369,ca/monterey/560-munras-ave,36.596602,-121.894703,California
1611,1039 El Monte Ave,Mountain View,CA,94040,(650) 919-8448,ca/mountain-view/1039-el-monte-ave,37.39063600714947,-122.09439689265196,California
801,2400 Charleston Rd,Mountain View,CA,94043,(650) 969-6528,ca/mountain-view/2400-charleston-rd,37.4218453291052,-122.09651837949752,California
1527,1715 Trancas St,Napa,CA,94558,(707) 226-1769,ca/napa/1715-trancas-st,38.3212999,-122.3059614,California
2415,304 Soscol Ave,Napa,CA,94559,(707) 227-1200,ca/napa/304-soscol-ave,38.28588119085403,-122.27434205735756,California
1441,1322 Bison Ave,Newport Beach,CA,92660,(949) 219-0717,ca/newport-beach/1322-bison-ave,33.63897764137414,-117.8600891346731,California
1525,3101 Newport Blvd,Newport Beach,CA,92663,(949) 200-4354,ca/newport-beach/3101-newport-blvd,33.6152648852506,-117.93063838245149,California
9998,610 Newport Center Dr,Newport Beach,CA,92660,(303) 222-2541,ca/newport-beach/610-newport-center-dr,33.6184533,-117.8726216,California
2911,13075 Victory Blvd,North Hollywood,CA,91606,(818) 763-2975,ca/north-hollywood/13075-victory-blvd,34.18708117562117,-118.41715728339146,California
1843,5240 Lankershim Blvd,North Hollywood,CA,91601,(818) 643-2196,ca/north-hollywood/5240-lankershim-blvd,34.1661600822382,-118.37501567104817,California
1746,19332 Nordhoff St,Northridge,CA,91324,(818) 671-2232,ca/northridge/19332-nordhoff-st,34.23468376233135,-118.55489721694748,California
3026,8420 Balboa Blvd,Northridge,CA,91325,(818) 891-1034,ca/northridge/8420-balboa-blvd,34.2236510643574,-118.5018123438137,California
3534,9160 Reseda Blvd,Northridge,CA,91324,(818) 435-6290,ca/northridge/9160-reseda-blvd,34.23697270172239,-118.53570619413169,California
4110,1302 Broadway,Oakland,CA,94612,(341) 699-7499,ca/oakland/1302-broadway,37.80371968186794,-122.27124746195393,California
2544,3017 Broadway,Oakland,CA,94611,(510) 763-1432,ca/oakland/3017-broadway,37.81919,-122.262585,California
1738,3271 Lakeshore Ave,Oakland,CA,94610,(510) 788-6900,ca/oakland/3271-lakeshore-ave,37.810767415996374,-122.24476638808744,California
1901,8460 Edgewater Dr,Oakland,CA,94621,(510) 686-8000,ca/oakland/8460-edgewater-dr,37.73794078618209,-122.19746573745556,California
479,2611 Vista Way,Oceanside,CA,92054,(760) 721-6904,ca/oceanside/2611-vista-way,33.181845768432154,-117.33164935031454,California
1640,4111 Oceanside Blvd,Oceanside,CA,92056,(760) 659-4147,ca/oceanside/4111-oceanside-blvd,33.205653064520334,-117.28861079569788,California
2678,495 College Blvd,Oceanside,CA,92057,(760) 758-1493,ca/oceanside/495-college-blvd,33.245213451838396,-117.29050765091336,California
1783,1 Mills Cir,Ontario,CA,91764,(909) 694-2357,ca/ontario/1-mills-cir,34.073101,-117.552031,California
2346,2200 S Grove Ave,Ontario,CA,91761,(909) 930-6149,ca/ontario/2200-s-grove-ave,34.03347387024438,-117.62885404299324,California
3983,112 E Maple Ave,Orange,CA,92866,(714) 912-8544,ca/orange/112-e-maple-ave,33.78954252965513,-117.85282797648462,California
596,2202 N Tustin St,Orange,CA,92865,(714) 283-5010,ca/orange/2202-n-tustin-st,33.82580291158203,-117.83640855889553,California
1641,3440 E Chapman Ave,Orange,CA,92869,(657) 888-6149,ca/orange/3440-e-chapman-ave,33.787170245544765,-117.8165608815973,California
3219,1291 S Victoria Ave,Oxnard,CA,93035,(805) 228-5324,ca/oxnard/1291-s-victoria-ave,34.18947175841615,-119.22165433571324,California
1964,369 W Esplanade Dr,Oxnard,CA,93036,(805) 200-2052,ca/oxnard/369-w-esplanade-dr,34.23402920478308,-119.17877830129345,California
2501,34100 Monterey Ave,Palm Desert,CA,92211,(760) 202-1126,ca/palm-desert/34100-monterey-ave,33.801446689642624,-116.38747067484036,California
4418,39575 Washington St,Palm Desert,CA,92211,(442) 305-4562,ca/palm-desert/39575-washington-st,33.76305897480835,-116.30105329921986,California
1251,72333 Highway 111,Palm Desert,CA,92260,(760) 346-1838,ca/palm-desert/72333-highway-111,33.72810403189702,-116.40305055475794,California
326,1125 W Rancho Vista Blvd,Palmdale,CA,93551,(661) 266-0944,ca/palmdale/1125-w-rancho-vista-blvd,34.60234325273732,-118.15016453697854,California
,38207 47th Street East,Palmdale,CA,93552,(661) 349-4468,ca/palmdale/38207-47th-street-east,34.5792556,-118.0451917,California
1617,180 El Camino Real,Palo Alto,CA,94304,(650) 618-6994,ca/palo-alto/180-el-camino-real,37.44481458900919,-122.16927148831822,California
1265,2675 El Camino Real,Palo Alto,CA,94306,(650) 462-9154,ca/palo-alto/2675-el-camino-real,37.42387416998631,-122.14306001409534,California
3577,1687 E Colorado Blvd,Pasadena,CA,91106,(626) 765-3314,ca/pasadena/1687-e-colorado-blvd,34.1462581,-118.1155796,California
929,246 S Lake Ave,Pasadena,CA,91101,(626) 229-9173,ca/pasadena/246-s-lake-ave,34.14161284582905,-118.13193169412368,California
207,3409 E Foothill Blvd,Pasadena,CA,91107,(626) 351-6017,ca/pasadena/3409-e-foothill-blvd,34.151687162182554,-118.08020075602525,California
2741,552 Contra Costa Blvd,Pleasant Hill,CA,94523,(925) 671-0108,ca/pleasant-hill/552-contra-costa-blvd,37.97809400000003,-122.06741798834324,California
140,60 Crescent Dr,Pleasant Hill,CA,94523,(925) 674-0615,ca/pleasant-hill/60-crescent-dr,37.94573569798795,-122.06170254193489,California
215,10811 Foothill Blvd,Rancho Cucamonga,CA,91730,(909) 476-8424,ca/rancho-cucamonga/10811-foothill-blvd,34.10618371186749,-117.56885251629608,California
785,11334 4th St,Rancho Cucamonga,CA,91730,(909) 476-7863,ca/rancho-cucamonga/11334-4th-st,34.07764976353122,-117.55757129295694,California
1380,7879 Monticello Ave,Rancho Cucamonga,CA,91739,(909) 899-0701,ca/rancho-cucamonga/7879-monticello-ave,34.11030699439223,-117.53548142270182,California
2647,27511 San Bernardino Ave,Redlands,CA,92374,(909) 335-7045,ca/redlands/27511-san-bernardino-ave,34.07402297315253,-117.20509066417401,California
233,635 Orange St,Redlands,CA,92374,(909) 307-8424,ca/redlands/635-orange-st,34.06115084976654,-117.18292099477748,California
,224 Redwood Shores Pkwy,Redwood City,CA,94065,(650) 674-4006,ca/redwood-city/224-redwood-shores-pkwy,37.52172124999472,-122.25185753841744,California
430,861 Middlefield Rd,Redwood City,CA,94063,(650) 216-9325,ca/redwood-city/861-middlefield-rd,37.48582585979885,-122.22887095577227,California
2424,1314 S Riverside Ave,Rialto,CA,92376,(909) 879-7332,ca/rialto/1314-s-riverside-ave,34.07724446256744,-117.3707390808774,California
2360,186 E Easton St,Rialto,CA,92376,(909) 879-7807,ca/rialto/186-e-easton-st,34.13477400873257,-117.36932463011198,California
,22430 Van Buren Blvd,Riverside,CA,92518,(951) 867-4536,ca/riverside/22430-van-buren-blvd,33.8884688319714,-117.27336015166965,California
2598,3510 Tyler St,Riverside,CA,92503,(951) 351-2604,ca/riverside/3510-tyler-st,33.90711401311614,-117.4582640656414,California
333,3525 Riverside Plaza Dr,Riverside,CA,92506,(951) 779-1962,ca/riverside/3525-riverside-plaza-dr,33.955641,-117.389392,California
2373,8956 Trautwein Rd,Riverside,CA,92508,(951) 697-6910,ca/riverside/8956-trautwein-rd,33.89025918631179,-117.32418543219165,California
275,1136 Galleria Blvd,Roseville,CA,95678,(916) 783-8841,ca/roseville/1136-galleria-blvd,38.770105437763675,-121.26476193559932,California
,1980 Blue Oaks Blvd,Roseville,CA,95747,(279) 336-5288,ca/roseville/1980-blue-oaks-blvd,38.79211759276148,-121.35690508295247,California
290,3988 Douglas Blvd,Roseville,CA,95661,(916) 786-9218,ca/roseville/3988-douglas-blvd,38.74303637962803,-121.227539677001,California
,4200 Thrive Dr,Roseville,CA,95678,(916) 742-7121,ca/roseville/4200-thrive-dr,38.793988,-121.299896,California
926,781 Pleasant Grove Blvd,Roseville,CA,95678,(916) 788-8282,ca/roseville/781-pleasant-grove-blvd,38.7895085668169,-121.28090681840268,California
3227,1601 Broadway,Sacramento,CA,95818,(916) 442-2169,ca/sacramento/1601-broadway,38.561828,-121.491902,California
200,1729 Howe Ave,Sacramento,CA,95825,(916) 646-4571,ca/sacramento/1729-howe-ave,38.59735987605298,-121.41587020828382,California
184,1831 Capitol Ave,Sacramento,CA,95811,(916) 444-8940,ca/sacramento/1831-capitol-ave,38.57402706388792,-121.48275713189452,California
176,2517 Fair Oaks Blvd,Sacramento,CA,95825,(916) 487-1125,ca/sacramento/2517-fair-oaks-blvd,38.5756492793364,-121.4033964150297,California
,2650 Arena Blvd,Sacramento,CA,95834,(279) 247-9068,ca/sacramento/2650-arena-blvd,38.6426399,-121.5210512,California
3162,2800 Del Paso Rd,Sacramento,CA,95834,(916) 575-8816,ca/sacramento/2800-del-paso-rd,38.65552956908005,-121.52395433636383,California
3745,3302 Arden Way,Sacramento,CA,95825,(279) 499-0080,ca/sacramento/3302-arden-way,38.595836,-121.386417,California
1154,3328 El Camino Ave,Sacramento,CA,95821,(916) 485-6305,ca/sacramento/3328-el-camino-ave,38.61001551696079,-121.3857316063258,California
601,3830 Truxel Rd,Sacramento,CA,95834,(916) 574-9671,ca/sacramento/3830-truxel-rd,38.63867609436161,-121.50498536258294,California
1472,4001 Freeport Blvd,Sacramento,CA,95822,(916) 596-4005,ca/sacramento/4001-freeport-blvd,38.53778240419858,-121.49241688337742,California
1016,5040 Auburn Blvd,Sacramento,CA,95841,(916) 334-5200,ca/sacramento/5040-auburn-blvd,38.66020923057192,-121.34704147761272,California
2158,5738 Folsom Blvd,Sacramento,CA,95819,(916) 245-5062,ca/sacramento/5738-folsom-blvd,38.557712,-121.4366786,California
3472,615 David J Stern Walk,Sacramento,CA,95814,(916) 596-3882,ca/sacramento/615-david-j-stern-walk,38.5808194,-121.4987154,California
2998,8124 Delta Shores Cir S,Sacramento,CA,95832,(916) 665-1642,ca/sacramento/8124-delta-shores-cir-s,38.46512508228903,-121.49228194156194,California
1635,101 W Broadway,San Diego,CA,92101,(619) 810-2383,ca/san-diego/101-w-broadway,32.71513987778212,-117.16430473950062,California
1141,1025 Camino De La Reina,San Diego,CA,92108,(619) 491-0481,ca/san-diego/1025-camino-de-la-reina,32.76798397845298,-117.15325137913322,California
2034,10550 Craftsman Way,San Diego,CA,92127,(858) 304-3024,ca/san-diego/10550-craftsman-way,33.02013968053748,-117.11107023715459,California
1692,11134 Rancho Carmel Dr,San Diego,CA,92128,(858) 524-5614,ca/san-diego/11134-rancho-carmel-dr,32.97977174791824,-117.08269000307575,California
199,1504 Garnet Ave,San Diego,CA,92109,(858) 274-3093,ca/san-diego/1504-garnet-ave,32.79971538531029,-117.24262253617752,California
2164,2750 Bauer Road,San Diego,CA,92145,(858) 689-0001,ca/san-diego/2750-bauer-road,32.88780078187407,-117.13142984785372,California
603,3680 Rosecrans St,San Diego,CA,92110,(619) 222-0508,ca/san-diego/3680-rosecrans-st,32.75119540858461,-117.20560606468263,California
1770,3881 Valley Centre Dr,San Diego,CA,92130,(858) 724-0994,ca/san-diego/3881-valley-centre-dr,32.93772358950651,-117.23012450267805,California
1921,5650 Balboa Ave,San Diego,CA,92111,(858) 380-2316,ca/san-diego/5650-balboa-ave,32.820499457084594,-117.17898082729818,California
2302,6083 El Cajon Blvd,San Diego,CA,92115,(619) 265-2417,ca/san-diego/6083-el-cajon-blvd,32.76128861846487,-117.0666150433999,California
2086,7081 Clairemont Mesa Blvd,San Diego,CA,92111,(858) 380-2301,ca/san-diego/7081-clairemont-mesa-blvd,32.831583765641234,-117.16460263069126,California
159,734 University Ave,San Diego,CA,92103,(619) 209-3688,ca/san-diego/734-university-ave,32.74861224137139,-117.1576661688702,California
235,8250 Mira Mesa Blvd,San Diego,CA,92126,(858) 586-2147,ca/san-diego/8250-mira-mesa-blvd,32.914052002712026,-117.14592763616781,California
1460,121 4th St,San Francisco,CA,94103,(415) 500-9635,ca/san-francisco/121-4th-st,37.78430291464379,-122.40361731532687,California
1637,1523 Sloat Blvd,San Francisco,CA,94132,(415) 592-2187,ca/san-francisco/1523-sloat-blvd,37.73245288257204,-122.48998301707604,California
1857,211 Sutter St,San Francisco,CA,94104,(415) 590-4199,ca/san-francisco/211-sutter-st,37.7896709,-122.4039997,California
2293,2675 Geary Boulevard,San Francisco,CA,94118,(415) 202-0781,ca/san-francisco/2675-geary-boulevard,37.78205287353228,-122.44653641055487,California
2080,3251 20th Ave,San Francisco,CA,94132,(415) 418-3048,ca/san-francisco/3251-20th-ave,37.7276457,-122.4765986,California
2828,400 Howard St,San Francisco,CA,94105,(415) 442-0211,ca/san-francisco/400-howard-st,37.78937085749672,-122.39583639938832,California
1566,50 California St,San Francisco,CA,94111,(415) 500-9511,ca/san-francisco/50-california-st,37.7942596,-122.3974244,California
839,525 Market Street,San Francisco,CA,94105,(415) 278-0461,ca/san-francisco/525-market-street,37.79046409288761,-122.39929950399244,California
3069,1 S Market St,San Jose,CA,95113,(408) 938-0919,ca/san-jose/1-s-market-st,37.335014405104545,-121.89258033644445,California
1765,1095 E Brokaw Rd,San Jose,CA,95131,(408) 703-2871,ca/san-jose/1095-e-brokaw-rd,37.38309436617842,-121.89687953849251,California
1600,1110 Blossom Hill Rd,San Jose,CA,95118,(408) 724-5272,ca/san-jose/1110-blossom-hill-rd,37.24964078046565,-121.87626490388577,California
3068,1566 Monterey Hwy,San Jose,CA,95110,(408) 286-3371,ca/san-jose/1566-monterey-hwy,37.31446351173001,-121.87146726951444,California
1241,1645 Saratoga Ave,San Jose,CA,95129,(408) 777-8902,ca/san-jose/1645-saratoga-ave,37.29292404334293,-121.99117377852156,California
1107,2007 Camden Ave,San Jose,CA,95124,(408) 369-8163,ca/san-jose/2007-camden-ave,37.262196276218305,-121.93178962662427,California
2045,2855 Stevens Creek Blvd,San Jose,CA,95050,(408) 418-4086,ca/san-jose/2855-stevens-creek-blvd,37.32615899084708,-121.94394082015276,California
2138,2990 E Capitol Expy,San Jose,CA,95148,(408) 300-5114,ca/san-jose/2990-e-capitol-expy,37.331138775240554,-121.81211644155081,California
2110,361 N Capitol Ave,San Jose,CA,95133,(408) 457-6347,ca/san-jose/361-n-capitol-ave,37.3711472221808,-121.84490282047204,California
1416,369 S Winchester Blvd,San Jose,CA,95128,(408) 213-2935,ca/san-jose/369-s-winchester-blvd,37.321716266020005,-121.95055006271474,California
1561,4180 N 1st St,San Jose,CA,95134,(408) 520-4827,ca/san-jose/4180-n-1st-st,37.41624775063058,-121.95495192858843,California
2151,540 Newhall Dr,San Jose,CA,95110,(408) 418-4500,ca/san-jose/540-newhall-dr,37.35053145005193,-121.92219511558075,California
2258,5670 Cottle Rd,San Jose,CA,95123,(408) 300-5186,ca/san-jose/5670-cottle-rd,37.24865130878421,-121.80287968553824,California
1093,975 The Alameda,San Jose,CA,95126,(408) 288-9172,ca/san-jose/975-the-alameda,37.331906817882945,-121.90865991226781,California
2187,345 3rd St,San Rafael,CA,94901,(415) 300-3028,ca/san-rafael/345-3rd-st,37.96956572128692,-122.5167520404928,California
1308,5800 Northgate Dr,San Rafael,CA,94903,(415) 507-0493,ca/san-rafael/5800-northgate-dr,38.003597227394856,-122.54408339512385,California
3550,132 Sunset Dr,San Ramon,CA,94583,(925) 380-1426,ca/san-ramon/132-sunset-dr,37.76160124128773,-121.96254508963604,California
221,2421 San Ramon Valley Blvd,San Ramon,CA,94583,(925) 820-4110,ca/san-ramon/2421-san-ramon-valley-blvd,37.775151705046845,-121.97801796374807,California
2214,1313 W 17th St,Santa Ana,CA,92706,(714) 380-3974,ca/santa-ana/1313-w-17th-st,33.76036780466999,-117.88610817392521,California
1929,2773 N Main St,Santa Ana,CA,92705,(714) 656-0005,ca/santa-ana/2773-n-main-st,33.77336674902728,-117.86701247985775,California
805,3705 S Bristol St,Santa Ana,CA,92704,(714) 754-7380,ca/santa-ana/3705-s-bristol-st,33.69835440817147,-117.88499861869985,California
2227,629 S Harbor Blvd,Santa Ana,CA,92704,(714) 775-8531,ca/santa-ana/629-s-harbor-blvd,33.73867472818457,-117.91965691960246,California
2047,2002 El Camino Real,Santa Clara,CA,95050,(408) 418-4508,ca/santa-clara/2002-el-camino-real,37.35207161322408,-121.96027531067614,California
3293,3249 Coronado Pl,Santa Clara,CA,95054,(408) 562-0083,ca/santa-clara/3249-coronado-pl,37.380903202257706,-121.97438984225003,California
2149,3952 Rivermark Plz,Santa Clara,CA,95054,(408) 418-4103,ca/santa-clara/3952-rivermark-plz,37.39480489533197,-121.946407394792,California
1128,19085 Golden Valley Rd,Santa Clarita,CA,91387,(661) 298-0899,ca/santa-clarita/19085-golden-valley-rd,34.394496758831735,-118.46282056470119,California
,26543 Bouquet Canyon Rd,Santa Clarita,CA,91350,(661) 347-0566,ca/santa-clarita/26543-bouquet-canyon-rd,34.427744923930995,-118.53743189386577,California
1392,1218 3rd Street Promenade,Santa Monica,CA,90401,(310) 458-2141,ca/santa-monica/1218-3rd-street-promenade,34.017694847287615,-118.49898555066977,California
3093,2025 Wilshire Blvd,Santa Monica,CA,90403,(310) 453-0057,ca/santa-monica/2025-wilshire-blvd,34.031985802324826,-118.48289062822437,California
1377,2182 Santa Rosa Ave,Santa Rosa,CA,95407,(707) 228-1023,ca/santa-rosa/2182-santa-rosa-ave,38.417914,-122.712384,California
2044,336A Coddingtown Ctr,Santa Rosa,CA,95401,(707) 521-0012,ca/santa-rosa/336a-coddingtown-ctr,38.458189,-122.730058,California
2093,14006 Riverside Dr,Sherman Oaks,CA,91423,(818) 804-2001,ca/sherman-oaks/14006-riverside-dr,34.15712364375744,-118.43730202944775,California
1942,14708 Ventura Blvd,Sherman Oaks,CA,91403,(818) 455-4798,ca/sherman-oaks/14708-ventura-blvd,34.1515368,-118.4536181,California
2387,10710 Trinity Pkwy,Stockton,CA,95219,(209) 390-1023,ca/stockton/10710-trinity-pkwy,38.05395499439947,-121.3747237642123,California
,1205 E Hammer Ln,Stockton,CA,95210,(209) 800-0870,ca/stockton/1205-e-hammer-ln,38.02125776284088,-121.29702545636836,California
299,4940 Pacific Ave,Stockton,CA,95207,(209) 476-7217,ca/stockton/4940-pacific-ave,37.9946689016608,-121.3134374044431,California
2434,26440 Ynez Rd,Temecula,CA,92591,(951) 296-5438,ca/temecula/26440-ynez-rd,33.52408850756488,-117.15898745674133,California
1782,32195 Temecula Pkwy,Temecula,CA,92592,(951) 303-6215,ca/temecula/32195-temecula-pkwy,33.4809812683985,-117.09695558341605,California
2767,162 W Hillcrest Dr,Thousand Oaks,CA,91360,(805) 230-9193,ca/thousand-oaks/162-w-hillcrest-dr,34.1820459658838,-118.88495811319467,California
706,935 Broadbeck Dr,Thousand Oaks,CA,91320,(805) 499-3561,ca/thousand-oaks/935-broadbeck-dr,34.19117099752564,-118.93773068467311,California
1451,21300 Hawthorne Blvd,Torrance,CA,90503,(424) 254-2378,ca/torrance/21300-hawthorne-blvd,33.834988127866936,-118.35280468949355,California
198,24631 Crenshaw Blvd,Torrance,CA,90505,(310) 530-0690,ca/torrance/24631-crenshaw-blvd,33.8018331177992,-118.32843426381467,California
2157,3525 W Carson St,Torrance,CA,90503,(424) 206-4202,ca/torrance/3525-w-carson-st,33.83215801411273,-118.34935026655486,California
472,13348 Newport Ave,Tustin,CA,92780,(714) 665-6730,ca/tustin/13348-newport-ave,33.74511975475779,-117.8146216464283,California
2942,15040 Kensington Park Dr,Tustin,CA,92782,(714) 259-7739,ca/tustin/15040-kensington-park-dr,33.7126826891727,-117.81714811920403,California
2156,1053 E 19th St,Upland,CA,91784,(909) 694-0384,ca/upland/1053-e-19th-st,34.13235746297344,-117.63666496810549,California
230,1092 N Mountain Ave,Upland,CA,91786,(909) 579-0999,ca/upland/1092-n-mountain-ave,34.108382301763804,-117.66990272822437,California
3403,2057 W Baseline Rd,Upland,CA,91784,(909) 256-0908,ca/upland/2057-w-baseline-rd,34.121970163634444,-117.69212302883524,California
1385,24405 Town Center Dr,Valencia,CA,91355,(661) 284-2461,ca/valencia/24405-town-center-dr,34.41790748929424,-118.5614417741988,California
759,28102 Newhall Ranch Rd,Valencia,CA,91355,(661) 257-9526,ca/valencia/28102-newhall-ranch-rd,34.44265729728954,-118.57377455752419,California
179,1145 S Victoria Ave,Ventura,CA,93003,(805) 650-6627,ca/ventura/1145-s-victoria-ave,34.264407012492484,-119.21258497340176,California
908,488 S Mills Rd,Ventura,CA,93003,(805) 654-0143,ca/ventura/488-s-mills-rd,34.26674003395353,-119.2460874911045,California
,248 Plaza Drive,Visalia,CA,93291,(559) 553-1044,ca/visalia/248-plaza-drive,36.332455,-119.391475,California
962,4219 S Mooney Blvd,Visalia,CA,93277,(559) 636-8475,ca/visalia/4219-s-mooney-blvd,36.29236398834468,-119.31439473346643,California
588,143 N Barranca St,West Covina,CA,91791,(626) 967-6680,ca/west-covina/143-n-barranca-st,34.07314386726373,-117.88217626053346,California
2094,427 Plaza Dr,West Covina,CA,91790,(626) 384-2211,ca/west-covina/427-plaza-dr,34.0711073,-117.9327713,California
3648,2155 Town Center Plz,West Sacramento,CA,95691,(916) 273-8977,ca/west-sacramento/2155-town-center-plz,38.55033024778676,-121.5388056026676,California
1405,775 Ikea Ct,West Sacramento,CA,95605,(916) 617-2545,ca/west-sacramento/775-ikea-ct,38.59004108927359,-121.54966721860711,California
1812,10120 Carmenita Rd,Whittier,CA,90605,(562) 457-5327,ca/whittier/10120-carmenita-rd,33.941058210661204,-118.04621113497029,California
3854,11840 Whittier Blvd.,Whittier,CA,90601,(562) 478-8302,ca/whittier/11840-whittier-blvd,33.9800862,-118.0504845,California
1657,15528 Whittier Blvd,Whittier,CA,90603,(562) 371-2028,ca/whittier/15528-whittier-blvd,33.94439989978713,-117.9948264484621,California
227,5430 Topanga Canyon Blvd,Woodland Hills,CA,91367,(818) 710-0466,ca/woodland-hills/5430-topanga-canyon-blvd,34.16986787563659,-118.60526541245811,California
1647,6443 Canoga Ave,Woodland Hills,CA,91367,(747) 888-5101,ca/woodland-hills/6443-canoga-ave,34.187767500856566,-118.59791897265188,California
685,12550 W 64th Ave,Arvada,CO,80004,(303) 432-1101,co/arvada/12550-w-64th-ave,39.81138704861359,-105.13967820960727,Colorado
1039,5324 Wadsworth Byp,Arvada,CO,80002,(303) 431-6963,co/arvada/5324-wadsworth-byp,39.79394227375821,-105.08027198374691,Colorado
74,8797 Wadsworth Blvd,Arvada,CO,80003,(720) 898-8140,co/arvada/8797-wadsworth-blvd,39.85612606572959,-105.08244000828381,Colorado
23,1205 S Havana St,Aurora,CO,80012,(303) 369-3700,co/aurora/1205-s-havana-st,39.69457177229466,-104.8662978604334,Colorado
745,13700 E Colfax Ave,Aurora,CO,80011,(303) 344-2140,co/aurora/13700-e-colfax-ave,39.739898551963535,-104.82777096440066,Colorado
66,15280 E Iliff Ave,Aurora,CO,80014,(720) 747-9542,co/aurora/15280-e-iliff-ave,39.67436520279655,-104.81065555398465,Colorado
1145,2300 S Parker Rd,Aurora,CO,80231,(303) 873-1300,co/aurora/2300-s-parker-rd,39.674387993599474,-104.86957713591516,Colorado
943,24100 E Commons Ave,Aurora,CO,80016,(303) 400-3855,co/aurora/24100-e-commons-ave,39.604272012876336,-104.70758860763118,Colorado
871,3455 N Salida St,Aurora,CO,80011,(303) 371-2334,co/aurora/3455-n-salida-st,39.76402984439589,-104.77470535421776,Colorado
75,4205 S Buckley Rd,Aurora,CO,80013,(720) 870-3342,co/aurora/4205-s-buckley-rd,39.64020420778057,-104.79204735446893,Colorado
1291,6710 S Cornerstar Way,Aurora,CO,80016,(303) 586-8301,co/aurora/6710-s-cornerstar-way,39.59452341563532,-104.80637262864582,Colorado
1049,5642 Allen Way,Castle Rock,CO,80108,(303) 663-0552,co/castle-rock/5642-allen-way,39.41447192362294,-104.86400426898177,Colorado
,5954 Promenade Pkwy.,Castle Rock,CO,80108,(720) 983-1478,co/castle-rock/5954-promenade-pkwy,39.4194772,-104.8774765,Colorado
254,12073 E Arapahoe Rd,Centennial,CO,80112,(303) 708-1733,co/centennial/12073-e-arapahoe-rd,39.59543648274558,-104.84878740643137,Colorado
566,20209 E Smoky Hill Rd,Centennial,CO,80015,(303) 627-9080,co/centennial/20209-e-smoky-hill-rd,39.611241369091566,-104.75260376408829,Colorado
1885,8255 S Chester St,Centennial,CO,80112,(303) 768-0102,co/centennial/8255-s-chester-st,39.56723688545382,-104.88050550398464,Colorado
153,1370 Garden Of The Gods Rd,Colorado Springs,CO,80907,(719) 264-9749,co/colorado-springs/1370-garden-of-the-gods-rd,38.89705693862437,-104.85264341264832,Colorado
67,17 S Tejon St,Colorado Springs,CO,80903,(719) 632-4311,co/colorado-springs/17-s-tejon-st,38.833100878161346,-104.82310091436597,Colorado
,1846 Democracy Pt,Colorado Springs,CO,80908,(719) 249-1407,co/colorado-springs/1846-democracy-pt,38.99004614343266,-104.79606569138431,Colorado
185,2130 Southgate Rd,Colorado Springs,CO,80906,(719) 634-7199,co/colorado-springs/2130-southgate-rd,38.801806979117345,-104.81914475674591,Colorado
394,3026 New Center Pt,Colorado Springs,CO,80922,(719) 572-6699,co/colorado-springs/3026-new-center-pt,38.877091500581365,-104.71877154652476,Colorado
40,5079 N Academy Blvd,Colorado Springs,CO,80918,(719) 532-0900,co/colorado-springs/5079-n-academy-blvd,38.904331974959575,-104.77416895595184,Colorado
1070,5102 N Nevada Ave,Colorado Springs,CO,80918,(719) 219-0509,co/colorado-springs/5102-n-nevada-ave,38.90253350713101,-104.81810723064962,Colorado
,6530 Tutt Boulevard,Colorado Springs,CO,80923,(719) 895-3968,co/colorado-springs/6530-tutt-boulevard,38.9267899,-104.715689,Colorado
58,7818 N Academy Blvd,Colorado Springs,CO,80920,(719) 531-6800,co/colorado-springs/7818-n-academy-blvd,38.94636373455528,-104.80229773007682,Colorado
35,895 N Academy Blvd,Colorado Springs,CO,80909,(719) 572-1727,co/colorado-springs/895-n-academy-blvd,38.845449020855405,-104.75657311532689,Colorado
48,140 Steele St,Denver,CO,80206,(303) 329-6466,co/denver/140-steele-st,39.71855993156765,-104.94956138220903,Colorado
73,1480 16th St,Denver,CO,80202,(720) 904-2052,co/denver/1480-16th-st,39.75019553674283,-104.99920669863127,Colorado
9,1600 California St,Denver,CO,80202,(303) 615-5818,co/denver/1600-california-st,39.74538157729719,-104.9916039656581,Colorado
1,1644 E Evans Ave,Denver,CO,80210,(303) 722-4121,co/denver/1644-e-evans-ave,39.67828797290773,-104.96780777696745,Colorado
911,2500 E Colfax Ave,Denver,CO,80206,(303) 388-5300,co/denver/2500-e-colfax-ave,39.739954962720255,-104.95722691840268,Colorado
161,2760 S Colorado Blvd,Denver,CO,80222,(303) 758-0824,co/denver/2760-s-colorado-blvd,39.66641697071331,-104.93988694049278,Colorado
10,3600 W 32nd Ave,Denver,CO,80211,(303) 964-3323,co/denver/3600-w-32nd-ave,39.76198306036484,-105.03484099047398,Colorado
4,371 E Alameda Ave,Denver,CO,80209,(303) 733-1331,co/denver/371-e-alameda-ave,39.71150569725132,-104.98309278771421,Colorado
3192,4490 Peoria St,Denver,CO,80239,(303) 307-1096,co/denver/4490-peoria-st,39.77767107318909,-104.84639511863828,Colorado
54,550 N Broadway,Denver,CO,80203,(303) 866-0725,co/denver/550-n-broadway,39.7254866850594,-104.98701717881352,Colorado
7,7350 E Hampden Ave,Denver,CO,80231,(303) 741-8980,co/denver/7350-e-hampden-ave,39.652405,-104.9032,Colorado
255,7400 E 29th Ave,Denver,CO,80238,(303) 316-0469,co/denver/7400-e-29th-ave,39.75785136019702,-104.9015615788361,Colorado
2,745 Colorado Blvd,Denver,CO,80206,(303) 333-2121,co/denver/745-colorado-blvd,39.728314327154855,-104.94099338871558,Colorado
1430,8100 W Crestline Ave,Denver,CO,80123,(303) 501-1101,co/denver/8100-w-crestline-ave,39.61705408300559,-105.08843587055225,Colorado
32,820 S Monaco Pkwy,Denver,CO,80224,(303) 316-9466,co/denver/820-s-monaco-pkwy,39.70179929627504,-104.9124563696248,Colorado
1095,2120 E Harmony Rd,Fort Collins,CO,80528,(970) 530-3200,co/fort-collins/2120-e-harmony-rd,40.523776961622914,-105.03682653305447,Colorado
250,649 S College Ave,Fort Collins,CO,80525,(970) 407-1446,co/fort-collins/649-s-college-ave,40.578301318114626,-105.07743296562819,Colorado
1528,6570 S Yosemite St,Greenwood Village,CO,80111,(303) 488-2002,co/greenwood-village/6570-s-yosemite-st,39.596838857288965,-104.8880827712095,Colorado
599,8000 E Belleview Ave,Greenwood Village,CO,80111,(303) 694-3094,co/greenwood-village/8000-e-belleview-ave,39.62380733189591,-104.89612552316734,Colorado
755,2209 W Wildcat Reserve Pkwy,Highlands Ranch,CO,80129,(303) 470-6300,co/highlands-ranch/2209-w-wildcat-reserve-pkwy,39.53738519289787,-105.0139625172859,Colorado
3376,9579 S University Blvd,Highlands Ranch,CO,80126,(720) 961-7866,co/highlands-ranch/9579-s-university-blvd,39.54162550907136,-104.94083181759328,Colorado
503,14255 W Colfax Ave,Lakewood,CO,80401,(303) 278-0991,co/lakewood/14255-w-colfax-ave,39.73410047023791,-105.15997528857099,Colorado
896,145 Union Blvd,Lakewood,CO,80228,(303) 989-5161,co/lakewood/145-union-blvd,39.71746050491897,-105.1336252505962,Colorado
644,3170 S Wadsworth Blvd,Lakewood,CO,80227,(303) 986-4424,co/lakewood/3170-s-wadsworth-blvd,39.660728354367535,-105.080897562583,Colorado
68,355 S Wadsworth Blvd,Lakewood,CO,80226,(720) 963-0999,co/lakewood/355-s-wadsworth-blvd,39.7102963661781,-105.08214599999997,Colorado
766,7355 W Colfax Ave,Lakewood,CO,80214,(303) 274-1131,co/lakewood/7355-w-colfax-ave,39.740561096559325,-105.07830536467429,Colorado
71,12512 W Ken Caryl Ave,Littleton,CO,80127,(720) 981-7023,co/littleton/12512-w-ken-caryl-ave,39.58031768885037,-105.13499231987998,Colorado
970,5699 S Broadway,Littleton,CO,80121,(303) 794-3437,co/littleton/5699-s-broadway,39.61343789917304,-104.9883932901783,Colorado
189,7515 S University Blvd,Littleton,CO,80122,(303) 797-7001,co/littleton/7515-s-university-blvd,39.580206500000024,-104.96132583374691,Colorado
2666,8501 W Bowles Ave,Littleton,CO,80123,(303) 973-3401,co/littleton/8501-w-bowles-ave,39.61175897727098,-105.0967189557814,Colorado
2555,8515 Park Meadows Center Dr,Lone Tree,CO,80124,(303) 790-6029,co/lone-tree/8515-park-meadows-center-dr,39.56278728224383,-104.87575617480256,Colorado
143,9500 Heritage Hills Cir,Lone Tree,CO,80124,(303) 792-0611,co/lone-tree/9500-heritage-hills-cir,39.53712395324733,-104.87947276119417,Colorado
13,1100 Ken Pratt Blvd,Longmont,CO,80501,(303) 651-6763,co/longmont/1100-ken-pratt-blvd,40.152831349490235,-105.11109899938833,Colorado
650,1708 Main Street,Longmont,CO,80501,(303) 485-6369,co/longmont/1708-main-street,40.189207,-105.101803,Colorado
822,1421 W Eisenhower Blvd,Loveland,CO,80537,(970) 635-0099,co/loveland/1421-w-eisenhower-blvd,40.407525881391514,-105.09786383988114,Colorado
780,1569 Fall River Dr,Loveland,CO,80538,(970) 461-8900,co/loveland/1569-fall-river-dr,40.40855831435636,-105.00775054198982,Colorado
3592,18400 Cottonwood Dr,Parker,CO,80138,(720) 398-6372,co/parker/18400-cottonwood-dr,39.557209943267296,-104.77792741676375,Colorado
59,18701 E Mainstreet,Parker,CO,80134,(720) 851-5050,co/parker/18701-e-mainstreet,39.51869503455084,-104.77040223558197,Colorado
712,815 Thornton Pkwy,Thornton,CO,80229,(303) 452-2722,co/thornton/815-thornton-pkwy,39.871176873235825,-104.97624578605593,Colorado
264,951 E 120th Ave,Thornton,CO,80233,(720) 929-0499,co/thornton/951-e-120th-ave,39.91436710001901,-104.97505228674999,Colorado
3245,14452 Orchard Pkwy,Westminster,CO,80023,(303) 451-9591,co/westminster/14452-orchard-pkwy,39.958954184802,-104.99278568917153,Colorado
581,5160 W 120th Ave.,Westminster,CO,80020,(720) 887-3646,co/westminster/5160-w-120th-ave,39.912141,-105.051381,Colorado
3257,7303 Federal Blvd,Westminster,CO,80030,(303) 872-5023,co/westminster/7303-federal-blvd,39.82858463959826,-105.02545559751232,Colorado
2730,115 Mill Plain Rd,Danbury,CT,06811,(203) 730-2220,ct/danbury/115-mill-plain-rd,41.392482182817886,-73.52250704264242,Connecticut
1933,7 Backus Ave,Danbury,CT,06810,(203) 730-2989,ct/danbury/7-backus-ave,41.380326,-73.47943,Connecticut
3582,81 Newtown Rd,Danbury,CT,06810,(475) 529-2112,ct/danbury/81-newtown-rd,41.409697,-73.41132,Connecticut
1424,71 Post Rd,Darien,CT,06820,(203) 662-9228,ct/darien/71-post-rd,41.09095263406827,-73.45564055398461,Connecticut
2444,I-95 Darien Nb Service Plaza,Darien,CT,06820,(203) 309-5714,ct/darien/i-95-darien-nb-service-plaza,41.0806742,-73.4614135,Connecticut
1763,1457 New Britain Ave,West Hartford,CT,06110,(860) 521-0479,ct/west-hartford/1457-new-britain-ave,41.72472959416484,-72.75709768217337,Connecticut
1421,966 Farmington Ave,West Hartford,CT,06107,(860) 586-8281,ct/west-hartford/966-farmington-ave,41.76188938686709,-72.74307215985726,Connecticut
2497,132 Christiana Mall,Newark,DE,19702,(302) 731-3037,de/newark/132-christiana-mall,39.677884,-75.652284,Delaware
1540,136 E Main St,Newark,DE,19711,(302) 861-8002,de/newark/136-e-main-st,39.68377823512398,-75.74772734634695,Delaware
3234,60 Geoffrey Dr,Newark,DE,19713,(302) 366-1296,de/newark/60-geoffrey-dr,39.68769436463868,-75.65275170915139,Delaware
3425,2209 Concord Pike,Wilmington,DE,19803,(302) 304-8343,de/wilmington/2209-concord-pike,39.7909214,-75.5458742,Delaware
2699,3700 Kirkwood Hwy,Wilmington,DE,19808,(302) 994-1069,de/wilmington/3700-kirkwood-hwy,39.73293717615314,-75.63955922368905,Delaware
,1215 W Orange Blossom Trl,Apopka,FL,32712,(689) 336-0006,fl/apopka/1215-w-orange-blossom-trl,28.68558985179515,-81.5325605926077,Florida
1883,2201 E Semoran Blvd,Apopka,FL,32703,(407) 814-1207,fl/apopka/2201-e-semoran-blvd,28.673551495033866,-81.46992335735763,Florida
1787,1666 N Federal Hwy,Boca Raton,FL,33432,(561) 206-0830,fl/boca-raton/1666-n-federal-hwy,26.365541610858394,-80.07898699171113,Florida
721,2301 Glades Rd,Boca Raton,FL,33431,(561) 443-5540,fl/boca-raton/2301-glades-rd,26.368827400578603,-80.1280500709588,Florida
2861,5560 N Military Trl,Boca Raton,FL,33496,(561) 995-0924,fl/boca-raton/5560-n-military-trl,26.40076753815862,-80.12042140434681,Florida
1689,7028 W Palmetto Park Rd,Boca Raton,FL,33433,(561) 206-0144,fl/boca-raton/7028-w-palmetto-park-rd,26.349511355304283,-80.15744495676324,Florida
1379,9930 Glades Rd,Boca Raton,FL,33434,(561) 477-8340,fl/boca-raton/9930-glades-rd,26.365986740276462,-80.20235730857033,Florida
3497,1620 S Federal Hwy,Boynton Beach,FL,33435,(561) 200-1013,fl/boynton-beach/1620-s-federal-hwy,26.513674959588972,-80.05878217288577,Florida
802,1780 N Congress Ave,Boynton Beach,FL,33426,(561) 732-2282,fl/boynton-beach/1780-n-congress-ave,26.54267599540657,-80.09020997864808,Florida
3059,8790 Boynton Beach Blvd,Boynton Beach,FL,33472,(561) 739-9871,fl/boynton-beach/8790-boynton-beach-blvd,26.5272244006721,-80.18612640244675,Florida
2198,103 Brandon Town Center Dr,Brandon,FL,33511,(813) 330-3001,fl/brandon/103-brandon-town-center-dr,27.938747769594823,-82.32362885613423,Florida
4133,11137 Causeway Blvd,Brandon,FL,33511,(656) 347-2440,fl/brandon/11137-causeway-blvd,27.922678,-82.32433809999999,Florida
2058,459 Brandon Town Center Mall,Brandon,FL,33511,(813) 689-6816,fl/brandon/459-brandon-town-center-mall,27.938755258308017,-82.32362453599272,Florida
1626,829 E Bloomingdale Ave,Brandon,FL,33511,(813) 423-6384,fl/brandon/829-e-bloomingdale-ave,27.89315296173319,-82.27232598834325,Florida
3060,2060 NE Pine Island Rd,Cape Coral,FL,33909,(239) 424-6451,fl/cape-coral/2060-ne-pine-island-rd,26.672886267256903,-81.92853450273395,Florida
2910,2207 Del Prado Blvd S,Cape Coral,FL,33990,(239) 458-3944,fl/cape-coral/2207-del-prado-blvd-s,26.610982702781204,-81.94054500320021,Florida
1328,2537 Countryside Blvd,Clearwater,FL,33761,(727) 230-0780,fl/clearwater/2537-countryside-blvd,28.014677340939595,-82.73444402941567,Florida
762,2662 Gulf To Bay Blvd,Clearwater,FL,33759,(727) 724-1768,fl/clearwater/2662-gulf-to-bay-blvd,27.961145358138484,-82.72752726149133,Florida
2801,5360 East Bay Drive,Clearwater,FL,33764,(727) 507-0041,fl/clearwater/5360-east-bay-drive,27.916835974551216,-82.73144484171621,Florida
1143,1495 E Hwy 50,Clermont,FL,34711,(352) 394-0175,fl/clermont/1495-e-hwy-50,28.545698702412185,-81.73009849431196,Florida
3604,610 Cagan View Rd,Clermont,FL,34714,(352) 227-1245,fl/clermont/610-cagan-view-rd,28.353095,-81.67527167,Florida
678,1775 N University Dr,Coral Springs,FL,33071,(954) 341-0821,fl/coral-springs/1775-n-university-dr,26.252865595198625,-80.25231916791012,Florida
1410,4220 N State Road 7,Coral Springs,FL,33073,(954) 960-4000,fl/coral-springs/4220-n-state-road-7,26.28354967969935,-80.20268216026798,Florida
2996,4600 N University Dr,Coral Springs,FL,33067,(954) 575-4174,fl/coral-springs/4600-n-university-dr,26.287371601249518,-80.25113432945467,Florida
3466,1091 Posner Blvd,Davenport,FL,33837,(863) 588-0448,fl/davenport/1091-posner-blvd,28.2266204,-81.6435554,Florida
,2116 Triglia Way,Davenport,FL,33896,(863) 758-4041,fl/davenport/2116-triglia-way,28.258987465107488,-81.59820141425219,Florida
1701,2110 S University Dr,Davie,FL,33324,(954) 400-7464,fl/davie/2110-s-university-dr,26.09429379209461,-80.2503511410495,Florida
2671,5796 South University Dr,Davie,FL,33328,(954) 689-0559,fl/davie/5796-south-university-dr,26.047042315061336,-80.2510542978095,Florida
3241,1425 Cornerstone Blvd,Daytona Beach,FL,32117,(386) 274-4726,fl/daytona-beach/1425-cornerstone-blvd,29.218879255286186,-81.09709381165675,Florida
783,2400 W International Speedway Blvd,Daytona Beach,FL,32114,(386) 252-6011,fl/daytona-beach/2400-w-international-speedway-blvd,29.182064012738767,-81.0814084478095,Florida
,3311 W Hillsboro Blvd,Deerfield Beach,FL,33442,(754) 305-0881,fl/deerfield-beach/3311-w-hillsboro-blvd,26.318445294570278,-80.14832948344407,Florida
2266,777 S Federal Hwy,Deerfield Beach,FL,33441,(954) 281-5643,fl/deerfield-beach/777-s-federal-hwy,26.30708740220849,-80.09320808252357,Florida
2992,4789 W Atlantic Ave,Delray Beach,FL,33445,(561) 666-1003,fl/delray-beach/4789-w-atlantic-ave,26.4582441,-80.1201125,Florida
1217,520 Linton Blvd,Delray Beach,FL,33444,(561) 276-2093,fl/delray-beach/520-linton-blvd,26.43919398983961,-80.07845578886025,Florida
2489,2000 NW 87th Ave,Doral,FL,33172,(786) 464-1551,fl/doral/2000-nw-87th-ave,25.7934463,-80.3375674,Florida
3749,5875 NW 105th Ct,Doral,FL,33178,(786) 361-1243,fl/doral/5875-nw-105th-ct,25.82647602189912,-80.36821689508913,Florida
1912,1515 SE 17th St,Fort Lauderdale,FL,33316,(954) 400-7493,fl/fort-lauderdale/1515-se-17th-st,26.10086495855604,-80.12665735988514,Florida
1502,1736 N Federal Hwy,Fort Lauderdale,FL,33305,(954) 400-5028,fl/fort-lauderdale/1736-n-federal-hwy,26.150564531527802,-80.11888650267343,Florida
3158,2610 W Broward Blvd,Fort Lauderdale,FL,33312,(954) 583-8336,fl/fort-lauderdale/2610-w-broward-blvd,26.121287762235482,-80.17647565884374,Florida
1860,4850 N Federal Hwy,Fort Lauderdale,FL,33308,(954) 400-7485,fl/fort-lauderdale/4850-n-federal-hwy,26.18776079655633,-80.11555793005942,Florida
2219,10010 University Plaza Drive,Fort Myers,FL,33913,(239) 437-5719,fl/fort-myers/10010-university-plaza-drive,26.491833852496008,-81.78677409014574,Florida
2285,12635 S Cleveland Ave,Fort Myers,FL,33907,(239) 204-5244,fl/fort-myers/12635-s-cleveland-ave,26.55869732673191,-81.8711361070105,Florida
2698,8061 Dani Dr,Fort Myers,FL,33966,(239) 275-4076,fl/fort-myers/8061-dani-dr,26.608337734485225,-81.81053723002685,Florida
486,1432 W University Ave,Gainesville,FL,32603,(352) 372-5330,fl/gainesville/1432-w-university-ave,29.652292261963808,-82.34149667607767,Florida
2735,2225 NW 13th St,Gainesville,FL,32609,(352) 378-7751,fl/gainesville/2225-nw-13th-st,29.67364120397084,-82.33867029289968,Florida
793,3841 SW Archer Rd,Gainesville,FL,32608,(352) 371-9396,fl/gainesville/3841-sw-archer-rd,29.619406292195045,-82.38130672684525,Florida
1404,18461 NW 67th Ave,Hialeah,FL,33015,(305) 558-4282,fl/hialeah/18461-nw-67th-ave,25.941268349053956,-80.30643628822202,Florida
1290,405 W 49th St,Hialeah,FL,33012,(305) 512-4114,fl/hialeah/405-w-49th-st,25.867040082258224,-80.29198155088527,Florida
3033,7925 Hialeah Gardens Blvd,Hialeah,FL,33018,(305) 982-8050,fl/hialeah/7925-hialeah-gardens-blvd,25.89481690606795,-80.35074015027618,Florida
1181,11113 San Jose Blvd,Jacksonville,FL,32223,(904) 268-2342,fl/jacksonville/11113-san-jose-blvd,30.173556268870147,-81.62783786026853,Florida
,11919 Atlantic Blvd,Jacksonville,FL,32225,(904) 893-4518,fl/jacksonville/11919-atlantic-blvd,30.3216706,-81.4954745,Florida
2547,13546 Beach Blvd,Jacksonville,FL,32224,(904) 992-4255,fl/jacksonville/13546-beach-blvd,30.28711282555381,-81.46036844536275,Florida
2644,13920 Old Saint Augustine Rd,Jacksonville,FL,32258,(904) 886-9554,fl/jacksonville/13920-old-saint-augustine-rd,30.14131050942163,-81.54639779028463,Florida
,3860 University Blvd W,Jacksonville,FL,32217,(904) 638-4475,fl/jacksonville/3860-university-blvd-w,30.262910492009855,-81.62294869386577,Florida
3654,4495 Roosevelt Blvd,Jacksonville,FL,32210,(904) 650-2191,fl/jacksonville/4495-roosevelt-blvd,30.280609135302186,-81.71787517348018,Florida
1177,4865 Town Center Pkwy,Jacksonville,FL,32246,(904) 997-0481,fl/jacksonville/4865-town-center-pkwy,30.254542390056276,-81.5327619073576,Florida
3320,50 Riverside Ave,Jacksonville,FL,32202,(904) 549-6143,fl/jacksonville/50-riverside-ave,30.323941585931433,-81.67060457614869,Florida
,5801 Beach Blvd,Jacksonville,FL,32207,(904) 750-6166,fl/jacksonville/5801-beach-blvd,30.293667736179632,-81.6040481760748,Florida
1992,790 Skymarks Dr,Jacksonville,FL,32218,(904) 757-3900,fl/jacksonville/790-skymarks-dr,30.481429584970787,-81.63747585920999,Florida
995,8635 Blanding Blvd,Jacksonville,FL,32244,(904) 772-1322,fl/jacksonville/8635-blanding-blvd,30.19383572515759,-81.73844718811141,Florida
,9172 Baymeadows Rd,Jacksonville,FL,32256,(904) 750-3506,fl/jacksonville/9172-baymeadows-rd,30.220471,-81.567803,Florida
3152,9395 Atlantic Blvd,Jacksonville,FL,32225,(904) 721-5658,fl/jacksonville/9395-atlantic-blvd,30.319365276105458,-81.55489914239513,Florida
3393,9671 Argyle Forest Blvd,Jacksonville,FL,32222,(904) 337-3232,fl/jacksonville/9671-argyle-forest-blvd,30.1963032,-81.8299588,Florida
727,3254 N John Young Pkwy,Kissimmee,FL,34741,(407) 846-3364,fl/kissimmee/3254-n-john-young-pkwy,28.345580340826608,-81.42075173497028,Florida
3203,3275 Vineland Rd,Kissimmee,FL,34746,(407) 465-0749,fl/kissimmee/3275-vineland-rd,28.346394012130798,-81.48621927020517,Florida
,4390 W Vine St.,Kissimmee,FL,34746,(689) 215-5494,fl/kissimmee/4390-w-vine-st,28.3028332,-81.4569878,Florida
,4450 Pleasant Hill Rd,Kissimmee,FL,34746,(407) 818-1147,fl/kissimmee/4450-pleasant-hill-rd,28.15690633237268,-81.44062779068582,Florida
2546,6210 W Irlo Bronson Memorial Hwy,Kissimmee,FL,34747,(321) 939-2059,fl/kissimmee/6210-w-irlo-bronson-memorial-hwy,28.3321649,-81.5327309,Florida
3471,8124 W Irlo Bronson Hwy,Kissimmee,FL,34747,(407) 329-4336,fl/kissimmee/8124-w-irlo-bronson-hwy,28.3464523,-81.61128479999999,Florida
,4400 Hypoluxo Rd,Lake Worth,FL,33462,(561) 621-1733,fl/lake-worth/4400-hypoluxo-rd,26.571463,-80.112041,Florida
1914,6177 S Jog Rd,Lake Worth,FL,33467,(561) 246-3080,fl/lake-worth/6177-s-jog-rd,26.58757239392207,-80.14721898800096,Florida
,8746 Lake Worth Rd,Lake Worth,FL,33467,(561) 249-8103,fl/lake-worth/8746-lake-worth-rd,26.616484908120103,-80.18448790794852,Florida
1499,3434 S Florida Ave,Lakeland,FL,33803,(863) 248-4371,fl/lakeland/3434-s-florida-ave,28.001671375003713,-81.95652422280466,Florida
2448,4204 US Hwy 98 N,Lakeland,FL,33809,(863) 858-6231,fl/lakeland/4204-us-hwy-98-n,28.0958373,-81.9746955,Florida
1839,1563 W New Haven Ave,Melbourne,FL,32904,(321) 729-6211,fl/melbourne/1563-w-new-haven-ave,28.078395002133185,-80.64752089079002,Florida
2052,2322 Harnett Dr,Melbourne,FL,32940,(321) 639-1830,fl/melbourne/2322-harnett-dr,28.23914143969696,-80.72848018019351,Florida
,4999 N Wickham Rd,Melbourne,FL,32940,(321) 241-0398,fl/melbourne/4999-n-wickham-rd,28.18990817924318,-80.67131369386576,Florida
2306,10141 W Flagler St,Miami,FL,33174,(305) 554-8674,fl/miami/10141-w-flagler-st,25.7692416,-80.3598109,Florida
3232,10600 N Kendall Dr,Miami,FL,33176,(786) 361-1296,fl/miami/10600-n-kendall-dr,25.685885962852748,-80.36439778566466,Florida
3087,110 NW 42nd Ave,Miami,FL,33126,(786) 361-1258,fl/miami/110-nw-42nd-ave,25.772722828477573,-80.26397222787813,Florida
914,13612 SW 88th St,Miami,FL,33186,(305) 408-6557,fl/miami/13612-sw-88th-st,25.68454606063215,-80.41519647462161,Florida
3631,14401 SW 42nd St,Miami,FL,33175,(786) 361-1260,fl/miami/14401-sw-42nd-st,25.72909684050795,-80.42799722019681,Florida
3169,15221 SW 127th Ave,Miami,FL,33177,(786) 250-0004,fl/miami/15221-sw-127th-ave,25.626513880287373,-80.39458256166245,Florida
3383,1700 NW 117th Pl,Miami,FL,33182,(786) 361-1284,fl/miami/1700-nw-117th-pl,25.7897971,-80.3870259,Florida
3269,19565 Biscayne Blvd,Miami,FL,33180,(305) 931-8583,fl/miami/19565-biscayne-blvd,25.9572124333516,-80.14331039800255,Florida
2707,2200 SW 87th Ave,Miami,FL,33165,(305) 221-5563,fl/miami/2200-sw-87th-ave,25.749186841696304,-80.33610395455389,Florida
1918,2235 SW 37th Ave,Miami,FL,33145,(786) 441-2385,fl/miami/2235-sw-37th-ave,25.74931218650068,-80.25426375305847,Florida
,3201 N Miami Ave,Miami,FL,33127,(786) 361-1265,fl/miami/3201-n-miami-ave,25.80792766479572,-80.1949852194767,Florida
3462,5600 Waterford District Dr,Miami,FL,33126,(786) 361-1024,fl/miami/5600-waterford-district-dr,25.78133636523049,-80.28795692372597,Florida
3034,7230 NW 36th St,Miami,FL,33166,(305) 591-2742,fl/miami/7230-nw-36th-st,25.80882356127241,-80.31533221824446,Florida
3510,891 South Miami Avenue,Miami,FL,33130,(786) 361-1540,fl/miami/891-south-miami-avenue,25.76532373454779,-80.19307918497597,Florida
,12581 Miramar Pkwy,Miramar,FL,33027,(754) 764-6496,fl/miramar/12581-miramar-pkwy,25.9790774,-80.3136846,Florida
2417,3231 SW 160th Ave,Miramar,FL,33027,(954) 437-2591,fl/miramar/3231-sw-160th-ave,25.98021333798026,-80.35695227086677,Florida
2722,2085 Tamiami Trl N,Naples,FL,34102,(239) 732-0033,fl/naples/2085-tamiami-trl-n,26.172190655212642,-81.8008488074099,Florida
2860,6821 Collier Blvd,Naples,FL,34114,(239) 530-3199,fl/naples/6821-collier-blvd,26.065699206437515,-81.69863948548627,Florida
1577,9100 Strada Pl,Naples,FL,34108,(239) 254-1292,fl/naples/9100-strada-pl,26.2540150779146,-81.80010959109882,Florida
1971,2645 SW College Rd,Ocala,FL,34471,(352) 237-3553,fl/ocala/2645-sw-college-rd,29.16710004882106,-82.16838951135895,Florida
4313,4916 E Silver Springs Blvd,Ocala,FL,34470,(352) 619-2668,fl/ocala/4916-e-silver-springs-blvd,29.209181337764026,-82.06718569503086,Florida
,1607 County Road 220,Orange Park,FL,32003,(904) 637-4968,fl/orange-park/1607-county-road-220,30.10167581328345,-81.71549077000228,Florida
,876 Blanding Blvd,Orange Park,FL,32065,(904) 579-7081,fl/orange-park/876-blanding-blvd,30.1425097,-81.76660439999999,Florida
,11291 E Colonial Dr,Orlando,FL,32817,(407) 434-0760,fl/orlando/11291-e-colonial-dr,28.568491,-81.216386,Florida
3286,11513 Regency Village Dr,Orlando,FL,32821,(321) 677-0187,fl/orlando/11513-regency-village-dr,28.3933146,-81.4864466,Florida
457,11680 University Blvd,Orlando,FL,32817,(321) 235-3323,fl/orlando/11680-university-blvd,28.59717445040509,-81.21645094811504,Florida
2870,12278 Narcoossee Rd,Orlando,FL,32832,(407) 313-2375,fl/orlando/12278-narcoossee-rd,28.38689282654763,-81.24501851719663,Florida
2353,12648 S Orange Blossom Trl,Orlando,FL,32837,(407) 251-9858,fl/orlando/12648-s-orange-blossom-trl,28.38128403447653,-81.40509368191186,Florida
,13935 Landstar Blvd,Orlando,FL,32824,(689) 500-4165,fl/orlando/13935-landstar-blvd,28.3640942,-81.3652098,Florida
675,1700 Sand Lake Rd,Orlando,FL,32809,(407) 857-6775,fl/orlando/1700-sand-lake-rd,28.449446526251123,-81.401904434197,Florida
647,2211 S Orange Ave,Orlando,FL,32806,(407) 841-5656,fl/orlando/2211-s-orange-ave,28.51678229370115,-81.37613156258294,Florida
3157,2610 S Semoran Blvd,Orlando,FL,32822,(407) 207-4694,fl/orlando/2610-s-semoran-blvd,28.514208097751705,-81.31064161049198,Florida
570,2850 S Kirkman Rd,Orlando,FL,32811,(407) 532-8808,fl/orlando/2850-s-kirkman-rd,28.51208482493836,-81.4597723001491,Florida
442,2903 E Colonial Dr,Orlando,FL,32803,(407) 228-9514,fl/orlando/2903-e-colonial-dr,28.553566990264947,-81.34702351810552,Florida
1870,4200 Conroy Rd,Orlando,FL,32839,(321) 400-6563,fl/orlando/4200-conroy-rd,28.485121590250447,-81.43154115211485,Florida
821,464 N Alafaya Trl,Orlando,FL,32828,(407) 208-0778,fl/orlando/464-n-alafaya-trl,28.553518098388547,-81.2065740899765,Florida
2897,4724 Millenia Plaza Way,Orlando,FL,32839,(407) 345-9145,fl/orlando/4724-millenia-plaza-way,28.4929464,-81.428552,Florida
844,6607 S Semoran Blvd,Orlando,FL,32822,(407) 855-9719,fl/orlando/6607-s-semoran-blvd,28.46763233493153,-81.3085262453863,Florida
,7091 Narcoossee Rd,Orlando,FL,32822,(407) 664-1131,fl/orlando/7091-narcoossee-rd,28.4602429,-81.27154,Florida
1289,7800 Dr Phillips Blvd,Orlando,FL,32819,(407) 352-0198,fl/orlando/7800-dr-phillips-blvd,28.450598116327527,-81.48896473246526,Florida
2745,9202 Jeff Fuqua Blvd,Orlando,FL,32827,(407) 856-0651,fl/orlando/9202-jeff-fuqua-blvd,28.435468,-81.301371,Florida
3685,11608 US Highway 1,Palm Beach Gardens,FL,33408,(561) 249-8093,fl/palm-beach-gardens/11608-us-highway-1,26.84643482063769,-80.0600246326553,Florida
1871,3101 Pga Blvd,Palm Beach Gardens,FL,33410,(561) 293-7401,fl/palm-beach-gardens/3101-pga-blvd,26.849052997933818,-80.08514718399839,Florida
,3539 Northlake Blvd,Palm Beach Gardens,FL,33403,(561) 249-8102,fl/palm-beach-gardens/3539-northlake-blvd,26.809085096928786,-80.09046670280937,Florida
1565,4655 Pga Blvd,Palm Beach Gardens,FL,33418,(561) 246-3874,fl/palm-beach-gardens/4655-pga-blvd,26.8387669503795,-80.10890162055227,Florida
3189,5240 Donald Ross Rd,Palm Beach Gardens,FL,33418,(561) 249-8100,fl/palm-beach-gardens/5240-donald-ross-rd,26.882546815918126,-80.11550597019061,Florida
1032,11041 Pines Blvd,Pembroke Pines,FL,33026,(954) 437-7824,fl/pembroke-pines/11041-pines-blvd,26.00845191536144,-80.29500487577764,Florida
985,15880 Pines Blvd,Pembroke Pines,FL,33027,(954) 433-9918,fl/pembroke-pines/15880-pines-blvd,26.00678298241768,-80.35630208374687,Florida
3610,1674 E Nine Mile Rd,Pensacola,FL,32514,(850) 417-8892,fl/pensacola/1674-e-nine-mile-rd,30.5331001074582,-87.22756728895493,Florida
3668,5100 N 9th Ave,Pensacola,FL,32504,(850) 760-0558,fl/pensacola/5100-n-9th-ave,30.47532506503362,-87.2075014343586,Florida
924,129 NW 136th Ave,Plantation,FL,33325,(954) 858-1961,fl/plantation/129-nw-136th-ave,26.12151288234434,-80.33068840393469,Florida
2916,1760 N University Dr,Plantation,FL,33322,(954) 475-9716,fl/plantation/1760-n-university-dr,26.147295725467927,-80.25632761030568,Florida
1041,1418 66th St N,Saint Petersburg,FL,33710,(727) 344-3946,fl/saint-petersburg/1418-66th-st-n,27.78555672481624,-82.72892201989964,Florida
2734,3540 4th St N,Saint Petersburg,FL,33704,(727) 525-6247,fl/saint-petersburg/3540-4th-st-n,27.804670053176856,-82.63883005352375,Florida
731,780 4th St N,Saint Petersburg,FL,33701,(727) 895-6050,fl/saint-petersburg/780-4th-st-n,27.780081704177878,-82.63874342607483,Florida
2276,1805 Wp Ball Blvd,Sanford,FL,32771,(321) 275-4164,fl/sanford/1805-wp-ball-blvd,28.800081390859006,-81.33360532729819,Florida
4152,3715 S Orlando Dr,Sanford,FL,32773,(689) 300-5977,fl/sanford/3715-s-orlando-dr,28.76127056463143,-81.28432676747644,Florida
1040,1707 S Tamiami Trl,Sarasota,FL,34239,(941) 957-6406,fl/sarasota/1707-s-tamiami-trl,27.318112561862968,-82.52936948450287,Florida
2946,5354 Fruitville Rd,Sarasota,FL,34232,(941) 341-9728,fl/sarasota/5354-fruitville-rd,27.337183652426887,-82.46329472015832,Florida
1375,97 N Cattlemen Rd,Sarasota,FL,34243,(941) 359-6757,fl/sarasota/97-n-cattlemen-rd,27.387687815869644,-82.45813989871294,Florida
1564,2181 SE Federal Hwy,Stuart,FL,34994,(772) 220-0116,fl/stuart/2181-se-federal-hwy,27.177970512677273,-80.23606648050571,Florida
2352,2421 NW Federal Hwy,Stuart,FL,34994,(772) 692-0889,fl/stuart/2421-nw-federal-hwy,27.234784718273794,-80.26763416845245,Florida
1535,1498 Apalachee Pkwy,Tallahassee,FL,32301,(850) 254-9992,fl/tallahassee/1498-apalachee-pkwy,30.436125137414347,-84.25839439999999,Florida
1534,1801 W Tennessee St,Tallahassee,FL,32304,(850) 254-9986,fl/tallahassee/1801-w-tennessee-st,30.448789683802726,-84.31106364035315,Florida
2056,3425 Thomasville Rd,Tallahassee,FL,32308,(850) 894-3137,fl/tallahassee/3425-thomasville-rd,30.50443578421638,-84.24967576502968,Florida
3511,699 W Gaines St,Tallahassee,FL,32304,(850) 270-5161,fl/tallahassee/699-w-gaines-st,30.435230808238924,-84.29270531277308,Florida
813,12827 N Dale Mabry Hwy,Tampa,FL,33618,(813) 961-1444,fl/tampa/12827-n-dale-mabry-hwy,28.063586551480032,-82.50338113492035,Florida
2465,18019 Highwoods Preserve Pkwy,Tampa,FL,33647,(813) 977-1520,fl/tampa/18019-highwoods-preserve-pkwy,28.131285257510452,-82.36579343374694,Florida
2548,2011 N Dale Mabry Hwy,Tampa,FL,33607,(813) 877-4169,fl/tampa/2011-n-dale-mabry-hwy,27.960170100690004,-82.50500973341502,Florida
2170,2223 N West Shore Blvd,Tampa,FL,33607,(813) 422-5134,fl/tampa/2223-n-west-shore-blvd,27.96470755379821,-82.52085684014975,Florida
828,2576 E Fowler Ave,Tampa,FL,33612,(813) 971-4360,fl/tampa/2576-e-fowler-ave,28.05487327921455,-82.42981195716999,Florida
611,309 N West Shore Blvd,Tampa,FL,33609,(813) 289-9820,fl/tampa/309-n-west-shore-blvd,27.947462285445706,-82.52393460934178,Florida
2391,3696 W Gandy Blvd,Tampa,FL,33611,(813) 839-7030,fl/tampa/3696-w-gandy-blvd,27.89343930614048,-82.50586515828377,Florida
823,533 S Howard Ave,Tampa,FL,33606,(813) 254-6450,fl/tampa/533-s-howard-ave,27.939684494344494,-82.48338686437711,Florida
1494,7002 Gunn Hwy,Tampa,FL,33625,(813) 925-4408,fl/tampa/7002-gunn-hwy,28.06646553487602,-82.57050848675283,Florida
4089,8301 N Dale Mabry Hwy,Tampa,FL,33614,(813) 734-8066,fl/tampa/8301-n-dale-mabry-hwy,28.02390935232622,-82.50451272086761,Florida
3102,9466 W Linebaugh Ave,Tampa,FL,33626,(813) 920-0992,fl/tampa/9466-w-linebaugh-ave,28.043494251607253,-82.59037657410455,Florida
881,2380 Palm Beach Lakes Blvd,West Palm Beach,FL,33409,(561) 688-8951,fl/west-palm-beach/2380-palm-beach-lakes-blvd,26.708201,-80.098556,Florida
3523,7000 Okeechobee Blvd,West Palm Beach,FL,33411,(561) 249-8101,fl/west-palm-beach/7000-okeechobee-blvd,26.706639573007624,-80.15903045767212,Florida
3342,13599 W Colonial Dr,Winter Garden,FL,34787,(407) 395-3658,fl/winter-garden/13599-w-colonial-dr,28.55160152918486,-81.5853494019243,Florida
1136,3317 Daniels Rd,Winter Garden,FL,34787,(407) 654-4415,fl/winter-garden/3317-daniels-rd,28.520862925627803,-81.58684953378031,Florida
4106,1177 E State Road 434,Winter Springs,FL,32708,(689) 689-3021,fl/winter-springs/1177-e-state-road-434,28.697367670836048,-81.26376727972134,Florida
1259,5637 Red Bug Lake Rd,Winter Springs,FL,32708,(407) 695-0440,fl/winter-springs/5637-red-bug-lake-rd,28.6469345,-81.2700902,Florida
1906,10910 Haynes Bridge Rd,Alpharetta,GA,30022,(678) 893-0236,ga/alpharetta/10910-haynes-bridge-rd,34.05176246676509,-84.28630241563991,Georgia
,3900 Brookside Pkwy,Alpharetta,GA,30022,(470) 235-7321,ga/alpharetta/3900-brookside-pkwy,34.061468,-84.246382,Georgia
428,5250 Windward Pkwy,Alpharetta,GA,30004,(678) 867-9459,ga/alpharetta/5250-windward-pkwy,34.09082267722346,-84.27493030209013,Georgia
3284,1080 Peachtree St NE,Atlanta,GA,30309,(404) 665-0120,ga/atlanta/1080-peachtree-st-ne,33.783904317392796,-84.38381426251063,Georgia
1937,11700 Spine Rd.,Atlanta,GA,30320,(404) 481-2340,ga/atlanta/11700-spine-rd,33.64086196735966,-84.42928899766264,Georgia
667,123 Perimeter Ctr W,Atlanta,GA,30346,(770) 677-5542,ga/atlanta/123-perimeter-ctr-w,33.9278660829241,-84.34403443602827,Georgia
1760,1401 Oxford Rd NE,Atlanta,GA,30307,(404) 855-4990,ga/atlanta/1401-oxford-rd-ne,33.78863733648415,-84.32665965129746,Georgia
2106,1745 Peachtree St NE,Atlanta,GA,30309,(404) 481-2773,ga/atlanta/1745-peachtree-st-ne,33.80081505530346,-84.39220957729816,Georgia
1866,2020 Howell Mill Rd NW,Atlanta,GA,30318,(404) 937-5296,ga/atlanta/2020-howell-mill-rd-nw,33.8101168,-84.4130441,Georgia
1717,2078 Henderson Mill Rd NE,Atlanta,GA,30345,(678) 281-2072,ga/atlanta/2078-henderson-mill-rd-ne,33.845862658514974,-84.25600602883429,Georgia
4543,2571 Sidney Marcus Blvd NE,Atlanta,GA,30324,(470) 986-1153,ga/atlanta/2571-sidney-marcus-blvd-ne,33.825622,-84.3653154,Georgia
3595,2810 Paces Ferry Rd SE,Atlanta,GA,30339,(678) 275-2360,ga/atlanta/2810-paces-ferry-rd-se,33.86555528065659,-84.46936759487068,Georgia
485,2963 N Druid Hills Rd NE,Atlanta,GA,30329,(404) 929-9907,ga/atlanta/2963-n-druid-hills-rd-ne,33.81470652473796,-84.31016554752678,Georgia
576,2973 Cobb Pkwy SE,Atlanta,GA,30339,(770) 916-0788,ga/atlanta/2973-cobb-pkwy-se,33.88102857875902,-84.46140194291598,Georgia
2215,3393 Peachtree Rd,Atlanta,GA,30326,(404) 481-2467,ga/atlanta/3393-peachtree-rd,33.845309,-84.36136,Georgia
391,3424 Piedmont Rd NE,Atlanta,GA,30305,(404) 869-7921,ga/atlanta/3424-piedmont-rd-ne,33.84814155240244,-84.37417909201338,Georgia
2100,4400 Ashford Dunwoody Rd NE,Atlanta,GA,30346,(678) 317-0103,ga/atlanta/4400-ashford-dunwoody-rd-ne,33.923801014291904,-84.34114998377137,Georgia
2471,4600 Roswell Rd,Atlanta,GA,30342,(404) 257-1510,ga/atlanta/4600-roswell-rd,33.880831760821536,-84.3809583411045,Georgia
3145,540 17th St NW,Atlanta,GA,30318,(404) 872-6915,ga/atlanta/540-17th-st-nw,33.791027225178105,-84.40703749202919,Georgia
373,718 Ponce De Leon Ave NE,Atlanta,GA,30306,(404) 685-3531,ga/atlanta/718-ponce-de-leon-ave-ne,33.77392179723447,-84.36356532716769,Georgia
3590,2925 Buford Dr,Buford,GA,30519,(678) 288-2142,ga/buford/2925-buford-dr,34.0498845117949,-83.99184952461077,Georgia
932,3350 Buford Dr,Buford,GA,30519,(678) 482-4355,ga/buford/3350-buford-dr,34.0731190716733,-83.9848486165676,Georgia
2873,3201 Macon Rd,Columbus,GA,31906,(706) 561-3060,ga/columbus/3201-macon-rd,32.48287459988765,-84.94301721165674,Georgia
2108,5295 Whittlesey Blvd,Columbus,GA,31909,(706) 225-5773,ga/columbus/5295-whittlesey-blvd,32.54176918447279,-84.9503442909704,Georgia
2125,198 W Ponce De Leon Ave,Decatur,GA,30030,(404) 481-2778,ga/decatur/198-w-ponce-de-leon-ave,33.775353993630354,-84.29870058416805,Georgia
,2474 Wesley Chapel Rd,Decatur,GA,30035,(678) 502-7455,ga/decatur/2474-wesley-chapel-rd,33.71532207292566,-84.2151045,Georgia
459,11720 Medlock Bridge Rd,Duluth,GA,30097,(770) 623-1724,ga/duluth/11720-medlock-bridge-rd,34.06625161052994,-84.1699452439795,Georgia
379,2040 Pleasant Hill Rd,Duluth,GA,30096,(678) 584-0011,ga/duluth/2040-pleasant-hill-rd,33.95524015106256,-84.1310987699232,Georgia
2914,2190 Peachtree Industrial Blvd,Duluth,GA,30097,(770) 418-9120,ga/duluth/2190-peachtree-industrial-blvd,34.0214559846354,-84.12027296747647,Georgia
4194,1614 Mount Vernon Rd,Dunwoody,GA,30338,(470) 622-7327,ga/dunwoody/1614-mount-vernon-rd,33.9465408169999,-84.33386667055224,Georgia
,8753 Roswell Rd,Dunwoody,GA,30350,(470) 514-3530,ga/dunwoody/8753-roswell-rd,33.995693278542014,-84.35045425014997,Georgia
2607,1134 Dawsonville Hwy,Gainesville,GA,30501,(770) 287-0887,ga/gainesville/1134-dawsonville-hwy,34.3032822,-83.858686,Georgia
,604 White Sulphur Rd,Gainesville,GA,30501,(678) 707-7184,ga/gainesville/604-white-sulphur-rd,34.31535853864403,-83.7938320360034,Georgia
2706,777 Townpark Ln NW,Kennesaw,GA,30144,(770) 675-3993,ga/kennesaw/777-townpark-ln-nw,34.03541847770412,-84.57355248098565,Georgia
1972,954 Ernest W Barrett Pkwy NW,Kennesaw,GA,30144,(678) 279-7996,ga/kennesaw/954-ernest-w-barrett-pkwy-nw,34.00384741990944,-84.57924998900114,Georgia
,1475 Pleasant Hill Rd,Lawrenceville,GA,30044,(678) 502-7384,ga/lawrenceville/1475-pleasant-hill-rd,33.94073086057992,-84.12273104662705,Georgia
3289,4885 Sugarloaf Pkwy,Lawrenceville,GA,30044,(678) 985-1012,ga/lawrenceville/4885-sugarloaf-pkwy,33.95567904762974,-84.0551910046769,Georgia
909,860 Duluth Hwy,Lawrenceville,GA,30043,(678) 985-9290,ga/lawrenceville/860-duluth-hwy,33.9671011440112,-84.02245834910435,Georgia
1464,1281 Johnson Ferry Rd,Marietta,GA,30068,(678) 279-1604,ga/marietta/1281-johnson-ferry-rd,33.980022015632436,-84.4246115323565,Georgia
,2675 Windy Hill Rd SE,Marietta,GA,30067,(678) 275-2369,ga/marietta/2675-windy-hill-rd-se,33.901473,-84.47732910491085,Georgia
3378,3606 Sandy Plains Rd,Marietta,GA,30066,(678) 275-2039,ga/marietta/3606-sandy-plains-rd,34.037258,-84.461132,Georgia
,54 Cobb Pkwy N,Marietta,GA,30062,(470) 750-6654,ga/marietta/54-cobb-pkwy-n,33.95231403263795,-84.52075120403673,Georgia
1652,5175 Peachtree Pkwy,Norcross,GA,30092,(678) 281-1990,ga/norcross/5175-peachtree-pkwy,33.9801977742114,-84.21719131626006,Georgia
3210,5485 Jimmy Carter Blvd,Norcross,GA,30093,(770) 446-2432,ga/norcross/5485-jimmy-carter-blvd,33.90860537855734,-84.20569164719689,Georgia
,2120 Pooler Pkwy,Pooler,GA,31322,(912) 912-2566,ga/pooler/2120-pooler-pkwy,32.07882856428843,-81.28265431877384,Georgia
2389,6 Mill Creek Cir,Pooler,GA,31322,(912) 330-0675,ga/pooler/6-mill-creek-cir,32.140189191111766,-81.24343997702158,Georgia
2041,1801 E Victory Dr,Savannah,GA,31404,(912) 303-5870,ga/savannah/1801-e-victory-dr,32.043855769009234,-81.07206736043338,Georgia
2229,318 Mall Blvd,Savannah,GA,31406,(912) 335-3380,ga/savannah/318-mall-blvd,32.005302552023984,-81.11390031116984,Georgia
,1108 N Saint Augustine Rd,Valdosta,GA,31601,(229) 506-5213,ga/valdosta/1108-n-saint-augustine-rd,30.840475736533808,-83.32254104091434,Georgia
,3289 Inner Perimter Rd.,Valdosta,GA,31602,(229) 929-2988,ga/valdosta/3289-inner-perimter-rd,30.883397,-83.287184,Georgia
,2075 Towne Lake Pkwy,Woodstock,GA,30189,(678) 275-2366,ga/woodstock/2075-towne-lake-pkwy,34.109087298516805,-84.55277585153789,Georgia
3540,9480 Hwy 92,Woodstock,GA,30188,(678) 275-2293,ga/woodstock/9480-hwy-92,34.085881529215364,-84.52289025276082,Georgia
1624,205 N Milwaukee St,Boise,ID,83704,(208) 376-3433,id/boise/205-n-milwaukee-st,43.606686,-116.2823,Idaho
2259,305 S 6th St,Boise,ID,83702,(208) 901-3827,id/boise/305-s-6th-st,43.61266805437867,-116.20309363558198,Idaho
,702 E Boise Ave,Boise,ID,83706,(208) 509-4827,id/boise/702-e-boise-ave,43.5788477,-116.1740201,Idaho
2783,7610 W State Street,Boise,ID,83714,(208) 853-0853,id/boise/7610-w-state-street,43.67126092041141,-116.28303340613422,Idaho
,1323 W Chinden Blvd,Meridian,ID,83646,(208) 918-8810,id/meridian/1323-w-chinden-blvd,43.662327,-116.410146,Idaho
1997,2126 N Eagle Rd,Meridian,ID,83646,(208) 288-0595,id/meridian/2126-n-eagle-rd,43.62420794020334,-116.353922864418,Idaho
3468,1167 N Eola Rd,Aurora,IL,60502,(630) 405-7171,il/aurora/1167-n-eola-rd,41.780402,-88.2400918,Illinois
1462,1480 N Orchard Rd,Aurora,IL,60506,(630) 723-5004,il/aurora/1480-n-orchard-rd,41.78628300002481,-88.37625017790987,Illinois
1888,2902 Kirk Rd,Aurora,IL,60502,(630) 429-9437,il/aurora/2902-kirk-rd,41.813719219486686,-88.28039555276126,Illinois
624,848 N Route 59,Aurora,IL,60504,(630) 851-3271,il/aurora/848-n-route-59,41.76848482177453,-88.20634978693226,Illinois
2884,170 E Lake St,Bloomingdale,IL,60108,(630) 529-5128,il/bloomingdale/170-e-lake-st,41.957117193991756,-88.07361856258296,Illinois
4191,394 W Army Trail Rd,Bloomingdale,IL,60108,(224) 955-2142,il/bloomingdale/394-w-army-trail-rd,41.93874691450645,-88.11418875428255,Illinois
,256 S Weber Rd,Bolingbrook,IL,60490,(331) 273-3078,il/bolingbrook/256-s-weber-rd,41.691551669709554,-88.1238823437842,Illinois
3136,750 Janes Ave,Bolingbrook,IL,60440,(630) 312-8753,il/bolingbrook/750-janes-ave,41.72133805137166,-88.03794158895494,Illinois
771,528 E Green St,Champaign,IL,61820,(217) 344-0466,il/champaign/528-e-green-st,40.11042402624319,-88.23064214662702,Illinois
1837,903 W Anthony Dr,Champaign,IL,61821,(217) 398-0997,il/champaign/903-w-anthony-dr,40.13749109892263,-88.25864082861125,Illinois
88,10 E Jackson Blvd,Chicago,IL,60604,(312) 566-0308,il/chicago/10-e-jackson-blvd,41.87838824081532,-87.62723103553652,Illinois
711,10 S La Salle St,Chicago,IL,60603,(312) 977-0506,il/chicago/10-s-la-salle-st,41.8818629853979,-87.6327636533693,Illinois
413,1025 W Belmont Ave,Chicago,IL,60657,(773) 348-5388,il/chicago/1025-w-belmont-ave,41.93973087336189,-87.65514537055225,Illinois
3433,1027 W Addison St,Chicago,IL,60613,(872) 206-3389,il/chicago/1027-w-addison-st,41.9469614,-87.6554621,Illinois
4272,109 E Pearson St,Chicago,IL,60611,(312) 680-0911,il/chicago/109-e-pearson-st,41.89742360942377,-87.6254928164165,Illinois
1909,1132 S Clinton St,Chicago,IL,60607,(773) 453-3021,il/chicago/1132-s-clinton-st,41.868017973990106,-87.64108456869985,Illinois
3430,1142 S Wabash Ave,Chicago,IL,60605,(312) 635-9278,il/chicago/1142-s-wabash-ave,41.86782060020389,-87.62609926489266,Illinois
156,1166 N State St,Chicago,IL,60610,(312) 654-8637,il/chicago/1166-n-state-st,41.9037469498126,-87.62887866625306,Illinois
1979,1522 E 53rd St,Chicago,IL,60615,(773) 347-0008,il/chicago/1522-e-53rd-st,41.79976414052167,-87.58806003497028,Illinois
,160 E Huron St,Chicago,IL,60611,(312) 324-0290,il/chicago/160-e-huron-st,41.8950843,-87.6230933,Illinois
,1611 N Western Ave,Chicago,IL,60647,(872) 327-9007,il/chicago/1611-n-western-ave,41.910493508316556,-87.68645267664556,Illinois
505,1733 N Damen Ave,Chicago,IL,60647,(773) 772-5713,il/chicago/1733-n-damen-ave,41.913297970392065,-87.67733037205755,Illinois
42,2000 N Clybourn Ave,Chicago,IL,60614,(773) 935-5710,il/chicago/2000-n-clybourn-ave,41.91771716156459,-87.66007601210151,Illinois
1401,210 W North Ave,Chicago,IL,60610,(312) 379-0536,il/chicago/210-w-north-ave,41.911403227125746,-87.63506934259453,Illinois
655,230 West Monroe Street,Chicago,IL,60606,(312) 727-0054,il/chicago/230-west-monroe-street,41.88108437813068,-87.63511297548047,Illinois
586,2302 W 95th St,Chicago,IL,60643,(773) 239-7363,il/chicago/2302-w-95th-st,41.72143990127644,-87.6799634265775,Illinois
91,233 W Lake St,Chicago,IL,60606,(312) 263-6230,il/chicago/233-w-lake-st,41.8855320270008,-87.63522506502972,Illinois
3481,2400 N Lincoln Ave,Chicago,IL,60614,(773) 770-4448,il/chicago/2400-n-lincoln-ave,41.9255655,-87.6491868,Illinois
627,2640 N Narragansett Ave,Chicago,IL,60639,(773) 745-3912,il/chicago/2640-n-narragansett-ave,41.92851792184805,-87.78722253233002,Illinois
1244,2743 N Elston Ave,Chicago,IL,60647,(773) 661-0250,il/chicago/2743-n-elston-ave,41.93166629191262,-87.68637726512645,Illinois
1740,2809 N Ashland Ave,Chicago,IL,60657,(773) 969-4966,il/chicago/2809-n-ashland-ave,41.93283499537232,-87.66802508832586,Illinois
144,291 E Ontario St,Chicago,IL,60611,(312) 587-7753,il/chicago/291-e-ontario-st,41.89327197431857,-87.62062693490938,Illinois
,2935 W. Peterson,Chicago,IL,60659,,il/chicago/2935-w-peterson,41.99019949047938,-87.70322429443654,Illinois
2153,311 S Wacker Dr,Chicago,IL,60606,(312) 291-4949,il/chicago/311-s-wacker-dr,41.877682766402046,-87.63546849221979,Illinois
240,316 N Michigan Ave,Chicago,IL,60601,(312) 578-0950,il/chicago/316-n-michigan-ave,41.887287723166054,-87.62484811532687,Illinois
1612,3227 W Addison St,Chicago,IL,60618,(773) 596-2588,il/chicago/3227-w-addison-st,41.94578588649546,-87.70913422485143,Illinois
1922,3312 N Western Ave,Chicago,IL,60618,(773) 634-3215,il/chicago/3312-n-western-ave,41.94133967847937,-87.68876654419415,Illinois
2923,41 W 87th St,Chicago,IL,60620,(773) 783-3261,il/chicago/41-w-87th-st,41.73579185673286,-87.6259547973151,Illinois
1983,4657 W Irving Park Rd,Chicago,IL,60641,(708) 667-4357,il/chicago/4657-w-irving-park-rd,41.95324304724903,-87.74494020246414,Illinois
3785,4701 W Foster Ave,Chicago,IL,60630,(773) 467-7841,il/chicago/4701-w-foster-ave,41.97399009763391,-87.74596564062458,Illinois
2408,5224 N Broadway St,Chicago,IL,60640,(773) 878-1132,il/chicago/5224-n-broadway-st,41.97713525720151,-87.66040990548163,Illinois
1292,525 W Monroe St,Chicago,IL,60661,(312) 379-0246,il/chicago/525-w-monroe-st,41.880363979091925,-87.64086857977964,Illinois
2409,5330 S Pulaski Rd,Chicago,IL,60632,(773) 581-7625,il/chicago/5330-s-pulaski-rd,41.796193330266235,-87.72356814466468,Illinois
3651,5533 S Harlem Ave,Chicago,IL,60638,(773) 432-4610,il/chicago/5533-s-harlem-ave,41.7908958004872,-87.80107235337873,Illinois
1642,5961 N Lincoln Ave,Chicago,IL,60659,(773) 303-2029,il/chicago/5961-n-lincoln-ave,41.98955173079163,-87.70556567170865,Illinois
484,6 W Grand Ave,Chicago,IL,60654,(312) 828-0613,il/chicago/6-w-grand-ave,41.89186530966558,-87.6284867662531,Illinois
308,610 W Diversey Pkwy,Chicago,IL,60614,(773) 281-1492,il/chicago/610-w-diversey-pkwy,41.93303499501625,-87.64420581377357,Illinois
400,6600 N Sheridan Rd,Chicago,IL,60626,(773) 465-9281,il/chicago/6600-n-sheridan-rd,42.00272859488067,-87.66121950000002,Illinois
3367,725 S Seeley St,Chicago,IL,60612,(312) 324-0454,il/chicago/725-s-seeley-st,41.872416109598866,-87.67723022453691,Illinois
2796,7561 S. Cicero Avenue,Chicago,IL,60652,(773) 581-8054,il/chicago/7561-s-cicero-avenue,41.75477468508043,-87.74066386656762,Illinois
850,8 E Madison St,Chicago,IL,60602,(312) 629-3662,il/chicago/8-e-madison-st,41.8822769494024,-87.62712131212254,Illinois
2768,806 W 63rd St,Chicago,IL,60621,(773) 962-0739,il/chicago/806-w-63rd-st,41.77998374448471,-87.64511749125887,Illinois
794,1013 W Lincoln Hwy,Dekalb,IL,60115,(815) 756-3715,il/dekalb/1013-w-lincoln-hwy,41.931431845416185,-88.77154605520798,Illinois
2685,2383 Sycamore Rd,Dekalb,IL,60115,(815) 754-0379,il/dekalb/2383-sycamore-rd,41.95327767992289,-88.72541913125025,Illinois
2855,1203 Ogden Ave,Downers Grove,IL,60515,(630) 963-1688,il/downers-grove/1203-ogden-ave,41.80818828892083,-88.01441313551402,Illinois
1339,1556 Butterfield Rd,Downers Grove,IL,60515,(630) 576-5030,il/downers-grove/1556-butterfield-rd,41.835385221061976,-88.02484677047698,Illinois
