[
    {
        "address":"200 Inland Dr",
        "city":"San Bernardino",
        "state":"CA",
        "zip":"92408",
        "phone":"(909) 915-2996",
        "url":"https:\/\/locations.forever21.com\/us\/stores\/ca\/sanbernardino\/200-inland-dr",
        "latitude":34.0850596822,
        "longitude":-117.2972856078,
        "state_name":"California",
        "brand":"Forever 21"
    },
    {
        "address":"200 Los Cerritos Mall",
        "city":"Cerritos",
        "state":"CA",
        "zip":"90703",
        "phone":"(562) 356-6959",
        "url":"https:\/\/locations.forever21.com\/us\/stores\/ca\/cerritos\/200-los-cerritos-mall",
        "latitude":33.862166078,
        "longitude":-118.095430315,
        "state_name":"California",
        "brand":"Forever 21"
    },
    {
        "address":"326 Lakewood Center Mall",
        "city":"Lakewood",
        "state":"CA",
        "zip":"90712",
        "phone":"(562) 280-7435",
        "url":"https:\/\/locations.forever21.com\/us\/stores\/ca\/lakewood\/326-lakewood-center-mall",
        "latitude":33.8510359129,
        "longitude":-118.1385893014,
        "state_name":"California",
        "brand":"Forever 21"
    },
    {
        "address":"1201 Lake Woodlands Dr",
        "city":"Spring",
        "state":"TX",
        "zip":"77380",
        "phone":"(346) 224-9779",
        "url":"https:\/\/locations.forever21.com\/us\/stores\/tx\/spring\/1201-lake-woodlands-dr",
        "latitude":30.164002974,
        "longitude":-95.4566745093,
        "state_name":"Texas",
        "brand":"Forever 21"
    },
    {
        "address":"3200 Las Vegas Blvd",
        "city":"Las Vegas",
        "state":"NV",
        "zip":"89109",
        "phone":"(702) 680-6372",
        "url":"https:\/\/locations.forever21.com\/us\/stores\/nv\/lasvegas\/3200-las-vegas-blvd",
        "latitude":36.1281193794,
        "longitude":-115.170219754,
        "state_name":"Nevada",
        "brand":"Forever 21"
    },
    {
        "address":"2801 Ming Ave",
        "city":"Bakersfield",
        "state":"CA",
        "zip":"93304",
        "phone":"(661) 617-5931",
        "url":"https:\/\/locations.forever21.com\/us\/stores\/ca\/bakersfield\/2801-ming-ave",
        "latitude":35.3376691486,
        "longitude":-119.0339719224,
        "state_name":"California",
        "brand":"Forever 21"
    },
    {
        "address":"755 East Shaw Ave",
        "city":"Fresno",
        "state":"CA",
        "zip":"93710",
        "phone":"(559) 705-2604",
        "url":"https:\/\/locations.forever21.com\/us\/stores\/ca\/fresno\/755-east-shaw-ave",
        "latitude":36.8065015949,
        "longitude":-119.7735847568,
        "state_name":"California",
        "brand":"Forever 21"
    },
    {
        "address":"7400 San Pedro Avenue",
        "city":"San Antonio",
        "state":"TX",
        "zip":"78216",
        "phone":"(210) 961-4760",
        "url":"https:\/\/locations.forever21.com\/us\/stores\/tx\/sanantonio\/7400-san-pedro-avenue",
        "latitude":29.5184766038,
        "longitude":-98.4963828935,
        "state_name":"Texas",
        "brand":"Forever 21"
    },
    {
        "address":"1408 Baybrook Mall",
        "city":"Friendswood",
        "state":"TX",
        "zip":"77546",
        "phone":"(346) 815-6958",
        "url":"https:\/\/locations.forever21.com\/us\/stores\/tx\/friendswood\/1408-baybrook-mall",
        "latitude":29.5435381187,
        "longitude":-95.1482909725,
        "state_name":"Texas",
        "brand":"Forever 21"
    },
    {
        "address":"20131 Us-59",
        "city":"Humble",
        "state":"TX",
        "zip":"77338",
        "phone":"(281) 318-4041",
        "url":"https:\/\/locations.forever21.com\/us\/stores\/tx\/humble\/20131-us-59",
        "latitude":30.0098258663,
        "longitude":-95.2695900647,
        "state_name":"Texas",
        "brand":"Forever 21"
    },
    {
        "address":"7007 Friars Rd",
        "city":"San Diego",
        "state":"CA",
        "zip":"92108",
        "phone":"(619) 849-1975",
        "url":"https:\/\/locations.forever21.com\/us\/stores\/ca\/sandiego\/7007-friars-rd",
        "latitude":32.7700343917,
        "longitude":-117.1634443917,
        "state_name":"California",
        "brand":"Forever 21"
    },
    {
        "address":"3700 Galleria At Tyler Mall",
        "city":"Riverside",
        "state":"CA",
        "zip":"92503",
        "phone":"(951) 441-6503",
        "url":"https:\/\/locations.forever21.com\/us\/stores\/ca\/riverside\/3700-galleria-at-tyler-mall",
        "latitude":33.9115355346,
        "longitude":-117.4585846788,
        "state_name":"California",
        "brand":"Forever 21"
    },
    {
        "address":"4502 S Steele St",
        "city":"Tacoma",
        "state":"WA",
        "zip":"98409",
        "phone":"(253) 620-7751",
        "url":"https:\/\/locations.forever21.com\/us\/stores\/wa\/tacoma\/4502-s-steele-st",
        "latitude":47.218097944,
        "longitude":-122.4687780141,
        "state_name":"Washington",
        "brand":"Forever 21"
    },
    {
        "address":"10306 Southside Blvd.",
        "city":"Jacksonville",
        "state":"FL",
        "zip":"32256",
        "phone":"(904) 660-6859",
        "url":"https:\/\/locations.forever21.com\/us\/stores\/fl\/jacksonville\/10306-southside-blvd",
        "latitude":30.1844877615,
        "longitude":-81.5540947422,
        "state_name":"Florida",
        "brand":"Forever 21"
    },
    {
        "address":"5000 Shelbyville Rd",
        "city":"Louisville",
        "state":"KY",
        "zip":"40207",
        "phone":"(502) 822-7625",
        "url":"https:\/\/locations.forever21.com\/us\/stores\/ky\/louisville\/5000-shelbyville-rd",
        "latitude":38.2467204,
        "longitude":-85.6232656521,
        "state_name":"Kentucky",
        "brand":"Forever 21"
    },
    {
        "address":"555 The Shops at Mission Viejo",
        "city":"Mission Viejo",
        "state":"CA",
        "zip":"92691",
        "phone":"(949) 226-6108",
        "url":"https:\/\/locations.forever21.com\/us\/stores\/ca\/missionviejo\/555-the-shops-at-mission-viejo",
        "latitude":33.5574821,
        "longitude":-117.6698117,
        "state_name":"California",
        "brand":"Forever 21"
    },
    {
        "address":"400 South Baldwin Ave",
        "city":"Arcadia",
        "state":"CA",
        "zip":"91001",
        "phone":"(626) 321-4206",
        "url":"https:\/\/locations.forever21.com\/us\/stores\/ca\/arcadia\/400-south-baldwin-ave",
        "latitude":34.1345205888,
        "longitude":-118.0517370113,
        "state_name":"California",
        "brand":"Forever 21"
    },
    {
        "address":"2223 N West Shore Blvd",
        "city":"Tampa",
        "state":"FL",
        "zip":"33607",
        "phone":"(813) 868-8982",
        "url":"https:\/\/locations.forever21.com\/us\/stores\/fl\/tampa\/2223-n-west-shore-blvd",
        "latitude":27.9647700348,
        "longitude":-82.5204971106,
        "state_name":"Florida",
        "brand":"Forever 21"
    },
    {
        "address":"8500 Beverly Blvd",
        "city":"Los Angeles",
        "state":"CA",
        "zip":"90048",
        "phone":"(310) 620-5630",
        "url":"https:\/\/locations.forever21.com\/us\/stores\/ca\/losangeles\/8500-beverly-blvd",
        "latitude":34.0752842593,
        "longitude":-118.3773963477,
        "state_name":"California",
        "brand":"Forever 21"
    },
    {
        "address":"5 Woodfield Mall",
        "city":"Schaumburg",
        "state":"IL",
        "zip":"60173",
        "phone":"(847) 517-1552",
        "url":"https:\/\/locations.forever21.com\/us\/stores\/il\/schaumburg\/5-woodfield-mall",
        "latitude":42.047151506,
        "longitude":-88.0381636205,
        "state_name":"Illinois",
        "brand":"Forever 21"
    },
    {
        "address":"4200 Conroy Rd",
        "city":"Orlando",
        "state":"FL",
        "zip":"32839",
        "phone":"(407) 563-2120",
        "url":"https:\/\/locations.forever21.com\/us\/stores\/fl\/orlando\/4200-conroy-rd",
        "latitude":28.4854859709,
        "longitude":-81.4315325046,
        "state_name":"Florida",
        "brand":"Forever 21"
    },
    {
        "address":"900 Gessner Rd",
        "city":"Houston",
        "state":"TX",
        "zip":"77024",
        "phone":"(832) 839-8916",
        "url":"https:\/\/locations.forever21.com\/us\/stores\/tx\/houston\/900-gessner-rd",
        "latitude":29.7807100185,
        "longitude":-95.5409399334,
        "state_name":"Texas",
        "brand":"Forever 21"
    },
    {
        "address":"313 Smith Haven Mall",
        "city":"Lake Grove",
        "state":"NY",
        "zip":"11755",
        "phone":"(631) 982-2115",
        "url":"https:\/\/locations.forever21.com\/us\/stores\/ny\/lakegrove\/313-smith-haven-mall",
        "latitude":40.8649076364,
        "longitude":-73.1300012663,
        "state_name":"New York",
        "brand":"Forever 21"
    },
    {
        "address":"1100 S Hayes St",
        "city":"Arlington",
        "state":"VA",
        "zip":"22202",
        "phone":"(571) 227-7715",
        "url":"https:\/\/locations.forever21.com\/us\/stores\/va\/arlington\/1100-s-hayes-st",
        "latitude":38.8632918755,
        "longitude":-77.0605731918,
        "state_name":"Virginia",
        "brand":"Forever 21"
    },
    {
        "address":"7925 FM 1960 Rd W",
        "city":"Houston",
        "state":"TX",
        "zip":"77070",
        "phone":"(281) 571-4089",
        "url":"https:\/\/locations.forever21.com\/us\/stores\/tx\/houston\/7925-fm-1960-rd-w",
        "latitude":29.9598835091,
        "longitude":-95.5389252514,
        "state_name":"Texas",
        "brand":"Forever 21"
    },
    {
        "address":"7875 Montgomery Rd",
        "city":"Cincinnati",
        "state":"OH",
        "zip":"45236",
        "phone":"(513) 975-3387",
        "url":"https:\/\/locations.forever21.com\/us\/stores\/oh\/cincinnati\/7875-montgomery-rd",
        "latitude":39.2023325218,
        "longitude":-84.3774686819,
        "state_name":"Ohio",
        "brand":"Forever 21"
    },
    {
        "address":"11025 Carolina Place Pky",
        "city":"Pineville",
        "state":"NC",
        "zip":"28134",
        "phone":"(704) 544-3385",
        "url":"https:\/\/locations.forever21.com\/us\/stores\/nc\/pineville\/11025-carolina-place-pky",
        "latitude":35.0822892729,
        "longitude":-80.8772942504,
        "state_name":"North Carolina",
        "brand":"Forever 21"
    },
    {
        "address":"173 Woodbridge Center Dr",
        "city":"Woodbridge",
        "state":"NJ",
        "zip":"07095",
        "phone":"(732) 621-2094",
        "url":"https:\/\/locations.forever21.com\/us\/stores\/nj\/woodbridge\/173-woodbridge-center-dr",
        "latitude":40.5566490297,
        "longitude":-74.2999248067,
        "state_name":"New Jersey",
        "brand":"Forever 21"
    },
    {
        "address":"5488 S Padre Island Dr",
        "city":"Corpus Christi",
        "state":"TX",
        "zip":"78411",
        "phone":"(361) 360-7922",
        "url":"https:\/\/locations.forever21.com\/us\/stores\/tx\/corpuschristi\/5488-s-padre-island-dr",
        "latitude":27.7110418172,
        "longitude":-97.3726200638,
        "state_name":"Texas",
        "brand":"Forever 21"
    },
    {
        "address":"310 Daniel Webster Hwy",
        "city":"Nashua",
        "state":"NH",
        "zip":"03060",
        "phone":"(603) 402-5028",
        "url":"https:\/\/locations.forever21.com\/us\/stores\/nh\/nashua\/310-daniel-webster-hwy",
        "latitude":42.7017567584,
        "longitude":-71.4363818032,
        "state_name":"New Hampshire",
        "brand":"Forever 21"
    },
    {
        "address":"2525 El Camino Real",
        "city":"Carlsbad",
        "state":"CA",
        "zip":"92008",
        "phone":"(760) 696-9413",
        "url":"https:\/\/locations.forever21.com\/us\/stores\/ca\/carlsbad\/2525-el-camino-real",
        "latitude":33.1781122619,
        "longitude":-117.3308179191,
        "state_name":"California",
        "brand":"Forever 21"
    },
    {
        "address":"231 18th St",
        "city":"Atlanta",
        "state":"GA",
        "zip":"30363",
        "phone":"(470) 225-4793",
        "url":"https:\/\/locations.forever21.com\/us\/stores\/ga\/atlanta\/231-18th-st",
        "latitude":33.7928983837,
        "longitude":-84.3955302929,
        "state_name":"Georgia",
        "brand":"Forever 21"
    },
    {
        "address":"4001 W 41st Street",
        "city":"Sioux Falls",
        "state":"SD",
        "zip":"57106",
        "phone":"(605) 906-6323",
        "url":"https:\/\/locations.forever21.com\/us\/stores\/sd\/siouxfalls\/4001-w-41st-street",
        "latitude":43.5111957981,
        "longitude":-96.7768856704,
        "state_name":"South Dakota",
        "brand":"Forever 21"
    },
    {
        "address":"3525 W Carson St",
        "city":"Torrance",
        "state":"CA",
        "zip":"90503",
        "phone":"(310) 683-6571",
        "url":"https:\/\/locations.forever21.com\/us\/stores\/ca\/torrance\/3525-w-carson-st",
        "latitude":33.8329813523,
        "longitude":-118.3489468356,
        "state_name":"California",
        "brand":"Forever 21"
    },
    {
        "address":"2200 S 10th Street",
        "city":"McAllen",
        "state":"TX",
        "zip":"78503",
        "phone":"(956) 800-6762",
        "url":"https:\/\/locations.forever21.com\/us\/stores\/tx\/mcallen\/2200-s-10th-street",
        "latitude":26.1854866684,
        "longitude":-98.2362701658,
        "state_name":"Texas",
        "brand":"Forever 21"
    },
    {
        "address":"48650 Seminole Dr",
        "city":"Cabazon",
        "state":"CA",
        "zip":"92230",
        "phone":"(951) 846-5158",
        "url":"https:\/\/locations.forever21.com\/us\/stores\/ca\/cabazon\/48650-seminole-dr",
        "latitude":33.9306931873,
        "longitude":-116.81823406,
        "state_name":"California",
        "brand":"Forever 21"
    },
    {
        "address":"9601 SW Washington Square Rd",
        "city":"Tigard",
        "state":"OR",
        "zip":"97223",
        "phone":"(503) 530-7156",
        "url":"https:\/\/locations.forever21.com\/us\/stores\/or\/tigard\/9601-sw-washington-square-rd",
        "latitude":45.4499592,
        "longitude":-122.7835239,
        "state_name":"Oregon",
        "brand":"Forever 21"
    },
    {
        "address":"575 E University Pkwy",
        "city":"Orem",
        "state":"UT",
        "zip":"84097",
        "phone":"(801) 788-3965",
        "url":"https:\/\/locations.forever21.com\/us\/stores\/ut\/orem\/575-e-university-pkwy",
        "latitude":40.27504052,
        "longitude":-111.6813970088,
        "state_name":"Utah",
        "brand":"Forever 21"
    },
    {
        "address":"3501 Manchester Expressway",
        "city":"Columbus",
        "state":"GA",
        "zip":"31909",
        "phone":"(706) 530-4199",
        "url":"https:\/\/locations.forever21.com\/us\/stores\/ga\/columbus\/3501-manchester-expressway",
        "latitude":32.5085932,
        "longitude":-84.9439666,
        "state_name":"Georgia",
        "brand":"Forever 21"
    },
    {
        "address":"4999 Old Orchard Center",
        "city":"Skokie",
        "state":"IL",
        "zip":"60077",
        "phone":"(847) 779-8515",
        "url":"https:\/\/locations.forever21.com\/us\/stores\/il\/skokie\/4999-old-orchard-center",
        "latitude":42.0615008803,
        "longitude":-87.7497189186,
        "state_name":"Illinois",
        "brand":"Forever 21"
    },
    {
        "address":"2800 N Main St",
        "city":"Santa Ana",
        "state":"CA",
        "zip":"92705",
        "phone":"(657) 335-3739",
        "url":"https:\/\/locations.forever21.com\/us\/stores\/ca\/santaana\/2800-n-main-st",
        "latitude":33.7764162318,
        "longitude":-117.8702678957,
        "state_name":"California",
        "brand":"Forever 21"
    },
    {
        "address":"6801 Hollywood Blvd",
        "city":"Los Angeles",
        "state":"CA",
        "zip":"90028",
        "phone":"(323) 203-3468",
        "url":"https:\/\/locations.forever21.com\/us\/stores\/ca\/losangeles\/6801-hollywood-blvd",
        "latitude":34.1027440952,
        "longitude":-118.3403959712,
        "state_name":"California",
        "brand":"Forever 21"
    },
    {
        "address":"Pr52 Esquina Pr156",
        "city":"Caguas",
        "state":"PR",
        "zip":"00725",
        "phone":"(787) 746-3023",
        "url":"https:\/\/locations.forever21.com\/us\/stores\/pr\/caguas\/pr52-esquina-pr156",
        "latitude":18.2371076586,
        "longitude":-66.0400243425,
        "state_name":null,
        "brand":"Forever 21"
    },
    {
        "address":"1000 Tanger Dr",
        "city":"Locust Grove",
        "state":"GA",
        "zip":"30248",
        "phone":"(678) 561-9190",
        "url":"https:\/\/locations.forever21.com\/us\/stores\/ga\/locustgrove\/1000-tanger-dr",
        "latitude":33.3452482945,
        "longitude":-84.1225095693,
        "state_name":"Georgia",
        "brand":"Forever 21"
    },
    {
        "address":"4325 Glenwood Ave",
        "city":"Raleigh",
        "state":"NC",
        "zip":"27612",
        "phone":"(984) 239-6911",
        "url":"https:\/\/locations.forever21.com\/us\/stores\/nc\/raleigh\/4325-glenwood-ave",
        "latitude":35.8414461654,
        "longitude":-78.6809088452,
        "state_name":"North Carolina",
        "brand":"Forever 21"
    },
    {
        "address":"1 Premium Outlets Blvd.",
        "city":"Barceloneta",
        "state":"PR",
        "zip":"00617",
        "phone":"(787) 846-8884",
        "url":"https:\/\/locations.forever21.com\/us\/stores\/pr\/barceloneta\/1-premium-outlets-blvd",
        "latitude":18.4384007104,
        "longitude":-66.540215582,
        "state_name":null,
        "brand":"Forever 21"
    },
    {
        "address":"3301 Veterans Memorial Blvd",
        "city":"Metairie",
        "state":"LA",
        "zip":"70002",
        "phone":"(504) 493-6585",
        "url":"https:\/\/locations.forever21.com\/us\/stores\/la\/metairie\/3301-veterans-memorial-blvd",
        "latitude":30.0058653321,
        "longitude":-90.1572804174,
        "state_name":"Louisiana",
        "brand":"Forever 21"
    },
    {
        "address":"6000 W Markham St",
        "city":"Little Rock",
        "state":"AR",
        "zip":"72205",
        "phone":"(501) 503-4773",
        "url":"https:\/\/locations.forever21.com\/us\/stores\/ar\/littlerock\/6000-w-markham-st",
        "latitude":34.7534071928,
        "longitude":-92.3428060858,
        "state_name":"Arkansas",
        "brand":"Forever 21"
    },
    {
        "address":"3620 Livermore Outlets Dr",
        "city":"Livermore",
        "state":"CA",
        "zip":"72401",
        "phone":"(925) 292-3488",
        "url":"https:\/\/locations.forever21.com\/us\/stores\/ca\/livermore\/3620-livermore-outlets-dr",
        "latitude":37.6991211301,
        "longitude":-121.8421843479,
        "state_name":"California",
        "brand":"Forever 21"
    },
    {
        "address":"197 Westbank Expressway",
        "city":"Gretna",
        "state":"LA",
        "zip":"70056",
        "phone":"(504) 226-2835",
        "url":"https:\/\/locations.forever21.com\/us\/stores\/la\/gretna\/197-westbank-expressway",
        "latitude":29.9212267126,
        "longitude":-90.0378323139,
        "state_name":"Louisiana",
        "brand":"Forever 21"
    },
    {
        "address":"1 Garden State Plaza",
        "city":"Paramus",
        "state":"NJ",
        "zip":"07652",
        "phone":"(201) 270-1219",
        "url":"https:\/\/locations.forever21.com\/us\/stores\/nj\/paramus\/1-garden-state-plaza",
        "latitude":40.916533473,
        "longitude":-74.0770124256,
        "state_name":"New Jersey",
        "brand":"Forever 21"
    },
    {
        "address":"80 Bay St",
        "city":"Long Beach",
        "state":"CA",
        "zip":"90802",
        "phone":"(562) 491-1981",
        "url":"https:\/\/locations.forever21.com\/us\/stores\/ca\/longbeach\/80-bay-st",
        "latitude":33.7641926,
        "longitude":-118.1935199,
        "state_name":"California",
        "brand":"Forever 21"
    },
    {
        "address":"11799 W 95th St",
        "city":"Overland Park",
        "state":"KS",
        "zip":"66214",
        "phone":"(913) 335-6357",
        "url":"https:\/\/locations.forever21.com\/us\/stores\/ks\/overlandpark\/11799-w-95th-st",
        "latitude":38.9533232353,
        "longitude":-94.7182088991,
        "state_name":"Kansas",
        "brand":"Forever 21"
    },
    {
        "address":"2000 East Rio Salado Parkway",
        "city":"Tempe",
        "state":"AZ",
        "zip":"85281",
        "phone":"(602) 643-4056",
        "url":"https:\/\/locations.forever21.com\/us\/stores\/az\/tempe\/2000-east-rio-salado-parkway",
        "latitude":33.432439444,
        "longitude":-111.904278355,
        "state_name":"Arizona",
        "brand":"Forever 21"
    },
    {
        "address":"152 The Arches Circle",
        "city":"Deer Park",
        "state":"NY",
        "zip":"11729",
        "phone":"(631) 918-4060",
        "url":"https:\/\/locations.forever21.com\/us\/stores\/ny\/deerpark\/152-the-arches-circle",
        "latitude":40.7658989012,
        "longitude":-73.3047950133,
        "state_name":"New York",
        "brand":"Forever 21"
    },
    {
        "address":"907-937A Market St",
        "city":"Philadelphia",
        "state":"PA",
        "zip":"19107",
        "phone":"(215) 861-5916",
        "url":"https:\/\/locations.forever21.com\/us\/stores\/pa\/philadelphia\/907-937a-market-st",
        "latitude":39.9519726515,
        "longitude":-75.1557652336,
        "state_name":"Pennsylvania",
        "brand":"Forever 21"
    },
    {
        "address":"4674 Merchandts Park Circle",
        "city":"Collierville",
        "state":"TN",
        "zip":"38017",
        "phone":"(901) 472-6669",
        "url":"https:\/\/locations.forever21.com\/us\/stores\/tn\/collierville\/4674-merchandts-park-circle",
        "latitude":35.0223296762,
        "longitude":-89.718478565,
        "state_name":"Tennessee",
        "brand":"Forever 21"
    },
    {
        "address":"455 Trolley Line Blvd",
        "city":"Mashantucket",
        "state":"CT",
        "zip":"06338",
        "phone":"(860) 383-1396",
        "url":"https:\/\/locations.forever21.com\/us\/stores\/ct\/mashantucket\/455-trolley-line-blvd",
        "latitude":41.4763579095,
        "longitude":-71.9621649589,
        "state_name":"Connecticut",
        "brand":"Forever 21"
    },
    {
        "address":"1429 Cumberland Mall",
        "city":"Atlanta",
        "state":"GA",
        "zip":"30339",
        "phone":"(678) 932-3039",
        "url":"https:\/\/locations.forever21.com\/us\/stores\/ga\/atlanta\/1429-cumberland-mall",
        "latitude":33.8808322,
        "longitude":-84.4692736,
        "state_name":"Georgia",
        "brand":"Forever 21"
    },
    {
        "address":"3111 W Chandler Blvd",
        "city":"Chandler",
        "state":"AZ",
        "zip":"85226",
        "phone":"(480) 627-8996",
        "url":"https:\/\/locations.forever21.com\/us\/stores\/az\/chandler\/3111-w-chandler-blvd",
        "latitude":33.3019958326,
        "longitude":-111.8989449454,
        "state_name":"Arizona",
        "brand":"Forever 21"
    },
    {
        "address":"395 Santa Monica Pl",
        "city":"Santa Monica",
        "state":"CA",
        "zip":"90401",
        "phone":"(310) 309-4034",
        "url":"https:\/\/locations.forever21.com\/us\/stores\/ca\/santamonica\/395-santa-monica-pl",
        "latitude":34.0134983483,
        "longitude":-118.4937295246,
        "state_name":"California",
        "brand":"Forever 21"
    },
    {
        "address":"11750 Fair Oaks",
        "city":"Fairfax",
        "state":"VA",
        "zip":"22033",
        "phone":"(703) 218-1033",
        "url":"https:\/\/locations.forever21.com\/us\/stores\/va\/fairfax\/11750-fair-oaks",
        "latitude":38.8629214466,
        "longitude":-77.3587858851,
        "state_name":"Virginia",
        "brand":"Forever 21"
    },
    {
        "address":"4400 Ashford Dunwoody Rd",
        "city":"Atlanta",
        "state":"GA",
        "zip":"30346",
        "phone":"(770) 391-1484",
        "url":"https:\/\/locations.forever21.com\/us\/stores\/ga\/atlanta\/4400-ashford-dunwoody-rd",
        "latitude":33.922989262,
        "longitude":-84.3399884466,
        "state_name":"Georgia",
        "brand":"Forever 21"
    },
    {
        "address":"8166 Park Ln",
        "city":"Dallas",
        "state":"TX",
        "zip":"75231",
        "phone":"(214) 765-4039",
        "url":"https:\/\/locations.forever21.com\/us\/stores\/tx\/dallas\/8166-park-ln",
        "latitude":32.8695360647,
        "longitude":-96.7683596114,
        "state_name":"Texas",
        "brand":"Forever 21"
    },
    {
        "address":"620 Centerview Blvd",
        "city":"Kissimmee",
        "state":"FL",
        "zip":"34741",
        "phone":"(407) 552-0316",
        "url":"https:\/\/locations.forever21.com\/us\/stores\/fl\/kissimmee\/620-centerview-blvd",
        "latitude":28.3396204842,
        "longitude":-81.4070981924,
        "state_name":"Florida",
        "brand":"Forever 21"
    },
    {
        "address":"8268 Mills Dr",
        "city":"Kendall",
        "state":"FL",
        "zip":"33183",
        "phone":"(786) 843-4413",
        "url":"https:\/\/locations.forever21.com\/us\/stores\/fl\/kendall\/8268-mills-dr",
        "latitude":25.6883768364,
        "longitude":-80.3858833049,
        "state_name":"Florida",
        "brand":"Forever 21"
    },
    {
        "address":"701 Lynnhaven Parkway",
        "city":"Virginia Beach",
        "state":"VA",
        "zip":"23452",
        "phone":"(757) 463-4370",
        "url":"https:\/\/locations.forever21.com\/us\/stores\/va\/virginiabeach\/701-lynnhaven-parkway",
        "latitude":36.8160582189,
        "longitude":-76.0715623464,
        "state_name":"Virginia",
        "brand":"Forever 21"
    },
    {
        "address":"300 Yorktown Center",
        "city":"Lombard",
        "state":"IL",
        "zip":"60148",
        "phone":"(630) 613-2889",
        "url":"https:\/\/locations.forever21.com\/us\/stores\/il\/lombard\/300-yorktown-center",
        "latitude":41.8384489543,
        "longitude":-88.0078614015,
        "state_name":"Illinois",
        "brand":"Forever 21"
    },
    {
        "address":"223 Red Apple Ct",
        "city":"Central Valley",
        "state":"NY",
        "zip":"10917",
        "phone":"(845) 460-5003",
        "url":"https:\/\/locations.forever21.com\/us\/stores\/ny\/centralvalley\/223-red-apple-ct",
        "latitude":41.3148132062,
        "longitude":-74.1275558242,
        "state_name":"New York",
        "brand":"Forever 21"
    },
    {
        "address":"820 W. Stacy Rd.",
        "city":"Allen",
        "state":"TX",
        "zip":"75013",
        "phone":"(469) 675-0757",
        "url":"https:\/\/locations.forever21.com\/us\/stores\/tx\/allen\/820-w-stacy-rd",
        "latitude":33.1329135529,
        "longitude":-96.6615377276,
        "state_name":"Texas",
        "brand":"Forever 21"
    },
    {
        "address":"13801 Grant Street,",
        "city":"Thornton",
        "state":"CO",
        "zip":"80023",
        "phone":"(303) 256-6880",
        "url":"https:\/\/locations.forever21.com\/us\/stores\/co\/thornton\/13801-grant-street",
        "latitude":39.9891424699,
        "longitude":-104.9828269356,
        "state_name":"Colorado",
        "brand":"Forever 21"
    },
    {
        "address":"5870 E Broadway Blvd",
        "city":"Tucson",
        "state":"AZ",
        "zip":"85711",
        "phone":"(520) 719-6780",
        "url":"https:\/\/locations.forever21.com\/us\/stores\/az\/tucson\/5870-e-broadway-blvd",
        "latitude":32.2181628434,
        "longitude":-110.8659895205,
        "state_name":"Arizona",
        "brand":"Forever 21"
    },
    {
        "address":"435 Seventh Ave",
        "city":"New York",
        "state":"NY",
        "zip":"10120",
        "phone":"(212) 209-4335",
        "url":"https:\/\/locations.forever21.com\/us\/stores\/ny\/newyork\/435-seventh-ave",
        "latitude":40.7506424988,
        "longitude":-73.9904199555,
        "state_name":"New York",
        "brand":"Forever 21"
    },
    {
        "address":"121 Pavilion Pkwy",
        "city":"Fayetteville",
        "state":"GA",
        "zip":"30214",
        "phone":"(678) 519-9035",
        "url":"https:\/\/locations.forever21.com\/us\/stores\/ga\/fayetteville\/121-pavilion-pkwy",
        "latitude":33.4818207479,
        "longitude":-84.441471867,
        "state_name":"Georgia",
        "brand":"Forever 21"
    },
    {
        "address":"836 Southcenter Mall",
        "city":"Tukwila",
        "state":"WA",
        "zip":"98188",
        "phone":"(206) 288-0083",
        "url":"https:\/\/locations.forever21.com\/us\/stores\/wa\/tukwila\/836-southcenter-mall",
        "latitude":47.4581730716,
        "longitude":-122.2585341853,
        "state_name":"Washington",
        "brand":"Forever 21"
    },
    {
        "address":"3051 Daniels Rd",
        "city":"Winter Garden",
        "state":"FL",
        "zip":"34787",
        "phone":"(407) 554-0185",
        "url":"https:\/\/locations.forever21.com\/us\/stores\/fl\/wintergarden\/3051-daniels-rd",
        "latitude":28.5244505932,
        "longitude":-81.5827742006,
        "state_name":"Florida",
        "brand":"Forever 21"
    },
    {
        "address":"1842 Willowbrook Mall",
        "city":"Wayne",
        "state":"NJ",
        "zip":"07470",
        "phone":"(973) 826-1055",
        "url":"https:\/\/locations.forever21.com\/us\/stores\/nj\/wayne\/1842-willowbrook-mall",
        "latitude":40.88908633,
        "longitude":-74.2595242532,
        "state_name":"New Jersey",
        "brand":"Forever 21"
    },
    {
        "address":"3030 Plaza Bonita Rd",
        "city":"National City",
        "state":"CA",
        "zip":"91950",
        "phone":"(619) 791-2161",
        "url":"https:\/\/locations.forever21.com\/us\/stores\/ca\/nationalcity\/3030-plaza-bonita-rd",
        "latitude":32.6562073,
        "longitude":-117.0654971,
        "state_name":"California",
        "brand":"Forever 21"
    },
    {
        "address":"6600 Topanga Canyon Blvd",
        "city":"Canoga Park",
        "state":"CA",
        "zip":"91303",
        "phone":"(818) 657-1450",
        "url":"https:\/\/locations.forever21.com\/us\/stores\/ca\/canogapark\/6600-topanga-canyon-blvd",
        "latitude":34.1895273851,
        "longitude":-118.6042638067,
        "state_name":"California",
        "brand":"Forever 21"
    },
    {
        "address":"2011 E. Camelback Road",
        "city":"Phoenix",
        "state":"AZ",
        "zip":"85016",
        "phone":"(480) 337-5068",
        "url":"https:\/\/locations.forever21.com\/us\/stores\/az\/phoenix\/2011-e-camelback-road",
        "latitude":33.5088227683,
        "longitude":-112.038466334,
        "state_name":"Arizona",
        "brand":"Forever 21"
    },
    {
        "address":"100 Robinson Centre Dr",
        "city":"Pittsburgh",
        "state":"PA",
        "zip":"15205",
        "phone":"(412) 249-5980",
        "url":"https:\/\/locations.forever21.com\/us\/stores\/pa\/pittsburgh\/100-robinson-centre-dr",
        "latitude":40.4551550816,
        "longitude":-80.1572846463,
        "state_name":"Pennsylvania",
        "brand":"Forever 21"
    },
    {
        "address":"6401 W. Marana Center Blvd.",
        "city":"Tucson",
        "state":"AZ",
        "zip":"85742",
        "phone":"(520) 719-6443",
        "url":"https:\/\/locations.forever21.com\/us\/stores\/az\/tucson\/6401-w-marana-center-blvd",
        "latitude":32.375447972,
        "longitude":-111.1024778116,
        "state_name":"Arizona",
        "brand":"Forever 21"
    },
    {
        "address":"3811 S Cooper St",
        "city":"Arlington",
        "state":"TX",
        "zip":"76015",
        "phone":"(817) 505-0115",
        "url":"https:\/\/locations.forever21.com\/us\/stores\/tx\/arlington\/3811-s-cooper-st",
        "latitude":32.6807773442,
        "longitude":-97.1296103037,
        "state_name":"Texas",
        "brand":"Forever 21"
    },
    {
        "address":"2224 Grand Cypress Dr.",
        "city":"Lutz",
        "state":"FL",
        "zip":"33559",
        "phone":"(813) 345-3966",
        "url":"https:\/\/locations.forever21.com\/us\/stores\/fl\/lutz\/2224-grand-cypress-dr",
        "latitude":28.1885653029,
        "longitude":-82.3912794227,
        "state_name":"Florida",
        "brand":"Forever 21"
    },
    {
        "address":"825 Dulaney Valley Rd",
        "city":"Towson",
        "state":"MD",
        "zip":"21204",
        "phone":"(410) 427-2791",
        "url":"https:\/\/locations.forever21.com\/us\/stores\/md\/towson\/825-dulaney-valley-rd",
        "latitude":39.4043463349,
        "longitude":-76.5990137793,
        "state_name":"Maryland",
        "brand":"Forever 21"
    },
    {
        "address":"6155 Eastex Fwy",
        "city":"Beaumont",
        "state":"TX",
        "zip":"77706",
        "phone":"(409) 273-7616",
        "url":"https:\/\/locations.forever21.com\/us\/stores\/tx\/beaumont\/6155-eastex-fwy",
        "latitude":30.125894375,
        "longitude":-94.1606470731,
        "state_name":"Texas",
        "brand":"Forever 21"
    },
    {
        "address":"6401 Bluebonnet Blvd",
        "city":"Baton Rouge",
        "state":"LA",
        "zip":"70836",
        "phone":"(225) 666-3144",
        "url":"https:\/\/locations.forever21.com\/us\/stores\/la\/batonrouge\/6401-bluebonnet-blvd",
        "latitude":30.3904498914,
        "longitude":-91.0869429122,
        "state_name":"Louisiana",
        "brand":"Forever 21"
    },
    {
        "address":"13860 City Center Dr",
        "city":"Chino Hills",
        "state":"CA",
        "zip":"91709",
        "phone":"(909) 664-9656",
        "url":"https:\/\/locations.forever21.com\/us\/stores\/ca\/chinohills\/13860-city-center-dr",
        "latitude":34.0011843561,
        "longitude":-117.7313930362,
        "state_name":"California",
        "brand":"Forever 21"
    },
    {
        "address":"1540 Broadway",
        "city":"New York",
        "state":"NY",
        "zip":"10036",
        "phone":"(212) 302-0594",
        "url":"https:\/\/locations.forever21.com\/us\/stores\/ny\/newyork\/1540-broadway",
        "latitude":40.7580507926,
        "longitude":-73.9848329067,
        "state_name":"New York",
        "brand":"Forever 21"
    },
    {
        "address":"1068 Fox Valley Center Dr",
        "city":"Aurora",
        "state":"IL",
        "zip":"60504",
        "phone":"(630) 423-9971",
        "url":"https:\/\/locations.forever21.com\/us\/stores\/il\/aurora\/1068-fox-valley-center-dr",
        "latitude":41.7582985,
        "longitude":-88.2116858,
        "state_name":"Illinois",
        "brand":"Forever 21"
    },
    {
        "address":"835 N Michigan",
        "city":"Chicago",
        "state":"IL",
        "zip":"60611",
        "phone":"(312) 846-7660",
        "url":"https:\/\/locations.forever21.com\/us\/stores\/il\/chicago\/835-n-michigan",
        "latitude":41.8979793904,
        "longitude":-87.6230460685,
        "state_name":"Illinois",
        "brand":"Forever 21"
    },
    {
        "address":"69 Chestnut St",
        "city":"Beavercreek",
        "state":"OH",
        "zip":"45440",
        "phone":"(937) 986-3063",
        "url":"https:\/\/locations.forever21.com\/us\/stores\/oh\/beavercreek\/69-chestnut-st",
        "latitude":39.6943182014,
        "longitude":-84.1039568604,
        "state_name":"Ohio",
        "brand":"Forever 21"
    },
    {
        "address":"1 Walden Galleria",
        "city":"Buffalo",
        "state":"NY",
        "zip":"14225",
        "phone":"(716) 686-9280",
        "url":"https:\/\/locations.forever21.com\/us\/stores\/ny\/buffalo\/1-walden-galleria",
        "latitude":42.9139864778,
        "longitude":-78.7628490791,
        "state_name":"New York",
        "brand":"Forever 21"
    },
    {
        "address":"200 Tanger Outlets Blvd",
        "city":"Pooler",
        "state":"GA",
        "zip":"31322",
        "phone":"(912) 348-6150",
        "url":"https:\/\/locations.forever21.com\/us\/stores\/ga\/pooler\/200-tanger-outlets-blvd",
        "latitude":32.1344861293,
        "longitude":-81.2431834837,
        "state_name":"Georgia",
        "brand":"Forever 21"
    },
    {
        "address":"2855 Stevens Creek Blvd",
        "city":"Santa Clara",
        "state":"CA",
        "zip":"95050",
        "phone":"(408) 961-7915",
        "url":"https:\/\/locations.forever21.com\/us\/stores\/ca\/santaclara\/2855-stevens-creek-blvd",
        "latitude":37.324117085,
        "longitude":-121.9464574668,
        "state_name":"California",
        "brand":"Forever 21"
    },
    {
        "address":"2529 Main St",
        "city":"Union Gap",
        "state":"WA",
        "zip":"32828",
        "phone":"(509) 426-6202",
        "url":"https:\/\/locations.forever21.com\/us\/stores\/wa\/uniongap\/2529-main-st",
        "latitude":46.5659474215,
        "longitude":-120.4796438271,
        "state_name":"Washington",
        "brand":"Forever 21"
    },
    {
        "address":"2601 S McKenzie St",
        "city":"Foley",
        "state":"AL",
        "zip":"36535",
        "phone":"(251) 677-6303",
        "url":"https:\/\/locations.forever21.com\/us\/stores\/al\/foley\/2601-s-mckenzie-st",
        "latitude":30.3752692801,
        "longitude":-87.682436965,
        "state_name":"Alabama",
        "brand":"Forever 21"
    },
    {
        "address":"9 W County Center",
        "city":"Des Peres",
        "state":"MO",
        "zip":"63131",
        "phone":"(314) 288-1985",
        "url":"https:\/\/locations.forever21.com\/us\/stores\/mo\/desperes\/9-w-county-center",
        "latitude":38.6020237029,
        "longitude":-90.4466682742,
        "state_name":"Missouri",
        "brand":"Forever 21"
    },
    {
        "address":"210 Andover Street",
        "city":"Peabody",
        "state":"MA",
        "zip":"01960",
        "phone":"(978) 326-1161",
        "url":"https:\/\/locations.forever21.com\/us\/stores\/ma\/peabody\/210-andover-street",
        "latitude":42.5411160524,
        "longitude":-70.944616542,
        "state_name":"Massachusetts",
        "brand":"Forever 21"
    },
    {
        "address":"50 Holyoke St",
        "city":"Holyoke",
        "state":"MA",
        "zip":"01040",
        "phone":"(413) 275-1583",
        "url":"https:\/\/locations.forever21.com\/us\/stores\/ma\/holyoke\/50-holyoke-st",
        "latitude":42.1681379117,
        "longitude":-72.6413800229,
        "state_name":"Massachusetts",
        "brand":"Forever 21"
    },
    {
        "address":"4300 Meadows Lane",
        "city":"Las Vegas",
        "state":"NV",
        "zip":"89107",
        "phone":"(702) 415-2813",
        "url":"https:\/\/locations.forever21.com\/us\/stores\/nv\/lasvegas\/4300-meadows-lane",
        "latitude":36.172394494,
        "longitude":-115.1965118686,
        "state_name":"Nevada",
        "brand":"Forever 21"
    },
    {
        "address":"8040 Mall Walk",
        "city":"Yonkers",
        "state":"NY",
        "zip":"10704",
        "phone":"(914) 751-0026",
        "url":"https:\/\/locations.forever21.com\/us\/stores\/ny\/yonkers\/8040-mall-walk",
        "latitude":40.9279038451,
        "longitude":-73.8545075879,
        "state_name":"New York",
        "brand":"Forever 21"
    },
    {
        "address":"3000 184th St SW",
        "city":"Lynnwood",
        "state":"WA",
        "zip":"98037",
        "phone":"(425) 921-4228",
        "url":"https:\/\/locations.forever21.com\/us\/stores\/wa\/lynnwood\/3000-184th-st-sw",
        "latitude":47.8294507738,
        "longitude":-122.2730827172,
        "state_name":"Washington",
        "brand":"Forever 21"
    },
    {
        "address":"5000 Katy Mills Circle",
        "city":"Katy",
        "state":"TX",
        "zip":"77494",
        "phone":"(346) 307-8310",
        "url":"https:\/\/locations.forever21.com\/us\/stores\/tx\/katy\/5000-katy-mills-circle",
        "latitude":29.7747868667,
        "longitude":-95.8092504025,
        "state_name":"Texas",
        "brand":"Forever 21"
    },
    {
        "address":"51 S. Main St",
        "city":"Salt Lake City",
        "state":"UT",
        "zip":"84101",
        "phone":"(801) 906-4033",
        "url":"https:\/\/locations.forever21.com\/us\/stores\/ut\/saltlakecity\/51-s-main-st",
        "latitude":40.7677116839,
        "longitude":-111.8906640911,
        "state_name":"Utah",
        "brand":"Forever 21"
    },
    {
        "address":"51 West Flat Iron Crossing Dr",
        "city":"Broomfield",
        "state":"CO",
        "zip":"80021",
        "phone":"(303) 264-2082",
        "url":"https:\/\/locations.forever21.com\/us\/stores\/co\/broomfield\/51-west-flat-iron-crossing-dr",
        "latitude":39.9314952611,
        "longitude":-105.1321898127,
        "state_name":"Colorado",
        "brand":"Forever 21"
    },
    {
        "address":"504 Opry Mills Dr",
        "city":"Nashville",
        "state":"TN",
        "zip":"37214",
        "phone":"(615) 514-2905",
        "url":"https:\/\/locations.forever21.com\/us\/stores\/tn\/nashville\/504-opry-mills-dr",
        "latitude":36.2050918,
        "longitude":-86.6929019,
        "state_name":"Tennessee",
        "brand":"Forever 21"
    },
    {
        "address":"2055 S Mooney Blvd",
        "city":"Visalia",
        "state":"CA",
        "zip":"93277",
        "phone":"(559) 429-7813",
        "url":"https:\/\/locations.forever21.com\/us\/stores\/ca\/visalia\/2055-s-mooney-blvd",
        "latitude":36.3117469193,
        "longitude":-119.3161306662,
        "state_name":"California",
        "brand":"Forever 21"
    },
    {
        "address":"13350 Dallas Pkwy",
        "city":"Dallas",
        "state":"TX",
        "zip":"75240",
        "phone":"(214) 647-4300",
        "url":"https:\/\/locations.forever21.com\/us\/stores\/tx\/dallas\/13350-dallas-pkwy",
        "latitude":32.9297921154,
        "longitude":-96.8198725534,
        "state_name":"Texas",
        "brand":"Forever 21"
    },
    {
        "address":"1251 US Highway 31N",
        "city":"Greenwood",
        "state":"IN",
        "zip":"46142",
        "phone":"(317) 851-1335",
        "url":"https:\/\/locations.forever21.com\/us\/stores\/in\/greenwood\/1251-us-highway-31n",
        "latitude":39.6330361293,
        "longitude":-86.1206506589,
        "state_name":"Indiana",
        "brand":"Forever 21"
    },
    {
        "address":"5085 Westheimer Road",
        "city":"Houston",
        "state":"TX",
        "zip":"77056",
        "phone":"(713) 576-3720",
        "url":"https:\/\/locations.forever21.com\/us\/stores\/tx\/houston\/5085-westheimer-road",
        "latitude":29.7398245098,
        "longitude":-95.4632972935,
        "state_name":"Texas",
        "brand":"Forever 21"
    },
    {
        "address":"800 N. Green River Rd",
        "city":"Evansville",
        "state":"IN",
        "zip":"47715",
        "phone":"(812) 250-7245",
        "url":"https:\/\/locations.forever21.com\/us\/stores\/in\/evansville\/800-n-green-river-rd",
        "latitude":37.9844555484,
        "longitude":-87.4955787145,
        "state_name":"Indiana",
        "brand":"Forever 21"
    },
    {
        "address":"125 Westchester Ave",
        "city":"White Plains",
        "state":"NY",
        "zip":"10601",
        "phone":"(914) 359-6885",
        "url":"https:\/\/www.forever21.com\/",
        "latitude":41.0311519502,
        "longitude":-73.7591691937,
        "state_name":"New York",
        "brand":"Forever 21"
    },
    {
        "address":"2270 Northbrook Court",
        "city":"Northbrook",
        "state":"IL",
        "zip":"60062",
        "phone":"(847) 521-7994",
        "url":"https:\/\/locations.forever21.com\/us\/stores\/il\/northbrook\/2270-northbrook-court",
        "latitude":42.149994,
        "longitude":-87.8173162,
        "state_name":"Illinois",
        "brand":"Forever 21"
    },
    {
        "address":"2011 North Roan St.",
        "city":"Johnson City",
        "state":"TN",
        "zip":"37601",
        "phone":"(423) 328-5883",
        "url":"https:\/\/locations.forever21.com\/us\/stores\/tn\/johnsoncity\/2011-north-roan-st",
        "latitude":36.3371681,
        "longitude":-82.3770087,
        "state_name":"Tennessee",
        "brand":"Forever 21"
    },
    {
        "address":"6594 Douglas Blvd",
        "city":"Douglasville",
        "state":"GA",
        "zip":"30135",
        "phone":"(770) 767-6299",
        "url":"https:\/\/locations.forever21.com\/us\/stores\/ga\/douglasville\/6594-douglas-blvd",
        "latitude":33.7282882419,
        "longitude":-84.7448513533,
        "state_name":"Georgia",
        "brand":"Forever 21"
    },
    {
        "address":"75 Middlesex Turnpike",
        "city":"Burlington",
        "state":"MA",
        "zip":"01803",
        "phone":"(781) 685-6471",
        "url":"https:\/\/locations.forever21.com\/us\/stores\/ma\/burlington\/75-middlesex-turnpike",
        "latitude":42.4814821679,
        "longitude":-71.212681067,
        "state_name":"Massachusetts",
        "brand":"Forever 21"
    },
    {
        "address":"2000 N Neil St",
        "city":"Champaign",
        "state":"IL",
        "zip":"61820",
        "phone":"(217) 305-6802",
        "url":"https:\/\/locations.forever21.com\/us\/stores\/il\/champaign\/2000-n-neil-st",
        "latitude":40.1422042116,
        "longitude":-88.2432439598,
        "state_name":"Illinois",
        "brand":"Forever 21"
    },
    {
        "address":"15575 Starfish St.",
        "city":"Panama City Beach",
        "state":"FL",
        "zip":"32413",
        "phone":"(850) 708-6111",
        "url":"https:\/\/locations.forever21.com\/us\/stores\/fl\/panamacitybeach\/15575-starfish-st",
        "latitude":30.2198941992,
        "longitude":-85.8696694901,
        "state_name":"Florida",
        "brand":"Forever 21"
    },
    {
        "address":"6000 Sepulveda Boulevard",
        "city":"Culver City",
        "state":"CA",
        "zip":"90230",
        "phone":"(310) 754-1677",
        "url":"https:\/\/locations.forever21.com\/us\/stores\/ca\/culvercity\/6000-sepulveda-boulevard",
        "latitude":33.9860092306,
        "longitude":-118.3943954895,
        "state_name":"California",
        "brand":"Forever 21"
    },
    {
        "address":"4201 N. Shiloh Dr.",
        "city":"Fayetteville",
        "state":"AR",
        "zip":"72703",
        "phone":"(479) 435-2521",
        "url":"https:\/\/locations.forever21.com\/us\/stores\/ar\/fayetteville\/4201-n-shiloh-dr",
        "latitude":36.1279679,
        "longitude":-94.1487373,
        "state_name":"Arkansas",
        "brand":"Forever 21"
    },
    {
        "address":"1 Bellis Fair Parkway",
        "city":"Bellingham",
        "state":"WA",
        "zip":"98226",
        "phone":"(360) 392-2047",
        "url":"https:\/\/locations.forever21.com\/us\/stores\/wa\/bellingham\/1-bellis-fair-parkway",
        "latitude":48.7858833216,
        "longitude":-122.489892146,
        "state_name":"Washington",
        "brand":"Forever 21"
    },
    {
        "address":"5301 Kings Plaza",
        "city":"Brooklyn",
        "state":"NY",
        "zip":"11234",
        "phone":"(718) 306-5399",
        "url":"https:\/\/locations.forever21.com\/us\/stores\/ny\/brooklyn\/5301-kings-plaza",
        "latitude":40.6100802187,
        "longitude":-73.9200827554,
        "state_name":"New York",
        "brand":"Forever 21"
    },
    {
        "address":"10000 California Street",
        "city":"Omaha",
        "state":"NE",
        "zip":"68114",
        "phone":"(402) 938-1716",
        "url":"https:\/\/locations.forever21.com\/us\/stores\/ne\/omaha\/10000-california-street",
        "latitude":41.266880427,
        "longitude":-96.0682598278,
        "state_name":"Nebraska",
        "brand":"Forever 21"
    },
    {
        "address":"305 West 1382",
        "city":"Cedar Hill",
        "state":"TX",
        "zip":"75104",
        "phone":"(405) 898-6253",
        "url":"https:\/\/locations.forever21.com\/us\/stores\/tx\/cedarhill\/305-west-1382",
        "latitude":32.6016419794,
        "longitude":-96.9426444683,
        "state_name":"Texas",
        "brand":"Forever 21"
    },
    {
        "address":"630 Old Country Rd",
        "city":"Garden City",
        "state":"NY",
        "zip":"11530",
        "phone":"(516) 534-5074",
        "url":"https:\/\/locations.forever21.com\/us\/stores\/ny\/gardencity\/630-old-country-rd",
        "latitude":40.7385320949,
        "longitude":-73.6131101751,
        "state_name":"New York",
        "brand":"Forever 21"
    },
    {
        "address":"1901 NW Expressway",
        "city":"Oklahoma City",
        "state":"OK",
        "zip":"73118",
        "phone":"(405) 241-3496",
        "url":"https:\/\/locations.forever21.com\/us\/stores\/ok\/oklahomacity\/1901-nw-expressway",
        "latitude":35.5249548939,
        "longitude":-97.5439708275,
        "state_name":"Oklahoma",
        "brand":"Forever 21"
    },
    {
        "address":"10300 W. Forest Hill Blvd",
        "city":"West Palm Beach",
        "state":"FL",
        "zip":"33414",
        "phone":"(561) 273-6906",
        "url":"https:\/\/locations.forever21.com\/us\/stores\/fl\/westpalmbeach\/10300-w-forest-hill-blvd",
        "latitude":26.6470744991,
        "longitude":-80.2089377117,
        "state_name":"Florida",
        "brand":"Forever 21"
    },
    {
        "address":"250 West Mariposa Road",
        "city":"Nogales",
        "state":"AZ",
        "zip":"85621",
        "phone":"(520) 860-6038",
        "url":"https:\/\/locations.forever21.com\/us\/stores\/az\/nogales\/250-west-mariposa-road",
        "latitude":31.3693281412,
        "longitude":-110.9342561278,
        "state_name":"Arizona",
        "brand":"Forever 21"
    },
    {
        "address":"7021 S. Memorial Dr.",
        "city":"Tulsa",
        "state":"OK",
        "zip":"74133",
        "phone":"(918) 505-6486",
        "url":"https:\/\/locations.forever21.com\/us\/stores\/ok\/tulsa\/7021-s-memorial-dr",
        "latitude":36.0632979559,
        "longitude":-95.881788285,
        "state_name":"Oklahoma",
        "brand":"Forever 21"
    },
    {
        "address":"1200 Pacific Ave",
        "city":"Santa Cruz",
        "state":"CA",
        "zip":"95060",
        "phone":"(831) 824-9811",
        "url":"https:\/\/locations.forever21.com\/us\/stores\/ca\/santacruz\/1200-pacific-ave",
        "latitude":36.9733499462,
        "longitude":-122.025645619,
        "state_name":"California",
        "brand":"Forever 21"
    },
    {
        "address":"162 Christiana Mall",
        "city":"Newark",
        "state":"DE",
        "zip":"19702",
        "phone":"(302) 444-9059",
        "url":"https:\/\/locations.forever21.com\/us\/stores\/de\/newark\/162-christiana-mall",
        "latitude":39.6789841977,
        "longitude":-75.6521262663,
        "state_name":"Delaware",
        "brand":"Forever 21"
    },
    {
        "address":"7804 Abercorn St",
        "city":"Savannah",
        "state":"GA",
        "zip":"31406",
        "phone":"(912) 898-6828",
        "url":"https:\/\/locations.forever21.com\/us\/stores\/ga\/savannah\/7804-abercorn-st",
        "latitude":32.0027440147,
        "longitude":-81.1166524351,
        "state_name":"Georgia",
        "brand":"Forever 21"
    },
    {
        "address":"13000 Folsom Blvd",
        "city":"Folsom",
        "state":"CA",
        "zip":"95630",
        "phone":"(916) 850-1065",
        "url":"https:\/\/locations.forever21.com\/us\/stores\/ca\/folsom\/13000-folsom-blvd",
        "latitude":38.6431073205,
        "longitude":-121.1869741196,
        "state_name":"California",
        "brand":"Forever 21"
    },
    {
        "address":"1200 12th St SW",
        "city":"Rochester",
        "state":"MN",
        "zip":"55902",
        "phone":"(507) 513-6664",
        "url":"https:\/\/locations.forever21.com\/us\/stores\/mn\/rochester\/1200-12th-st-sw",
        "latitude":44.0041018,
        "longitude":-92.4797225,
        "state_name":"Minnesota",
        "brand":"Forever 21"
    },
    {
        "address":"2901 S. Capital Of Texas Highway",
        "city":"Austin",
        "state":"TX",
        "zip":"78746",
        "phone":"(512) 814-4302",
        "url":"https:\/\/locations.forever21.com\/us\/stores\/tx\/austin\/2901-s-capital-of-texas-highway",
        "latitude":30.2576925185,
        "longitude":-97.8068979481,
        "state_name":"Texas",
        "brand":"Forever 21"
    },
    {
        "address":"2700 Potomac Mills",
        "city":"Woodbridge",
        "state":"VA",
        "zip":"22192",
        "phone":"(703) 987-2088",
        "url":"https:\/\/locations.forever21.com\/us\/stores\/va\/woodbridge\/2700-potomac-mills",
        "latitude":38.6437257385,
        "longitude":-77.2965830792,
        "state_name":"Virginia",
        "brand":"Forever 21"
    },
    {
        "address":"1173 Galleria Boulevard",
        "city":"Roseville",
        "state":"CA",
        "zip":"95678",
        "phone":"(916) 724-2792",
        "url":"https:\/\/locations.forever21.com\/us\/stores\/ca\/roseville\/1173-galleria-boulevard",
        "latitude":38.7729362171,
        "longitude":-121.270874659,
        "state_name":"California",
        "brand":"Forever 21"
    },
    {
        "address":"2693 Countryside Dr",
        "city":"Turlock",
        "state":"CA",
        "zip":"95380",
        "phone":"(209) 669-9242",
        "url":"https:\/\/locations.forever21.com\/us\/stores\/ca\/turlock\/2693-countryside-dr",
        "latitude":37.5149923356,
        "longitude":-120.879403361,
        "state_name":"California",
        "brand":"Forever 21"
    },
    {
        "address":"8001 S. Orange Blossom Trail",
        "city":"Orlando",
        "state":"FL",
        "zip":"32809",
        "phone":"(407) 845-6509",
        "url":"https:\/\/locations.forever21.com\/us\/stores\/fl\/orlando\/8001-s-orange-blossom-trail",
        "latitude":28.4469481019,
        "longitude":-81.3946668999,
        "state_name":"Florida",
        "brand":"Forever 21"
    },
    {
        "address":"11200 W Broadway St",
        "city":"Pearland",
        "state":"TX",
        "zip":"77584",
        "phone":"(346) 207-3370",
        "url":"https:\/\/locations.forever21.com\/us\/stores\/tx\/pearland\/11200-w-broadway-st",
        "latitude":29.5527884473,
        "longitude":-95.3932064373,
        "state_name":"Texas",
        "brand":"Forever 21"
    },
    {
        "address":"2050 Ponce Bypass",
        "city":"Ponce",
        "state":"PR",
        "zip":"00716",
        "phone":"(787) 840-4105",
        "url":"https:\/\/locations.forever21.com\/us\/stores\/pr\/ponce\/2050-ponce-bypass",
        "latitude":17.9931283312,
        "longitude":-66.6116004659,
        "state_name":null,
        "brand":"Forever 21"
    },
    {
        "address":"6002 Slide Rd",
        "city":"Lubbock",
        "state":"TX",
        "zip":"79414",
        "phone":"(806) 799-6000",
        "url":"https:\/\/locations.forever21.com\/us\/stores\/tx\/lubbock\/6002-slide-rd",
        "latitude":33.5392788867,
        "longitude":-101.9251767719,
        "state_name":"Texas",
        "brand":"Forever 21"
    },
    {
        "address":"1001 Arney Rd",
        "city":"Woodburn",
        "state":"OR",
        "zip":"97071",
        "phone":"(971) 432-4017",
        "url":"https:\/\/locations.forever21.com\/us\/stores\/or\/woodburn\/1001-arney-rd",
        "latitude":45.1576564303,
        "longitude":-122.8779145515,
        "state_name":"Oregon",
        "brand":"Forever 21"
    },
    {
        "address":"2000 Route 38",
        "city":"Cherry Hill",
        "state":"NJ",
        "zip":"08002",
        "phone":"(856) 356-4324",
        "url":"https:\/\/locations.forever21.com\/us\/stores\/nj\/cherryhill\/2000-route-38",
        "latitude":39.9408516542,
        "longitude":-75.0257214945,
        "state_name":"New Jersey",
        "brand":"Forever 21"
    },
    {
        "address":"27434 Novi Rd",
        "city":"Novi",
        "state":"MI",
        "zip":"48377",
        "phone":"(248) 675-2922",
        "url":"https:\/\/locations.forever21.com\/us\/stores\/mi\/novi\/27434-novi-rd",
        "latitude":42.4899272,
        "longitude":-83.4757774,
        "state_name":"Michigan",
        "brand":"Forever 21"
    },
    {
        "address":"4250 Cerrillos Rd",
        "city":"Santa Fe",
        "state":"NM",
        "zip":"87507",
        "phone":"(505) 428-4259",
        "url":"https:\/\/locations.forever21.com\/us\/stores\/nm\/santafe\/4250-cerrillos-rd",
        "latitude":35.6360847475,
        "longitude":-106.0147268838,
        "state_name":"New Mexico",
        "brand":"Forever 21"
    },
    {
        "address":"350 W Hillcrest Dr",
        "city":"Thousand Oaks",
        "state":"CA",
        "zip":"91360",
        "phone":"(805) 277-5921",
        "url":"https:\/\/locations.forever21.com\/us\/stores\/ca\/thousandoaks\/350-w-hillcrest-dr",
        "latitude":34.1842236819,
        "longitude":-118.8880834414,
        "state_name":"California",
        "brand":"Forever 21"
    },
    {
        "address":"24201 W Valencia Blvd",
        "city":"Santa Clarita",
        "state":"CA",
        "zip":"91355",
        "phone":"(661) 600-0915",
        "url":"https:\/\/locations.forever21.com\/us\/stores\/ca\/santaclarita\/24201-w-valencia-blvd",
        "latitude":34.4165100694,
        "longitude":-118.5581491593,
        "state_name":"California",
        "brand":"Forever 21"
    },
    {
        "address":"80-40 Cooper Ave",
        "city":"Glendale",
        "state":"NY",
        "zip":"11385",
        "phone":"(347) 455-1959",
        "url":"https:\/\/locations.forever21.com\/us\/stores\/ny\/glendale\/80-40-cooper-ave",
        "latitude":40.7091200936,
        "longitude":-73.8682667252,
        "state_name":"New York",
        "brand":"Forever 21"
    },
    {
        "address":"4951 International Drive",
        "city":"Orlando",
        "state":"FL",
        "zip":"32819",
        "phone":"(407) 563-0053",
        "url":"https:\/\/locations.forever21.com\/us\/stores\/fl\/orlando\/4951-international-drive",
        "latitude":28.4764490364,
        "longitude":-81.4505046542,
        "state_name":"Florida",
        "brand":"Forever 21"
    },
    {
        "address":"5170 Meadowood Mall Circle",
        "city":"Reno",
        "state":"NV",
        "zip":"89502",
        "phone":"(775) 800-2177",
        "url":"https:\/\/locations.forever21.com\/us\/stores\/nv\/reno\/5170-meadowood-mall-circle",
        "latitude":39.4734905084,
        "longitude":-119.7835496528,
        "state_name":"Nevada",
        "brand":"Forever 21"
    },
    {
        "address":"112 Plaza Dr",
        "city":"West Covina",
        "state":"CA",
        "zip":"91790",
        "phone":"(626) 646-1840",
        "url":"https:\/\/locations.forever21.com\/us\/stores\/ca\/westcovina\/112-plaza-dr",
        "latitude":34.0707227056,
        "longitude":-117.9314628517,
        "state_name":"California",
        "brand":"Forever 21"
    },
    {
        "address":"2801 Memorial Pkwy SW",
        "city":"Huntsville",
        "state":"AL",
        "zip":"35801",
        "phone":"(256) 755-3699",
        "url":"https:\/\/locations.forever21.com\/us\/stores\/al\/huntsville\/2801-memorial-pkwy-sw",
        "latitude":34.7073604103,
        "longitude":-86.5874004762,
        "state_name":"Alabama",
        "brand":"Forever 21"
    },
    {
        "address":"10600 Quil Ceda Blvd",
        "city":"Tulalip",
        "state":"WA",
        "zip":"98271",
        "phone":"(360) 283-0917",
        "url":"https:\/\/locations.forever21.com\/us\/stores\/wa\/tulalip\/10600-quil-ceda-blvd",
        "latitude":48.0949050279,
        "longitude":-122.1872325634,
        "state_name":"Washington",
        "brand":"Forever 21"
    },
    {
        "address":"5001 East Expressway 83",
        "city":"Mercedes",
        "state":"TX",
        "zip":"78570",
        "phone":"(956) 294-6035",
        "url":"https:\/\/locations.forever21.com\/us\/stores\/tx\/mercedes\/5001-east-expressway-83",
        "latitude":26.1627334321,
        "longitude":-97.8879610625,
        "state_name":"Texas",
        "brand":"Forever 21"
    },
    {
        "address":"385 Southbridge St",
        "city":"Auburn",
        "state":"MA",
        "zip":"01501",
        "phone":"(774) 633-8008",
        "url":"https:\/\/locations.forever21.com\/us\/stores\/ma\/auburn\/385-southbridge-st",
        "latitude":42.2020847349,
        "longitude":-71.8354150017,
        "state_name":"Massachusetts",
        "brand":"Forever 21"
    },
    {
        "address":"4403 Black Horse Pike",
        "city":"Mays Landing",
        "state":"NJ",
        "zip":"08330",
        "phone":"(609) 415-6371",
        "url":"https:\/\/locations.forever21.com\/us\/stores\/nj\/mayslanding\/4403-black-horse-pike",
        "latitude":39.4537887509,
        "longitude":-74.6437723044,
        "state_name":"New Jersey",
        "brand":"Forever 21"
    },
    {
        "address":"1500 Harvey Rd",
        "city":"College Station",
        "state":"TX",
        "zip":"77840",
        "phone":"(979) 329-6081",
        "url":"https:\/\/locations.forever21.com\/us\/stores\/tx\/collegestation\/1500-harvey-rd",
        "latitude":30.6237108338,
        "longitude":-96.3026848147,
        "state_name":"Texas",
        "brand":"Forever 21"
    },
    {
        "address":"1000 South Lake Mall",
        "city":"Morrow",
        "state":"GA",
        "zip":"30260",
        "phone":"(770) 268-4645",
        "url":"https:\/\/locations.forever21.com\/us\/stores\/ga\/morrow\/1000-south-lake-mall",
        "latitude":33.5753530647,
        "longitude":-84.3517997117,
        "state_name":"Georgia",
        "brand":"Forever 21"
    },
    {
        "address":"5220 Fashion Outlet Way",
        "city":"Rosemont",
        "state":"IL",
        "zip":"60018",
        "phone":"(847) 737-2459",
        "url":"https:\/\/locations.forever21.com\/us\/stores\/il\/rosemont\/5220-fashion-outlet-way",
        "latitude":41.9750146873,
        "longitude":-87.8675543347,
        "state_name":"Illinois",
        "brand":"Forever 21"
    },
    {
        "address":"7700 East Kellogg Drive",
        "city":"Wichita",
        "state":"KS",
        "zip":"67207",
        "phone":"(316) 776-6772",
        "url":"https:\/\/locations.forever21.com\/us\/stores\/ks\/wichita\/7700-east-kellogg-drive",
        "latitude":37.6841114691,
        "longitude":-97.2466833693,
        "state_name":"Kansas",
        "brand":"Forever 21"
    },
    {
        "address":"12801 W Sunrise Blvd",
        "city":"Sunrise",
        "state":"FL",
        "zip":"33323",
        "phone":"(954) 331-3086",
        "url":"https:\/\/locations.forever21.com\/us\/stores\/fl\/sunrise\/12801-w-sunrise-blvd",
        "latitude":26.1503280362,
        "longitude":-80.322256921,
        "state_name":"Florida",
        "brand":"Forever 21"
    },
    {
        "address":"6191 State St",
        "city":"Murray",
        "state":"UT",
        "zip":"84017",
        "phone":"(801) 904-4449",
        "url":"https:\/\/locations.forever21.com\/us\/stores\/ut\/murray\/6191-state-st",
        "latitude":40.6371162,
        "longitude":-111.8847804,
        "state_name":"Utah",
        "brand":"Forever 21"
    },
    {
        "address":"828 Park Ciy Center",
        "city":"Lancaster",
        "state":"PA",
        "zip":"17601",
        "phone":"(717) 224-2854",
        "url":"https:\/\/locations.forever21.com\/us\/stores\/pa\/lancaster\/828-park-ciy-center",
        "latitude":40.0677116,
        "longitude":-76.3386917,
        "state_name":"Pennsylvania",
        "brand":"Forever 21"
    },
    {
        "address":"520 Town Center Dr",
        "city":"Oxnard",
        "state":"CA",
        "zip":"93036",
        "phone":"(805) 288-4494",
        "url":"https:\/\/locations.forever21.com\/us\/stores\/ca\/oxnard\/520-town-center-dr",
        "latitude":34.2389572739,
        "longitude":-119.1774540577,
        "state_name":"California",
        "brand":"Forever 21"
    },
    {
        "address":"10000 Coors Blvd",
        "city":"Albuquerque",
        "state":"NM",
        "zip":"87114",
        "phone":"(505) 600-4735",
        "url":"https:\/\/locations.forever21.com\/us\/stores\/nm\/albuquerque\/10000-coors-blvd",
        "latitude":35.1946503905,
        "longitude":-106.6557280751,
        "state_name":"New Mexico",
        "brand":"Forever 21"
    },
    {
        "address":"7850 Mentor Avenue",
        "city":"Mentor",
        "state":"OH",
        "zip":"44060",
        "phone":"(440) 701-1086",
        "url":"https:\/\/locations.forever21.com\/us\/stores\/oh\/mentor\/7850-mentor-avenue",
        "latitude":41.657569798,
        "longitude":-81.3572992454,
        "state_name":"Ohio",
        "brand":"Forever 21"
    },
    {
        "address":"350 N Milwaukee",
        "city":"Boise",
        "state":"ID",
        "zip":"83704",
        "phone":"(208) 803-3534",
        "url":"https:\/\/locations.forever21.com\/us\/stores\/id\/boise\/350-n-milwaukee",
        "latitude":43.608352179,
        "longitude":-116.2787027656,
        "state_name":"Idaho",
        "brand":"Forever 21"
    },
    {
        "address":"700 Haywood Road",
        "city":"Greenville",
        "state":"SC",
        "zip":"29607",
        "phone":"(864) 297-7543",
        "url":"https:\/\/locations.forever21.com\/us\/stores\/sc\/greenville\/700-haywood-road",
        "latitude":34.8498233515,
        "longitude":-82.333436308,
        "state_name":"South Carolina",
        "brand":"Forever 21"
    },
    {
        "address":"850 Hartford Turnpike",
        "city":"Waterford",
        "state":"CT",
        "zip":"06385",
        "phone":"(860) 326-3295",
        "url":"https:\/\/locations.forever21.com\/us\/stores\/ct\/waterford\/850-hartford-turnpike",
        "latitude":41.3740174816,
        "longitude":-72.1443925626,
        "state_name":"Connecticut",
        "brand":"Forever 21"
    },
    {
        "address":"3080 NW Federal Highway",
        "city":"Jensen Beach",
        "state":"FL",
        "zip":"34957",
        "phone":"(772) 405-9173",
        "url":"https:\/\/locations.forever21.com\/us\/stores\/fl\/jensenbeach\/3080-nw-federal-highway",
        "latitude":27.2433800454,
        "longitude":-80.2748606696,
        "state_name":"Florida",
        "brand":"Forever 21"
    },
    {
        "address":"2000 Riverchase Galleria",
        "city":"Birmingham",
        "state":"AL",
        "zip":"35244",
        "phone":"(205) 848-4061",
        "url":"https:\/\/locations.forever21.com\/us\/stores\/al\/birmingham\/2000-riverchase-galleria",
        "latitude":33.3788981654,
        "longitude":-86.8079684708,
        "state_name":"Alabama",
        "brand":"Forever 21"
    },
    {
        "address":"36504 Seaside Outlet Dr",
        "city":"Rehoboth Beach",
        "state":"DE",
        "zip":"19971",
        "phone":"(302) 864-9029",
        "url":"https:\/\/locations.forever21.com\/us\/stores\/de\/rehobothbeach\/36504-seaside-outlet-dr",
        "latitude":38.7202029266,
        "longitude":-75.1145291021,
        "state_name":"Delaware",
        "brand":"Forever 21"
    },
    {
        "address":"451 E. Altamonte Drive",
        "city":"Altamonte Springs",
        "state":"FL",
        "zip":"32701",
        "phone":"(407) 551-1210",
        "url":"https:\/\/locations.forever21.com\/us\/stores\/fl\/altamontesprings\/451-e-altamonte-drive",
        "latitude":28.6666374478,
        "longitude":-81.3772848533,
        "state_name":"Florida",
        "brand":"Forever 21"
    },
    {
        "address":"8249 Vineland Ave.",
        "city":"Orlando",
        "state":"FL",
        "zip":"32821",
        "phone":"(407) 550-9712",
        "url":"https:\/\/locations.forever21.com\/us\/stores\/fl\/orlando\/8249-vineland-ave",
        "latitude":28.3904210731,
        "longitude":-81.4916653926,
        "state_name":"Florida",
        "brand":"Forever 21"
    },
    {
        "address":"5001 Monroe Street",
        "city":"Toledo",
        "state":"OH",
        "zip":"43623",
        "phone":"(567) 200-6800",
        "url":"https:\/\/locations.forever21.com\/us\/stores\/oh\/toledo\/5001-monroe-street",
        "latitude":41.6930254348,
        "longitude":-83.6405389387,
        "state_name":"Ohio",
        "brand":"Forever 21"
    },
    {
        "address":"755 State Route 18",
        "city":"East Brunswick",
        "state":"NJ",
        "zip":"08816",
        "phone":"(732) 353-5513",
        "url":"https:\/\/locations.forever21.com\/us\/stores\/nj\/eastbrunswick\/755-state-route-18",
        "latitude":40.423141,
        "longitude":-74.3821523,
        "state_name":"New Jersey",
        "brand":"Forever 21"
    },
    {
        "address":"1365 N Dupont Hwy",
        "city":"Dover",
        "state":"DE",
        "zip":"19901",
        "phone":"(302) 747-2058",
        "url":"https:\/\/locations.forever21.com\/us\/stores\/de\/dover\/1365-n-dupont-hwy",
        "latitude":39.1954790391,
        "longitude":-75.5417423129,
        "state_name":"Delaware",
        "brand":"Forever 21"
    },
    {
        "address":"1201 Hooper Ave",
        "city":"Toms River",
        "state":"NJ",
        "zip":"08753",
        "phone":"(732) 504-0299",
        "url":"https:\/\/locations.forever21.com\/us\/stores\/nj\/tomsriver\/1201-hooper-ave",
        "latitude":39.9798110662,
        "longitude":-74.1816590093,
        "state_name":"New Jersey",
        "brand":"Forever 21"
    },
    {
        "address":"425 Cross Creek Mall",
        "city":"Fayetteville",
        "state":"NC",
        "zip":"28303",
        "phone":"(910) 500-4239",
        "url":"https:\/\/locations.forever21.com\/us\/stores\/nc\/fayetteville\/425-cross-creek-mall",
        "latitude":35.0725010468,
        "longitude":-78.9612850933,
        "state_name":"North Carolina",
        "brand":"Forever 21"
    },
    {
        "address":"215 E Foothills Pkwy",
        "city":"Fort Collins",
        "state":"CO",
        "zip":"80525",
        "phone":"(970) 372-3142",
        "url":"https:\/\/locations.forever21.com\/us\/stores\/co\/fortcollins\/215-e-foothills-pkwy",
        "latitude":40.5425757433,
        "longitude":-105.0742652693,
        "state_name":"Colorado",
        "brand":"Forever 21"
    },
    {
        "address":"2825 S. Glenstone",
        "city":"Springfield",
        "state":"MO",
        "zip":"65804",
        "phone":"(417) 370-6358",
        "url":"https:\/\/locations.forever21.com\/us\/stores\/mo\/springfield\/2825-s-glenstone",
        "latitude":37.1629714728,
        "longitude":-93.26477907,
        "state_name":"Missouri",
        "brand":"Forever 21"
    },
    {
        "address":"14700 East Indiana Ave",
        "city":"Spokane Valley",
        "state":"WA",
        "zip":"99216",
        "phone":"(509) 608-5370",
        "url":"https:\/\/locations.forever21.com\/us\/stores\/wa\/spokanevalley\/14700-east-indiana-ave",
        "latitude":47.6737853499,
        "longitude":-117.2080509336,
        "state_name":"Washington",
        "brand":"Forever 21"
    },
    {
        "address":"7000 Arundel Mills Circle",
        "city":"Hanover",
        "state":"MD",
        "zip":"21076",
        "phone":"(443) 620-9213",
        "url":"https:\/\/locations.forever21.com\/us\/stores\/md\/hanover\/7000-arundel-mills-circle",
        "latitude":39.1575299954,
        "longitude":-76.7248698199,
        "state_name":"Maryland",
        "brand":"Forever 21"
    },
    {
        "address":"560 Great Northern Shop Center",
        "city":"North Olmsted",
        "state":"OH",
        "zip":"44070",
        "phone":"(440) 872-6600",
        "url":"https:\/\/locations.forever21.com\/us\/stores\/oh\/northolmsted\/560-great-northern-shop-center",
        "latitude":41.4169075391,
        "longitude":-81.9065032123,
        "state_name":"Ohio",
        "brand":"Forever 21"
    },
    {
        "address":"650 Lee Blvd",
        "city":"Yorktown Heights",
        "state":"NY",
        "zip":"10598",
        "phone":"(914) 214-0026",
        "url":"https:\/\/locations.forever21.com\/us\/stores\/ny\/yorktownheights\/650-lee-blvd",
        "latitude":41.3285678575,
        "longitude":-73.8069181515,
        "state_name":"New York",
        "brand":"Forever 21"
    },
    {
        "address":"293 Valley River Center",
        "city":"Eugene",
        "state":"OR",
        "zip":"97401",
        "phone":"(541) 285-9990",
        "url":"https:\/\/locations.forever21.com\/us\/stores\/or\/eugene\/293-valley-river-center",
        "latitude":44.0681353,
        "longitude":-123.1057264,
        "state_name":"Oregon",
        "brand":"Forever 21"
    },
    {
        "address":"525 Ave Fd Roosevelt",
        "city":"San Juan",
        "state":"PR",
        "zip":"00918",
        "phone":"(787) 758-5501",
        "url":"https:\/\/locations.forever21.com\/us\/stores\/pr\/sanjuan\/525-ave-fd-roosevelt",
        "latitude":18.4219906925,
        "longitude":-66.0742233231,
        "state_name":null,
        "brand":"Forever 21"
    },
    {
        "address":"188 East Promontory J-120",
        "city":"Farmington",
        "state":"UT",
        "zip":"84025",
        "phone":"(801) 218-9525",
        "url":"https:\/\/locations.forever21.com\/us\/stores\/ut\/farmington\/188-east-promontory-j-120",
        "latitude":40.9838404153,
        "longitude":-111.9061240571,
        "state_name":"Utah",
        "brand":"Forever 21"
    },
    {
        "address":"2028 Florence Mall",
        "city":"Florence",
        "state":"KY",
        "zip":"41042",
        "phone":"(859) 488-4989",
        "url":"https:\/\/locations.forever21.com\/us\/stores\/ky\/florence\/2028-florence-mall",
        "latitude":38.9956481004,
        "longitude":-84.6505829229,
        "state_name":"Kentucky",
        "brand":"Forever 21"
    },
    {
        "address":"1 Galleria Dr",
        "city":"Middletown",
        "state":"NY",
        "zip":"10941",
        "phone":"(845) 673-8060",
        "url":"https:\/\/locations.forever21.com\/us\/stores\/ny\/middletown\/1-galleria-dr",
        "latitude":41.4527131022,
        "longitude":-74.369119079,
        "state_name":"New York",
        "brand":"Forever 21"
    },
    {
        "address":"7658 W Reno Ave",
        "city":"Oklahoma City",
        "state":"OK",
        "zip":"73127",
        "phone":"(405) 621-7604",
        "url":"https:\/\/locations.forever21.com\/us\/stores\/ok\/oklahomacity\/7658-w-reno-ave",
        "latitude":35.4616271042,
        "longitude":-97.6468807901,
        "state_name":"Oklahoma",
        "brand":"Forever 21"
    },
    {
        "address":"134 St Clair Square",
        "city":"Fairview Heights",
        "state":"IL",
        "zip":"62208",
        "phone":"(618) 589-7542",
        "url":"https:\/\/locations.forever21.com\/us\/stores\/il\/fairviewheights\/134-st-clair-square",
        "latitude":38.5955508157,
        "longitude":-89.9805574535,
        "state_name":"Illinois",
        "brand":"Forever 21"
    },
    {
        "address":"1420 Scheels Dr",
        "city":"Sparks",
        "state":"NV",
        "zip":"89434",
        "phone":"(775) 453-7986",
        "url":"https:\/\/locations.forever21.com\/us\/stores\/nv\/sparks\/1420-scheels-dr",
        "latitude":39.5322230672,
        "longitude":-119.7193884437,
        "state_name":"Nevada",
        "brand":"Forever 21"
    },
    {
        "address":"4861 Firestone Blvd",
        "city":"South Gate",
        "state":"CA",
        "zip":"90280",
        "phone":"(323) 973-4184",
        "url":"https:\/\/locations.forever21.com\/us\/stores\/ca\/southgate\/4861-firestone-blvd",
        "latitude":33.9533913767,
        "longitude":-118.1840063779,
        "state_name":"California",
        "brand":"Forever 21"
    },
    {
        "address":"16535 Southwest Fwy",
        "city":"Sugar Land",
        "state":"TX",
        "zip":"77479",
        "phone":"(832) 500-2334",
        "url":"https:\/\/locations.forever21.com\/us\/stores\/tx\/sugarland\/16535-southwest-fwy",
        "latitude":29.5929595282,
        "longitude":-95.6237741495,
        "state_name":"Texas",
        "brand":"Forever 21"
    },
    {
        "address":"12300 Jefferson Ave",
        "city":"Newport News",
        "state":"VA",
        "zip":"23602",
        "phone":"(757) 509-6325",
        "url":"https:\/\/locations.forever21.com\/us\/stores\/va\/newportnews\/12300-jefferson-ave",
        "latitude":37.1134792993,
        "longitude":-76.4969172577,
        "state_name":"Virginia",
        "brand":"Forever 21"
    },
    {
        "address":"500 Port Of New Orleans Pl",
        "city":"New Orleans",
        "state":"LA",
        "zip":"70124",
        "phone":"(504) 930-7860",
        "url":"https:\/\/locations.forever21.com\/us\/stores\/la\/neworleans\/500-port-of-new-orleans-pl",
        "latitude":29.9464004496,
        "longitude":-90.0623059655,
        "state_name":"Louisiana",
        "brand":"Forever 21"
    },
    {
        "address":"4950 Pacific Ave",
        "city":"Stockton",
        "state":"CA",
        "zip":"95207",
        "phone":"(209) 952-0021",
        "url":"https:\/\/locations.forever21.com\/us\/stores\/ca\/stockton\/4950-pacific-ave",
        "latitude":37.9947396568,
        "longitude":-121.3117630185,
        "state_name":"California",
        "brand":"Forever 21"
    },
    {
        "address":"301 South Hills Village",
        "city":"Bethel Park",
        "state":"PA",
        "zip":"15241",
        "phone":"(412) 308-1064",
        "url":"https:\/\/locations.forever21.com\/us\/stores\/pa\/bethelpark\/301-south-hills-village",
        "latitude":40.3422686,
        "longitude":-80.0559187,
        "state_name":"Pennsylvania",
        "brand":"Forever 21"
    },
    {
        "address":"602 Briarwood Circle",
        "city":"Ann Arbor",
        "state":"MI",
        "zip":"48108",
        "phone":"(734) 887-0924",
        "url":"https:\/\/locations.forever21.com\/us\/stores\/mi\/annarbor\/602-briarwood-circle",
        "latitude":42.2404717297,
        "longitude":-83.746629399,
        "state_name":"Michigan",
        "brand":"Forever 21"
    },
    {
        "address":"7014 E Camelback Rd",
        "city":"Scottsdale",
        "state":"AZ",
        "zip":"85251",
        "phone":"(480) 627-8991",
        "url":"https:\/\/locations.forever21.com\/us\/stores\/az\/scottsdale\/7014-e-camelback-rd",
        "latitude":33.5035348928,
        "longitude":-111.9272299841,
        "state_name":"Arizona",
        "brand":"Forever 21"
    },
    {
        "address":"5800 Peach St",
        "city":"Erie",
        "state":"PA",
        "zip":"16565",
        "phone":"(814) 844-6396",
        "url":"https:\/\/locations.forever21.com\/us\/stores\/pa\/erie\/5800-peach-st",
        "latitude":42.0674736396,
        "longitude":-80.096222089,
        "state_name":"Pennsylvania",
        "brand":"Forever 21"
    },
    {
        "address":"211 Westfarms Mall",
        "city":"Farmington",
        "state":"CT",
        "zip":"06032",
        "phone":"(860) 505-2176",
        "url":"https:\/\/locations.forever21.com\/us\/stores\/ct\/farmington\/211-westfarms-mall",
        "latitude":41.7231008811,
        "longitude":-72.7629865472,
        "state_name":"Connecticut",
        "brand":"Forever 21"
    },
    {
        "address":"3251 20th Ave",
        "city":"San Francisco",
        "state":"CA",
        "zip":"94132",
        "phone":"(415) 571-2181",
        "url":"https:\/\/locations.forever21.com\/us\/stores\/ca\/sanfrancisco\/3251-20th-ave",
        "latitude":37.7276628342,
        "longitude":-122.4767254692,
        "state_name":"California",
        "brand":"Forever 21"
    },
    {
        "address":"200 Bass Pro Dr",
        "city":"Pearl",
        "state":"MS",
        "zip":"39208",
        "phone":"(601) 813-0566",
        "url":"https:\/\/locations.forever21.com\/us\/stores\/ms\/pearl\/200-bass-pro-dr",
        "latitude":32.2747508185,
        "longitude":-90.1533144583,
        "state_name":"Mississippi",
        "brand":"Forever 21"
    },
    {
        "address":"3409 Esperanza Crossing",
        "city":"Austin",
        "state":"TX",
        "zip":"78758",
        "phone":"(512) 712-1638",
        "url":"https:\/\/locations.forever21.com\/us\/stores\/tx\/austin\/3409-esperanza-crossing",
        "latitude":30.4009621395,
        "longitude":-97.7277225577,
        "state_name":"Texas",
        "brand":"Forever 21"
    },
    {
        "address":"2500 North Mayfair Rd",
        "city":"Wauwatosa",
        "state":"WI",
        "zip":"53226",
        "phone":"(414) 290-0393",
        "url":"https:\/\/locations.forever21.com\/us\/stores\/wi\/wauwatosa\/2500-north-mayfair-rd",
        "latitude":43.0637264277,
        "longitude":-88.0445376699,
        "state_name":"Wisconsin",
        "brand":"Forever 21"
    },
    {
        "address":"2186 St. Louis Galleria",
        "city":"St. Louis",
        "state":"MO",
        "zip":"63117",
        "phone":"(314) 451-9860",
        "url":"https:\/\/locations.forever21.com\/us\/stores\/mo\/st.louis\/2186-st-louis-galleria",
        "latitude":38.6371014027,
        "longitude":-90.3484108958,
        "state_name":"Missouri",
        "brand":"Forever 21"
    },
    {
        "address":"2950 E Texas St",
        "city":"Bossier City",
        "state":"LA",
        "zip":"71111",
        "phone":"(318) 716-5428",
        "url":"https:\/\/locations.forever21.com\/us\/stores\/la\/bossiercity\/2950-e-texas-st",
        "latitude":32.5260008272,
        "longitude":-93.7060296291,
        "state_name":"Louisiana",
        "brand":"Forever 21"
    },
    {
        "address":"191 Chicago Ridge Mall Dr",
        "city":"Chicago Ridge",
        "state":"IL",
        "zip":"60415",
        "phone":"(708) 229-0762",
        "url":"https:\/\/locations.forever21.com\/us\/stores\/il\/chicagoridge\/191-chicago-ridge-mall-dr",
        "latitude":41.7168855,
        "longitude":-87.7824703,
        "state_name":"Illinois",
        "brand":"Forever 21"
    },
    {
        "address":"174 Quaker Bridge Mall",
        "city":"West Windsor",
        "state":"NJ",
        "zip":"08648",
        "phone":"(609) 806-0876",
        "url":"https:\/\/locations.forever21.com\/us\/stores\/nj\/westwindsor\/174-quaker-bridge-mall",
        "latitude":40.2907093196,
        "longitude":-74.6815589811,
        "state_name":"New Jersey",
        "brand":"Forever 21"
    },
    {
        "address":"700 East Expressway 83",
        "city":"McAllen",
        "state":"TX",
        "zip":"78503",
        "phone":"(956) 800-6585",
        "url":"https:\/\/locations.forever21.com\/us\/stores\/tx\/mcallen\/700-east-expressway-83",
        "latitude":26.1865822,
        "longitude":-98.2148341,
        "state_name":"Texas",
        "brand":"Forever 21"
    },
    {
        "address":"5000 South Arizona Mills Circle",
        "city":"Tempe",
        "state":"AZ",
        "zip":"85282",
        "phone":"(480) 820-0561",
        "url":"https:\/\/locations.forever21.com\/us\/stores\/az\/tempe\/5000-south-arizona-mills-circle",
        "latitude":33.3837617378,
        "longitude":-111.964455285,
        "state_name":"Arizona",
        "brand":"Forever 21"
    },
    {
        "address":"2929 Turner Hill Road",
        "city":"Lithonia",
        "state":"GA",
        "zip":"30038",
        "phone":"(770) 689-1869",
        "url":"https:\/\/locations.forever21.com\/us\/stores\/ga\/lithonia\/2929-turner-hill-road",
        "latitude":33.69738,
        "longitude":-84.0947764,
        "state_name":"Georgia",
        "brand":"Forever 21"
    },
    {
        "address":"160 Walt Whitman Rd",
        "city":"Huntington Station",
        "state":"NY",
        "zip":"11746",
        "phone":"(631) 760-2498",
        "url":"https:\/\/locations.forever21.com\/us\/stores\/ny\/huntingtonstation\/160-walt-whitman-rd",
        "latitude":40.8201402352,
        "longitude":-73.4092893276,
        "state_name":"New York",
        "brand":"Forever 21"
    },
    {
        "address":"14500 W Colfax Ave",
        "city":"Lakewood",
        "state":"CO",
        "zip":"80401",
        "phone":"(720) 834-9657",
        "url":"https:\/\/locations.forever21.com\/us\/stores\/co\/lakewood\/14500-w-colfax-ave",
        "latitude":39.7324743899,
        "longitude":-105.1581067094,
        "state_name":"Colorado",
        "brand":"Forever 21"
    },
    {
        "address":"630 Ventura Blvd",
        "city":"Camarillo",
        "state":"CA",
        "zip":"93010",
        "phone":"(805) 465-1918",
        "url":"https:\/\/locations.forever21.com\/us\/stores\/ca\/camarillo\/630-ventura-blvd",
        "latitude":34.2167349692,
        "longitude":-119.0645788599,
        "state_name":"California",
        "brand":"Forever 21"
    },
    {
        "address":"1751 Palm Beach Lakes Blvd",
        "city":"West Palm Beach",
        "state":"FL",
        "zip":"33401",
        "phone":"(561) 273-0590",
        "url":"https:\/\/locations.forever21.com\/us\/stores\/fl\/westpalmbeach\/1751-palm-beach-lakes-blvd",
        "latitude":26.7257865,
        "longitude":-80.088723,
        "state_name":"Florida",
        "brand":"Forever 21"
    },
    {
        "address":"5900 Sugarloaf Parkway",
        "city":"Lawrenceville",
        "state":"GA",
        "zip":"30043",
        "phone":"(770) 580-7888",
        "url":"https:\/\/locations.forever21.com\/us\/stores\/ga\/lawrenceville\/5900-sugarloaf-parkway",
        "latitude":33.9800433935,
        "longitude":-84.0805387908,
        "state_name":"Georgia",
        "brand":"Forever 21"
    },
    {
        "address":"3450 Wrightsboro Road",
        "city":"Augusta",
        "state":"GA",
        "zip":"30909",
        "phone":"(762) 383-6651",
        "url":"https:\/\/locations.forever21.com\/us\/stores\/ga\/augusta\/3450-wrightsboro-road",
        "latitude":33.4625061901,
        "longitude":-82.0783782882,
        "state_name":"Georgia",
        "brand":"Forever 21"
    },
    {
        "address":"6000 West Glades Road",
        "city":"Boca Raton",
        "state":"FL",
        "zip":"33431",
        "phone":"(561) 208-5593",
        "url":"https:\/\/locations.forever21.com\/us\/stores\/fl\/bocaraton\/6000-west-glades-road",
        "latitude":26.3650248,
        "longitude":-80.1328806,
        "state_name":"Florida",
        "brand":"Forever 21"
    },
    {
        "address":"4343 Belden Village Mall",
        "city":"Canton",
        "state":"OH",
        "zip":"44718",
        "phone":"(330) 526-7098",
        "url":"https:\/\/locations.forever21.com\/us\/stores\/oh\/canton\/4343-belden-village-mall",
        "latitude":40.8573130435,
        "longitude":-81.428757772,
        "state_name":"Ohio",
        "brand":"Forever 21"
    },
    {
        "address":"23000 Eureka Rd",
        "city":"Taylor",
        "state":"MI",
        "zip":"48180",
        "phone":"(734) 258-1530",
        "url":"https:\/\/locations.forever21.com\/us\/stores\/mi\/taylor\/23000-eureka-rd",
        "latitude":42.1998294001,
        "longitude":-83.2562303094,
        "state_name":"Michigan",
        "brand":"Forever 21"
    },
    {
        "address":"1455 NW 107th Ave",
        "city":"Doral",
        "state":"FL",
        "zip":"33172",
        "phone":"(786) 843-4404",
        "url":"https:\/\/locations.forever21.com\/us\/stores\/fl\/doral\/1455-nw-107th-ave",
        "latitude":25.7858658258,
        "longitude":-80.3649039612,
        "state_name":"Florida",
        "brand":"Forever 21"
    },
    {
        "address":"40820 Winchester Rd",
        "city":"Temecula",
        "state":"CA",
        "zip":"92591",
        "phone":"(951) 326-2108",
        "url":"https:\/\/locations.forever21.com\/us\/stores\/ca\/temecula\/40820-winchester-rd",
        "latitude":33.5250824495,
        "longitude":-117.153654024,
        "state_name":"California",
        "brand":"Forever 21"
    },
    {
        "address":"1201 Boston Post Rd",
        "city":"Milford",
        "state":"CT",
        "zip":"06460",
        "phone":"(203) 701-5349",
        "url":"https:\/\/locations.forever21.com\/us\/stores\/ct\/milford\/1201-boston-post-rd",
        "latitude":41.2361472221,
        "longitude":-73.0352351754,
        "state_name":"Connecticut",
        "brand":"Forever 21"
    },
    {
        "address":"3333 Buford Dr",
        "city":"Buford",
        "state":"GA",
        "zip":"30519",
        "phone":"(678) 926-5031",
        "url":"https:\/\/locations.forever21.com\/us\/stores\/ga\/buford\/3333-buford-dr",
        "latitude":34.0647072153,
        "longitude":-83.9841767565,
        "state_name":"Georgia",
        "brand":"Forever 21"
    },
    {
        "address":"8401 Gateway Blvd West",
        "city":"El Paso",
        "state":"TX",
        "zip":"79925",
        "phone":"(915) 745-6999",
        "url":"https:\/\/locations.forever21.com\/us\/stores\/tx\/elpaso\/8401-gateway-blvd-west",
        "latitude":31.775109246,
        "longitude":-106.3795955436,
        "state_name":"Texas",
        "brand":"Forever 21"
    },
    {
        "address":"288 Orland Square Dr",
        "city":"Orland Park",
        "state":"IL",
        "zip":"60462",
        "phone":"(708) 675-3430",
        "url":"https:\/\/locations.forever21.com\/us\/stores\/il\/orlandpark\/288-orland-square-dr",
        "latitude":41.6184100486,
        "longitude":-87.8525396451,
        "state_name":"Illinois",
        "brand":"Forever 21"
    },
    {
        "address":"10300 Little Patuxent Pkwy",
        "city":"Columbia",
        "state":"MD",
        "zip":"21044",
        "phone":"(410) 423-8660",
        "url":"https:\/\/locations.forever21.com\/us\/stores\/md\/columbia\/10300-little-patuxent-pkwy",
        "latitude":39.2157005581,
        "longitude":-76.8603377883,
        "state_name":"Maryland",
        "brand":"Forever 21"
    },
    {
        "address":"99 Rockingham Park Boulevard",
        "city":"Salem",
        "state":"NH",
        "zip":"03079",
        "phone":"(603) 328-3181",
        "url":"https:\/\/locations.forever21.com\/us\/stores\/nh\/salem\/99-rockingham-park-boulevard",
        "latitude":42.7682549788,
        "longitude":-71.2317306356,
        "state_name":"New Hampshire",
        "brand":"Forever 21"
    },
    {
        "address":"375 Jacksonville Mall",
        "city":"Jacksonville",
        "state":"NC",
        "zip":"28546",
        "phone":"(910) 467-0438",
        "url":"https:\/\/locations.forever21.com\/us\/stores\/nc\/jacksonville\/375-jacksonville-mall",
        "latitude":34.7652493295,
        "longitude":-77.3809044078,
        "state_name":"North Carolina",
        "brand":"Forever 21"
    },
    {
        "address":"1230 Monmouth Mall, Route 35",
        "city":"Eatontown",
        "state":"NJ",
        "zip":"07724",
        "phone":"(732) 676-2063",
        "url":"https:\/\/locations.forever21.com\/us\/stores\/nj\/eatontown\/1230-monmouth-mall-route-35",
        "latitude":40.2876116764,
        "longitude":-74.054736072,
        "state_name":"New Jersey",
        "brand":"Forever 21"
    },
    {
        "address":"6600 Menaul Blvd NE",
        "city":"Albuquerque",
        "state":"NM",
        "zip":"87110",
        "phone":"(505) 433-6770",
        "url":"https:\/\/locations.forever21.com\/us\/stores\/nm\/albuquerque\/6600-menaul-blvd-ne",
        "latitude":35.1066216,
        "longitude":-106.570632,
        "state_name":"New Mexico",
        "brand":"Forever 21"
    },
    {
        "address":"140 University Town Center Dr",
        "city":"Sarasota",
        "state":"FL",
        "zip":"34243",
        "phone":"(941) 554-5481",
        "url":"https:\/\/locations.forever21.com\/us\/stores\/fl\/sarasota\/140-university-town-center-dr",
        "latitude":27.384355944,
        "longitude":-82.4529299239,
        "state_name":"Florida",
        "brand":"Forever 21"
    },
    {
        "address":"1046 Lloyd Center",
        "city":"Portland",
        "state":"OR",
        "zip":"97232",
        "phone":"(503) 535-0958",
        "url":"https:\/\/locations.forever21.com\/us\/stores\/or\/portland\/1046-lloyd-center",
        "latitude":45.5328541581,
        "longitude":-122.6536033298,
        "state_name":"Oregon",
        "brand":"Forever 21"
    },
    {
        "address":"14006 Riverside Dr",
        "city":"Sherman Oaks",
        "state":"CA",
        "zip":"91423",
        "phone":"(747) 247-6824",
        "url":"https:\/\/locations.forever21.com\/us\/stores\/ca\/shermanoaks\/14006-riverside-dr",
        "latitude":34.1569366924,
        "longitude":-118.4376099683,
        "state_name":"California",
        "brand":"Forever 21"
    },
    {
        "address":"566 Brandon Town Center Mall",
        "city":"Brandon",
        "state":"FL",
        "zip":"33511",
        "phone":"(813) 413-3562",
        "url":"https:\/\/locations.forever21.com\/us\/stores\/fl\/brandon\/566-brandon-town-center-mall",
        "latitude":27.9311794082,
        "longitude":-82.3255025683,
        "state_name":"Florida",
        "brand":"Forever 21"
    },
    {
        "address":"223 Stonewood St",
        "city":"Downey",
        "state":"CA",
        "zip":"90241",
        "phone":"(562) 674-2589",
        "url":"https:\/\/locations.forever21.com\/us\/stores\/ca\/downey\/223-stonewood-st",
        "latitude":33.935657044,
        "longitude":-118.1204289545,
        "state_name":"California",
        "brand":"Forever 21"
    },
    {
        "address":"201 E Magnolia Blvd",
        "city":"Burbank",
        "state":"CA",
        "zip":"91502",
        "phone":"(818) 823-2928",
        "url":"https:\/\/locations.forever21.com\/us\/stores\/ca\/burbank\/201-e-magnolia-blvd",
        "latitude":34.1834450809,
        "longitude":-118.3122667059,
        "state_name":"California",
        "brand":"Forever 21"
    },
    {
        "address":"4701 Mills Circle",
        "city":"Ontario",
        "state":"CA",
        "zip":"91764",
        "phone":"(909) 244-1199",
        "url":"https:\/\/locations.forever21.com\/us\/stores\/ca\/ontario\/4701-mills-circle",
        "latitude":34.0736784197,
        "longitude":-117.5500970561,
        "state_name":"California",
        "brand":"Forever 21"
    },
    {
        "address":"111 Nichols Rd",
        "city":"Kansas City",
        "state":"MO",
        "zip":"64112",
        "phone":"(816) 490-4232",
        "url":"https:\/\/locations.forever21.com\/us\/stores\/mo\/kansascity\/111-nichols-rd",
        "latitude":39.0418418166,
        "longitude":-94.5886378508,
        "state_name":"Missouri",
        "brand":"Forever 21"
    },
    {
        "address":"6531 Springfield Mall",
        "city":"Springfield",
        "state":"VA",
        "zip":"22150",
        "phone":"(703) 719-6103",
        "url":"https:\/\/locations.forever21.com\/us\/stores\/va\/springfield\/6531-springfield-mall",
        "latitude":38.7747023738,
        "longitude":-77.1742500455,
        "state_name":"Virginia",
        "brand":"Forever 21"
    },
    {
        "address":"1706 Franklin Mills Cir",
        "city":"Philadelphia",
        "state":"PA",
        "zip":"19154",
        "phone":"(215) 637-0678",
        "url":"https:\/\/locations.forever21.com\/us\/stores\/pa\/philadelphia\/1706-franklin-mills-cir",
        "latitude":40.0873046704,
        "longitude":-74.9613563894,
        "state_name":"Pennsylvania",
        "brand":"Forever 21"
    },
    {
        "address":"1965 Fashion Blvd",
        "city":"Niagara Falls",
        "state":"NY",
        "zip":"14304",
        "phone":"(716) 513-1041",
        "url":"https:\/\/locations.forever21.com\/us\/stores\/ny\/niagarafalls\/1965-fashion-blvd",
        "latitude":43.0961824477,
        "longitude":-78.9817316677,
        "state_name":"New York",
        "brand":"Forever 21"
    },
    {
        "address":"603A Broadway Mall",
        "city":"Hicksville",
        "state":"NY",
        "zip":"11801",
        "phone":"(516) 688-6042",
        "url":"https:\/\/locations.forever21.com\/us\/stores\/ny\/hicksville\/603a-broadway-mall",
        "latitude":40.7738695896,
        "longitude":-73.5304284485,
        "state_name":"New York",
        "brand":"Forever 21"
    },
    {
        "address":"11401 NW 12th St",
        "city":"Miami",
        "state":"FL",
        "zip":"33172",
        "phone":"(305) 428-8974",
        "url":"https:\/\/locations.forever21.com\/us\/stores\/fl\/miami\/11401-nw-12th-st",
        "latitude":25.787814543,
        "longitude":-80.3804948498,
        "state_name":"Florida",
        "brand":"Forever 21"
    },
    {
        "address":"2060 Southlake Mall",
        "city":"Merrillville",
        "state":"IN",
        "zip":"46410",
        "phone":"(219) 525-6755",
        "url":"https:\/\/locations.forever21.com\/us\/stores\/in\/merrillville\/2060-southlake-mall",
        "latitude":41.4692356503,
        "longitude":-87.3112189981,
        "state_name":"Indiana",
        "brand":"Forever 21"
    },
    {
        "address":"18801 East 39th Street South",
        "city":"Independence",
        "state":"MO",
        "zip":"64057",
        "phone":"(816) 772-1999",
        "url":"https:\/\/locations.forever21.com\/us\/stores\/mo\/independence\/18801-east-39th-street-south",
        "latitude":39.045784566,
        "longitude":-94.3588407264,
        "state_name":"Missouri",
        "brand":"Forever 21"
    },
    {
        "address":"1695 Rutherford St",
        "city":"Tulare",
        "state":"CA",
        "zip":"93274",
        "phone":"(559) 684-1817",
        "url":"https:\/\/locations.forever21.com\/us\/stores\/ca\/tulare\/1695-rutherford-st",
        "latitude":36.2293127254,
        "longitude":-119.3357647405,
        "state_name":"California",
        "brand":"Forever 21"
    },
    {
        "address":"3195 28th St SE",
        "city":"Grand Rapids",
        "state":"MI",
        "zip":"49512",
        "phone":"(616) 649-6927",
        "url":"https:\/\/locations.forever21.com\/us\/stores\/mi\/grandrapids\/3195-28th-st-se",
        "latitude":42.9161628591,
        "longitude":-85.5880422891,
        "state_name":"Michigan",
        "brand":"Forever 21"
    },
    {
        "address":"200 Baychester Ave",
        "city":"Bronx",
        "state":"NY",
        "zip":"10475",
        "phone":"(718) 530-7353",
        "url":"https:\/\/locations.forever21.com\/us\/stores\/ny\/bronx\/200-baychester-ave",
        "latitude":40.8643021194,
        "longitude":-73.826708897,
        "state_name":"New York",
        "brand":"Forever 21"
    },
    {
        "address":"5725 Johnston St",
        "city":"Lafayette",
        "state":"LA",
        "zip":"70503",
        "phone":"(337) 735-8446",
        "url":"https:\/\/locations.forever21.com\/us\/stores\/la\/lafayette\/5725-johnston-st",
        "latitude":30.1712031362,
        "longitude":-92.0756859533,
        "state_name":"Louisiana",
        "brand":"Forever 21"
    },