store_name,street,city,state,zip,phone,longitude,latitude,province,timezone,temp_closed,reopen_date,store_open_date,coming_soon,start_date,end_date,hybrid_stores,temporarily_closed,state_name,brand,updated
FAMILY DOLLAR #13714,1600 Crescent Ridge Rd Ne,Tuscaloosa,AL,35404,659-215-5440,-87.481775,33.233469,,America/Chicago,N,,10/28/2023 00:00:00,N,,,Y,0,Alabama,Family Dollar,2024-06-05
FAMILY DOLLAR #639,524 14th St,Tuscaloosa,AL,35401-3434,659-215-5158,-87.54454,33.200698,,America/Chicago,N,,05/19/1983 00:00:00,N,2020-08-18T23:59:59,2021-08-26T23:59:59,Y,0,Alabama,Family Dollar,2024-06-05
FAMILY DOLLAR #12679,1525 Skyland Blvd East,Tuscaloosa,AL,35405-4231,205-561-0446,-87.517845,33.167774,,America/Chicago,N,,02/11/2021 00:00:00,N,2020-08-18T23:59:59,2021-08-26T23:59:59,N,0,Alabama,Family Dollar,2024-06-05
FAMILY DOLLAR #11726,3851 Greensboro Avenue,Tuscaloosa,AL,35405-2846,205-771-6110,-87.54630534,33.1730181,,America/Chicago,N,,03/23/2017 00:00:00,N,2020-08-18T23:59:59,2021-08-26T23:59:59,N,0,Alabama,Family Dollar,2024-06-05
FAMILY DOLLAR #10460,2515 Martin Luther King Jr Blv,Tuscaloosa,AL,35401,205-861-0762,-87.576921,33.189211,,America/Chicago,N,,12/04/2013 00:00:00,N,2020-08-18T23:59:59,2021-08-26T23:59:59,N,0,Alabama,Family Dollar,2024-06-05
FAMILY DOLLAR #3812,1507 Culver Rd,Tuscaloosa,AL,35401-2632,659-261-2321,-87.589628,33.199822,,America/Chicago,N,,07/22/1999 00:00:00,N,2020-08-18T23:59:59,2021-08-26T23:59:59,N,0,Alabama,Family Dollar,2024-06-05
FAMILY DOLLAR #12925,15322 Highway 11 N.,Coaling,AL,35453,659-215-5789,-87.34288,33.170986,,America/Chicago,N,,07/02/2022 00:00:00,N,,,Y,0,Alabama,Family Dollar,2024-06-05
FAMILY DOLLAR #13818,13949 Bartow Lake Blvd,Duncanville,AL,35456,659-268-1017,-87.457541,33.089217,,America/Chicago,N,,02/23/2024 00:00:00,N,3/14/24,,Y,0,Alabama,Family Dollar,2024-06-05
FAMILY DOLLAR #12825,15704 Al Highway 216,Brookwood,AL,35444,659-215-5942,-87.328896,33.25485,,America/Chicago,N,,01/09/2022 00:00:00,N,,,Y,0,Alabama,Family Dollar,2024-06-05
FAMILY DOLLAR #8919,40278 Hwy 69s,Moundville,AL,35474,205-761-4121,-87.622632,32.997635,,America/Chicago,N,,11/29/2012 00:00:00,N,2021-09-05T23:59:59,2021-09-16T23:59:59,N,0,Alabama,Family Dollar,2024-06-05
FAMILY DOLLAR #13472,25149 Highway 82,Gordo,AL,35466-0000,659-734-6482,-87.900382,33.315179,,America/Chicago,N,,04/20/2023 00:00:00,N,,,Y,0,Alabama,Family Dollar,2024-06-05
FAMILY DOLLAR #10696,430 4th Avenue N,Bessemer,AL,35020-6229,205-584-6836,-86.96756229,33.38772569,,America/Chicago,N,,05/29/2014 00:00:00,N,2020-08-18T23:59:59,2021-08-26T23:59:59,N,0,Alabama,Family Dollar,2024-06-05
FAMILY DOLLAR #13212,401 1st Ave W,Reform,AL,35481-0000,659-734-6088,-88.01269,33.377754,,America/Chicago,N,,09/23/2022 00:00:00,N,,,Y,0,Alabama,Family Dollar,2024-06-05
FAMILY DOLLAR #12505,206 Greensboro Street,Eutaw,AL,35462,205-336-1325,-87.88463,32.838943,,America/Chicago,N,,03/26/2020 00:00:00,N,2020-08-18T23:59:59,2021-08-26T23:59:59,N,0,Alabama,Family Dollar,2024-06-05
FAMILY DOLLAR #10109,4341 Bessemer Super Highway,Bessemer,AL,35020-2414,659-255-7881,-86.93786563,33.43400228,,America/Chicago,N,,12/12/2013 00:00:00,N,2020-08-18T23:59:59,2021-08-26T23:59:59,N,0,Alabama,Family Dollar,2024-06-05
FAMILY DOLLAR #11904,1095 Tuscaloosa Street,Greensboro,AL,36744-1575,334-218-0304,-87.59498662,32.70508549,,America/Chicago,N,,10/12/2017 00:00:00,N,2020-08-18T23:59:59,2021-08-26T23:59:59,N,0,Alabama,Family Dollar,2024-06-05
FAMILY DOLLAR #945,639 Bessemer Super Hwy,Midfield,AL,35228-3003,205-434-9210,-86.926614,33.450044,,America/Chicago,N,,11/21/1985 00:00:00,N,2021-10-10T23:59:59,2021-10-21T23:59:59,N,0,Alabama,Family Dollar,2024-06-05
FAMILY DOLLAR #4019,30 Phillips Dr,Birmingham,AL,35228-2233,659-268-0540,-86.90872681,33.46328385,,America/Chicago,N,,05/11/2000 00:00:00,N,2020-08-18T23:59:59,2021-08-26T23:59:59,N,0,Alabama,Family Dollar,2024-06-05
FAMILY DOLLAR #622,313 36th St,Fairfield,AL,35064-1401,631-320-5350,-86.910622,33.49883,,America/Chicago,N,,02/24/1983 00:00:00,N,2020-08-18T23:59:59,2021-08-26T23:59:59,N,0,Alabama,Family Dollar,2024-06-05
FAMILY DOLLAR #6698,1355 Bessemer Rd,Birmingham,AL,35208-4325,659-262-5837,-86.893666,33.48107,,America/Chicago,N,,02/24/2005 00:00:00,N,2020-08-18T23:59:59,2021-08-26T23:59:59,N,0,Alabama,Family Dollar,2024-06-05
FAMILY DOLLAR #9278,3124 Alemeda Avenue Sw,Birmingham,AL,35221-1100,659-262-5037,-86.88436198,33.47011735,,America/Chicago,N,,04/25/2013 00:00:00,N,2020-08-18T23:59:59,2021-08-26T23:59:59,N,0,Alabama,Family Dollar,2024-06-05
FAMILY DOLLAR #567,35 Memorial Pky E,Aliceville,AL,35442-2155,205-779-1346,-88.151062,33.127951,,America/Chicago,N,,09/15/1983 00:00:00,N,2020-08-18T23:59:59,2021-08-26T23:59:59,N,0,Alabama,Family Dollar,2024-06-05
FAMILY DOLLAR #7423,2003 Avenue F Ensley,Ensley,AL,35218-2212,205-382-8312,-86.895976,33.511014,,America/Chicago,N,,11/08/2007 00:00:00,N,2022-04-10T23:59:59,2022-05-09T23:59:59,Y,0,Alabama,Family Dollar,2024-06-05
FAMILY DOLLAR #2618,2224 Bessemer Rd,Birmingham,AL,35208-4712,205-598-4176,-86.87877,33.496491,,America/Chicago,N,,11/08/1996 00:00:00,N,2020-08-18T23:59:59,2021-08-26T23:59:59,N,0,Alabama,Family Dollar,2024-06-05
FAMILY DOLLAR #2082,925 Dennison Avenue,Birmingham,AL,35211,659-268-1402,-86.844924,33.480199,,America/Chicago,N,,07/29/1992 00:00:00,N,,,N,0,Alabama,Family Dollar,2024-06-05
FAMILY DOLLAR #11205,3202 Lorna Road,Hoover,AL,35216-5422,205-421-4674,-86.802184,33.39724,,America/Chicago,N,,08/14/2014 00:00:00,N,2020-08-18T23:59:59,2021-08-26T23:59:59,N,0,Alabama,Family Dollar,2024-06-05
FAMILY DOLLAR #8695,1556 Bankhead Hwy W.,Birmingham,AL,35214,659-262-5026,-86.870798,33.541169,,America/Chicago,N,,11/08/2012 00:00:00,N,2020-08-18T23:59:59,2021-08-26T23:59:59,N,0,Alabama,Family Dollar,2024-06-05
FAMILY DOLLAR #10621,110 Fikes Ferry Road,Marion,AL,36756-3202,334-247-1728,-87.317032,32.619909,,America/Chicago,N,,07/10/2014 00:00:00,N,2020-08-18T23:59:59,2021-08-26T23:59:59,N,0,Alabama,Family Dollar,2024-06-05
FAMILY DOLLAR #9394,200 6th Avenue S,Birmingham,AL,35205,659-207-1664,-86.82659025,33.49518452,,America/Chicago,N,,09/13/2012 00:00:00,N,2020-08-18T23:59:59,2021-08-26T23:59:59,N,0,Alabama,Family Dollar,2024-06-05
FAMILY DOLLAR #8791,521 Center Street N,Birmingham,AL,35204,205-421-4671,-86.83567854,33.51178845,,America/Chicago,N,,09/13/2012 00:00:00,N,2020-08-18T23:59:59,2021-08-26T23:59:59,N,0,Alabama,Family Dollar,2024-06-05
FAMILY DOLLAR #1946,8154 Hwy 31 N Dunstan,Calera,AL,35040-1101,205-690-9036,-86.753774,33.104628,,America/Chicago,N,,11/27/1991 00:00:00,N,2020-08-18T23:59:59,2021-08-26T23:59:59,N,0,Alabama,Family Dollar,2024-06-05
FAMILY DOLLAR #615,3120 26th Street N,Birmingham,AL,35207-4504,205-421-3515,-86.819212,33.55331,,America/Chicago,N,,02/03/1983 00:00:00,N,2020-08-18T23:59:59,2021-08-26T23:59:59,N,0,Alabama,Family Dollar,2024-06-05
FAMILY DOLLAR #7275,3001 12th Ave N,Birmingham,AL,35234-3219,659-268-0111,-86.799885,33.533272,,America/Chicago,N,,05/03/2007 00:00:00,N,2020-08-18T23:59:59,2021-08-26T23:59:59,N,0,Alabama,Family Dollar,2024-06-05
FAMILY DOLLAR #13464,8996 Al Highway 22,Maplesville,AL,36750-3200,205-225-3131,-86.872907,32.783078,,America/Chicago,N,,07/06/2023 00:00:00,N,,,Y,0,Alabama,Family Dollar,2024-06-05
FAMILY DOLLAR #8480,24586 Us Highway 31,Jemison,AL,35085,205-479-6026,-86.74283508,32.95786901,,America/Chicago,N,,08/25/2011 00:00:00,N,2020-08-18T23:59:59,2021-08-26T23:59:59,N,0,Alabama,Family Dollar,2024-06-05
FAMILY DOLLAR #8154,5401 1st Ave. N.,Birmingham,AL,35212-2403,256-715-5224,-86.752955,33.539011,,America/Chicago,N,,09/24/2009 00:00:00,N,2020-08-18T23:59:59,2021-08-26T23:59:59,N,0,Alabama,Family Dollar,2024-06-05
FAMILY DOLLAR #10298,6629 1st Avenue N,Birmingham,AL,35206-5012,205-948-2720,-86.7394171,33.55000047,,America/Chicago,N,,12/19/2013 00:00:00,N,2020-08-18T23:59:59,2021-08-26T23:59:59,N,0,Alabama,Family Dollar,2024-06-05
FAMILY DOLLAR #415,2100 Pinson Valley Parkway,Tarrant,AL,35217-2007,205-445-9970,-86.76637801,33.58909713,,America/Chicago,N,,04/06/1979 00:00:00,N,2020-08-18T23:59:59,2021-08-26T23:59:59,N,0,Alabama,Family Dollar,2024-06-05
FAMILY DOLLAR #865,7330 1st Ave N,Birmingham,AL,35206-4213,205-909-1433,-86.732806,33.558151,,America/Chicago,N,,11/01/1984 00:00:00,N,2020-08-18T23:59:59,2021-08-26T23:59:59,N,0,Alabama,Family Dollar,2024-06-05
FAMILY DOLLAR #13953,2910 Tabernacle Rd,Columbus,MS,39702-9622,662-240-2251,-88.293875,33.515734,,America/Chicago,N,,04/18/2024 00:00:00,N,,,Y,0,Mississippi,Family Dollar,2024-06-05
FAMILY DOLLAR #13683,16 Oswalt Rd,New Hope,MS,39702,662-368-2561,-88.327639,33.448298,,America/Chicago,N,,10/26/2023 00:00:00,N,,,Y,0,Mississippi,Family Dollar,2024-06-05
FAMILY DOLLAR #2714,9747 Al Highway 18,Vernon,AL,35592,205-431-3012,-88.11116,33.75464,,America/Chicago,N,,12/01/1995 00:00:00,N,2020-08-18T23:59:59,2021-08-26T23:59:59,Y,0,Alabama,Family Dollar,2024-06-05
FAMILY DOLLAR #307,306 E Jackson St,Demopolis,AL,36732-2254,334-654-8571,-87.834548,32.51147,,America/Chicago,N,,09/17/1981 00:00:00,N,2020-08-18T23:59:59,2021-08-26T23:59:59,N,0,Alabama,Family Dollar,2024-06-05
FAMILY DOLLAR #12545,446 Washington,Uniontown,AL,36786,334-231-2116,-87.516174,32.449688,,America/Chicago,N,,09/02/2020 00:00:00,N,2020-08-18T23:59:59,2021-08-26T23:59:59,N,0,Alabama,Family Dollar,2024-06-05
FAMILY DOLLAR #8171,608 Springville Rd,Birmingham,AL,35215-7402,205-421-7873,-86.687794,33.608904,,America/Chicago,N,,03/11/2010 00:00:00,N,2020-08-18T23:59:59,2021-08-26T23:59:59,N,0,Alabama,Family Dollar,2024-06-05
FAMILY DOLLAR #4150,2157 Carson Rd,Birmingham,AL,35215,205-725-2051,-86.70608,33.642786,,America/Chicago,N,,02/21/2002 00:00:00,N,2020-08-18T23:59:59,2021-08-26T23:59:59,N,0,Alabama,Family Dollar,2024-06-05
FAMILY DOLLAR #8978,2020 Center Point Parkway,Center Point,AL,35215,205-909-1171,-86.6843502,33.63976198,,America/Chicago,N,,11/15/2012 00:00:00,N,2020-08-18T23:59:59,2021-08-26T23:59:59,N,0,Alabama,Family Dollar,2024-06-05
FAMILY DOLLAR #13792,850 Tuscaloosa Road,Columbus,MS,39702,662-240-2555,-88.367124,33.51949,,America/Chicago,N,,10/19/2023 00:00:00,N,,,Y,0,Mississippi,Family Dollar,2024-06-05
FAMILY DOLLAR #7451,202 Alabama St,Columbus,MS,39702,662-570-6121,-88.384552,33.495568,,America/Chicago,N,,11/09/2006 00:00:00,N,2020-08-18T23:59:59,2021-08-26T23:59:59,N,0,Mississippi,Family Dollar,2024-06-05
FAMILY DOLLAR #13380,701 Highway 31 South,Warrior,AL,35180-0000,205-717-3175,-86.81523,33.80372,,America/Chicago,N,,03/30/2023 00:00:00,N,,,Y,0,Alabama,Family Dollar,2024-06-05
FAMILY DOLLAR #9012,1307 North Washington Street,Livingston,AL,35470,205-736-6013,-88.183807,32.608079,,America/Chicago,N,,06/07/2012 00:00:00,N,2020-08-18T23:59:59,2021-08-26T23:59:59,N,0,Alabama,Family Dollar,2024-06-05
FAMILY DOLLAR #12506,5705 Us Highway 278,Sulligent,AL,35586,334-456-3742,-88.134735,33.900898,,America/Chicago,N,,03/26/2020 00:00:00,N,2020-08-18T23:59:59,2021-08-26T23:59:59,N,0,Alabama,Family Dollar,2024-06-05
FAMILY DOLLAR #12672,60 Mike Parra Rd,Columbus,MS,39705-1292,662-240-2403,-88.42291,33.604424,,America/Chicago,N,,03/25/2021 00:00:00,N,2020-08-18T23:59:59,2021-08-26T23:59:59,N,0,Mississippi,Family Dollar,2024-06-05
FAMILY DOLLAR #402,1018 Highland Avenue,Selma,AL,36701-4951,334-267-7030,-87.02493,32.430866,,America/Chicago,N,,04/05/1979 00:00:00,N,2020-08-18T23:59:59,2021-08-26T23:59:59,N,0,Alabama,Family Dollar,2024-06-05
FAMILY DOLLAR #13505,4369 State Hwy 160,Hayden,AL,35079,659-258-9520,-86.766049,33.885817,,America/Chicago,N,,11/18/2023 00:00:00,N,,,Y,0,Alabama,Family Dollar,2024-06-05
FAMILY DOLLAR #4103,2780 Jefferson Street,Macon,MS,39341-3009,662-493-5023,-88.560675,33.104945,,America/Chicago,N,,04/13/2000 00:00:00,N,2020-08-18T23:59:59,2021-08-26T23:59:59,N,0,Mississippi,Family Dollar,2024-06-05
FAMILY DOLLAR #12567,1009 Crossroads Plaza Drive,Moody,AL,35004,659-259-0913,-86.496254,33.592575,,America/Chicago,N,,07/31/2020 00:00:00,N,2020-08-18T23:59:59,2021-08-26T23:59:59,N,0,Alabama,Family Dollar,2024-06-05
FAMILY DOLLAR #12908,2674 Dr. J.T. Moore Street S,Orrville,AL,36767-0000,334-407-7029,-87.24193,32.306904,,America/Chicago,N,,06/16/2022 00:00:00,N,,,Y,0,Alabama,Family Dollar,2024-06-05
FAMILY DOLLAR #459,913 1st St Sw,Childersburg,AL,35044-1637,256-346-1751,-86.356389,33.278249,,America/Chicago,N,,04/16/1981 00:00:00,N,,,N,0,Alabama,Family Dollar,2024-06-05
FAMILY DOLLAR #868,305 S. Main St.,Linden,AL,36748-1725,334-212-8988,-87.79757,32.303783,,America/Chicago,N,,02/21/1985 00:00:00,N,2020-08-18T23:59:59,2021-08-26T23:59:59,Y,0,Alabama,Family Dollar,2024-06-05
FAMILY DOLLAR #12872,40055 Hamilton Rd,Hamilton,MS,39746,662-661-4246,-88.43604,33.739857,,America/Chicago,N,,01/27/2022 00:00:00,N,,,Y,0,Mississippi,Family Dollar,2024-06-05
FAMILY DOLLAR #9013,700 4th Avenue,York,AL,36925,205-377-7268,-88.29680482,32.48895616,,America/Chicago,N,,06/21/2012 00:00:00,N,2020-08-18T23:59:59,2021-08-26T23:59:59,N,0,Alabama,Family Dollar,2024-06-05
FAMILY DOLLAR #12682,13254 Us Highway 411,Odenville,AL,35120,205-702-9247,-86.41203,33.672268,,America/Chicago,N,,02/04/2021 00:00:00,N,2020-08-18T23:59:59,2021-08-26T23:59:59,Y,0,Alabama,Family Dollar,2024-06-05
FAMILY DOLLAR #13685,687 Co Rd 40 W,Prattville,AL,36067,334-310-1377,-86.551423,32.574239,,America/Chicago,N,,11/17/2023 00:00:00,N,,,Y,0,Alabama,Family Dollar,2024-06-05
FAMILY DOLLAR #13996,10370 United States Highway 23,Cropwell,AL,35054,--,-86.311023,33.504762,,America/Chicago,N,,05/17/2024 00:00:00,N,,,Y,0,Alabama,Family Dollar,2024-06-05
FAMILY DOLLAR #405,20 N Broadway Ave,Sylacauga,AL,35150-2522,256-207-5138,-86.250096,33.167993,,America/Chicago,N,,04/07/1979 00:00:00,N,2020-08-18T23:59:59,2021-08-26T23:59:59,N,0,Alabama,Family Dollar,2024-06-05
FAMILY DOLLAR #13585,26591 E Main Street,West Point,MS,39773,659-268-0514,-88.646855,33.607827,,America/Chicago,N,,12/08/2022 00:00:00,N,,,Y,0,Mississippi,Family Dollar,2024-06-05
FAMILY DOLLAR #12815,25 County Rd 940,Cullman,AL,35057,256-297-7631,-87.05147,34.209785,,America/Chicago,N,,08/28/2021 00:00:00,N,2020-08-18T23:59:59,2021-08-26T23:59:59,Y,0,Alabama,Family Dollar,2024-06-05
FAMILY DOLLAR #12735,21 Head Drive,Cleveland,AL,35049,205-725-8807,-86.58593,33.98529,,America/Chicago,N,,07/28/2022 00:00:00,N,,,Y,0,Alabama,Family Dollar,2024-06-05
FAMILY DOLLAR #4127,103 Highway 45 N,Aberdeen,MS,39730-2305,662-362-7853,-88.562943,33.827332,,America/Chicago,N,,04/27/2000 00:00:00,N,2020-08-18T23:59:59,2021-08-26T23:59:59,N,0,Mississippi,Family Dollar,2024-06-05
FAMILY DOLLAR #12882,14916 Highway 16 W,De Kalb,MS,39328,601-751-2465,-88.67036,32.775806,,America/Chicago,N,,10/07/2021 00:00:00,N,,,Y,0,Mississippi,Family Dollar,2024-06-05
FAMILY DOLLAR #13469,115 N Clay Street,Hackleburg,AL,35564,205-707-4020,-87.830127,34.277742,,America/Chicago,N,,01/05/2023 00:00:00,N,,,Y,0,Alabama,Family Dollar,2024-06-05
FAMILY DOLLAR #13473,7630 Stemley Bridge Road,Talladega,AL,35160-0000,256-521-0071,-86.217332,33.514005,,America/Chicago,N,,04/22/2023 00:00:00,N,,,Y,0,Alabama,Family Dollar,2024-06-05
FAMILY DOLLAR #13604,"1209 Highway 278, Ste B",Amory,MS,38821,662-597-6037,-88.469665,33.97759,,America/Chicago,N,,03/13/2023 00:00:00,N,,,Y,0,Mississippi,Family Dollar,2024-06-05
FAMILY DOLLAR #565,213 N Jackson Street,Starkville,MS,39759-2501,662-268-7030,-88.814446,33.466266,,America/Chicago,N,,09/02/1982 00:00:00,N,2020-08-18T23:59:59,2021-08-26T23:59:59,Y,0,Mississippi,Family Dollar,2024-06-05
FAMILY DOLLAR #13231,69255 Main Street,Blountsville,AL,35031,256-203-6137,-86.5912,34.084343,,America/Chicago,N,,09/29/2022 00:00:00,N,,,Y,0,Alabama,Family Dollar,2024-06-05
FAMILY DOLLAR #10649,3435 Highway 14,Millbrook,AL,36054,334-777-0700,-86.380497,32.512911,,America/Chicago,N,,09/01/2013 00:00:00,N,2020-08-18T23:59:59,2021-08-26T23:59:59,N,0,Alabama,Family Dollar,2024-06-05
FAMILY DOLLAR #760,207 Battle Street E,Talladega,AL,35160-2419,256-268-5039,-86.09999,33.434724,,America/Chicago,N,,09/13/1984 00:00:00,N,2020-08-18T23:59:59,2021-08-26T23:59:59,N,0,Alabama,Family Dollar,2024-06-05
FAMILY DOLLAR #12668,35360 Us Highway 231,Ashville,AL,35953,205-702-9246,-86.26559,33.8429,,America/Chicago,N,,01/21/2021 00:00:00,N,2020-08-18T23:59:59,2021-08-26T23:59:59,Y,0,Alabama,Family Dollar,2024-06-05
FAMILY DOLLAR #12608,47950 Us 78,Lincoln,AL,35096,659-200-1005,-86.11448,33.60373,,America/Chicago,N,,10/17/2020 00:00:00,N,2020-08-18T23:59:59,2021-08-26T23:59:59,Y,0,Alabama,Family Dollar,2024-06-05
FAMILY DOLLAR #13462,22070 Al Highway 9,Goodwater,AL,35072-8308,256-414-6118,-86.05401,33.058453,,America/Chicago,N,,03/31/2023 00:00:00,N,,,Y,0,Alabama,Family Dollar,2024-06-05
FAMILY DOLLAR #13476,771 Main St,Ragland,AL,35131,205-473-3644,-86.155837,33.742826,,America/Chicago,N,,03/16/2023 00:00:00,N,,,Y,0,Alabama,Family Dollar,2024-06-05
FAMILY DOLLAR #13847,247 Wesley Ave. N,Cullman,AL,35058,256-507-9584,-86.684375,34.247976,,America/Chicago,N,,01/27/2024 00:00:00,N,,,Y,0,Alabama,Family Dollar,2024-06-05
FAMILY DOLLAR #10483,13 Camden Bypass,Camden,AL,36726,334-729-6686,-87.27981,31.996664,,America/Chicago,N,,05/08/2014 00:00:00,N,2020-08-18T23:59:59,2021-08-26T23:59:59,N,0,Alabama,Family Dollar,2024-06-05
FAMILY DOLLAR #10507,5321 Dale Drive,Marion,MS,39342,601-286-6394,-88.654741,32.416225,,America/Chicago,N,,05/22/2014 00:00:00,N,2020-08-18T23:59:59,2021-08-26T23:59:59,N,0,Mississippi,Family Dollar,2024-06-05
FAMILY DOLLAR #13788,3200 Main St.,Altoona,AL,35952,--,-86.3199,34.0295,,America/Chicago,N,,06/20/2024 00:00:00,Y,,,N,,Alabama,Family Dollar,2024-06-05
FAMILY DOLLAR #11040,3100 Day Street,Montgomery,AL,36108-2100,334-777-0704,-86.34307703,32.36978576,,America/Chicago,N,,04/30/2015 00:00:00,N,2022-03-13T23:59:59,2022-04-11T23:59:59,N,0,Alabama,Family Dollar,2024-06-05
FAMILY DOLLAR #13894,42985 State Hwy 75,Snead,AL,35952-6572,205-749-2722,-86.394957,34.120777,,America/Chicago,N,,02/01/2024 00:00:00,N,,,Y,0,Alabama,Family Dollar,2024-06-05
FAMILY DOLLAR #10046,149 Hayneville Plaza,Hayneville,AL,36040,334-777-0701,-86.576568,32.185037,,America/Chicago,N,,12/12/2013 00:00:00,N,2021-09-05T23:59:59,2021-09-16T23:59:59,N,0,Alabama,Family Dollar,2024-06-05
FAMILY DOLLAR #12548,1409 S Adams Street,Fulton,MS,38843,601-202-1869,-88.402725,34.251534,,America/Chicago,N,,07/18/2020 00:00:00,N,2020-08-18T23:59:59,2021-08-26T23:59:59,N,0,Mississippi,Family Dollar,2024-06-05
FAMILY DOLLAR #662,302 W Pushmataha St,Butler,AL,36904-2430,205-691-6000,-88.224438,32.089014,,America/Chicago,N,,12/08/1983 00:00:00,N,2020-08-18T23:59:59,2021-08-26T23:59:59,N,0,Alabama,Family Dollar,2024-06-05
FAMILY DOLLAR #10659,3212 Mobile Highway,Montgomery,AL,36108,334-694-2515,-86.34055615,32.34344455,,America/Chicago,N,,09/01/2013 00:00:00,N,2020-08-18T23:59:59,2021-08-26T23:59:59,N,0,Alabama,Family Dollar,2024-06-05
FAMILY DOLLAR #10956,225 S Jackson Street,Montgomery,AL,36104-4405,334-777-0703,-86.29593,32.374773,,America/Chicago,N,,07/03/2014 00:00:00,N,2020-08-18T23:59:59,2021-08-26T23:59:59,N,0,Alabama,Family Dollar,2024-06-05
FAMILY DOLLAR #8414,210 W Fairview Ave,Montgomery,AL,36105-1804,334-777-0688,-86.31065,32.352174,,America/Chicago,N,,11/18/2010 00:00:00,N,2020-08-18T23:59:59,2021-08-26T23:59:59,N,0,Alabama,Family Dollar,2024-06-05
FAMILY DOLLAR #12707,511 W Monroe Avenue,Okolona,MS,38860,662-447-9000,-88.75647,34.001095,,America/Chicago,N,,03/26/2021 00:00:00,N,2020-08-18T23:59:59,2021-08-26T23:59:59,Y,0,Mississippi,Family Dollar,2024-06-05
FAMILY DOLLAR #10530,401 South Church Avenue,Louisville,MS,39339-2921,662-446-2780,-89.055632,33.119351,,America/Chicago,N,,06/12/2014 00:00:00,N,2020-08-18T23:59:59,2021-08-26T23:59:59,N,0,Mississippi,Family Dollar,2024-06-05
FAMILY DOLLAR #1633,2525 Madison Ave,Montgomery,AL,36107-2003,334-777-0684,-86.273765,32.381217,,America/Chicago,N,,02/23/1989 00:00:00,N,2020-08-18T23:59:59,2021-08-26T23:59:59,N,0,Alabama,Family Dollar,2024-06-05
FAMILY DOLLAR #4280,820 W South Boulevard,Montgomery,AL,36105-3019,334-777-0345,-86.32478,32.327045,,America/Chicago,N,,08/24/2000 00:00:00,N,2020-08-18T23:59:59,2021-08-26T23:59:59,N,0,Alabama,Family Dollar,2024-06-05
FAMILY DOLLAR #12620,1734 Kowaliga Road,Eclectic,AL,36024,334-458-1506,-86.048504,32.652859,,America/Chicago,N,,10/29/2020 00:00:00,N,2020-08-18T23:59:59,2021-08-26T23:59:59,Y,0,Alabama,Family Dollar,2024-06-05
FAMILY DOLLAR #2182,2815 8th Street,Meridian,MS,39301-4845,601-286-6014,-88.70697219,32.36464375,,America/Chicago,N,,07/21/1993 00:00:00,N,2020-08-18T23:59:59,2021-08-26T23:59:59,N,0,Mississippi,Family Dollar,2024-06-05
FAMILY DOLLAR #13421,35 W Al Highway 144,Ohatchee,AL,36271-0000,256-330-7028,-86.038014,33.783273,,America/Chicago,N,,01/05/2023 00:00:00,N,,,Y,0,Alabama,Family Dollar,2024-06-05
FAMILY DOLLAR #12356,1011 Perry Hill Road,Montgomery,AL,36109,334-245-6109,-86.24366,32.366314,,America/Chicago,N,,06/27/2019 00:00:00,N,2020-08-18T23:59:59,2021-08-26T23:59:59,N,0,Alabama,Family Dollar,2024-06-05
FAMILY DOLLAR #12428,3030 Mcgehee Road,Montgomery,AL,36111-2203,334-245-6113,-86.259735,32.337017,,America/Chicago,N,,08/30/2019 00:00:00,N,2020-08-18T23:59:59,2021-08-26T23:59:59,N,0,Alabama,Family Dollar,2024-06-05
FAMILY DOLLAR #12594,2423 Eastern Blvd,Montgomery,AL,36117,334-245-6058,-86.22002,32.349476,,America/Chicago,N,,10/10/2020 00:00:00,N,2020-08-18T23:59:59,2021-08-26T23:59:59,N,0,Alabama,Family Dollar,2024-06-05
FAMILY DOLLAR #12554,67 Watson Drive,Mantachie,MS,38855,601-203-3180,-88.490944,34.32084,,America/Chicago,N,,06/19/2020 00:00:00,N,2020-08-18T23:59:59,2021-08-26T23:59:59,Y,0,Mississippi,Family Dollar,2024-06-05
FAMILY DOLLAR #13628,3582 Highway 178,Mooreville,MS,38857,662-350-6488,-88.580106,34.266941,,America/Chicago,N,,06/01/2023 00:00:00,N,,,Y,0,Mississippi,Family Dollar,2024-06-05
FAMILY DOLLAR #2405,472 Highway 67 S,Priceville,AL,35603-6300,318-310-3002,-86.89315,34.52478,,America/Chicago,N,,07/27/1994 00:00:00,N,2020-08-18T23:59:59,2021-08-26T23:59:59,N,0,Alabama,Family Dollar,2024-06-05
FAMILY DOLLAR #12611,222 Mabus Street,Ackerman,MS,39735,662-270-6587,-89.177956,33.31788,,America/Chicago,N,,10/29/2020 00:00:00,N,2020-08-18T23:59:59,2021-08-26T23:59:59,Y,0,Mississippi,Family Dollar,2024-06-05
FAMILY DOLLAR #10844,800 E Main Street,Philadelphia,MS,39350,601-389-4005,-89.097684,32.771209,,America/Chicago,N,,04/24/2014 00:00:00,N,2020-08-18T23:59:59,2021-08-26T23:59:59,N,0,Mississippi,Family Dollar,2024-06-05
FAMILY DOLLAR #5124,10 Jackson St,Belmont,MS,38827,662-454-6094,-88.208656,34.507895,,America/Chicago,N,,04/04/2002 00:00:00,N,2020-08-18T23:59:59,2021-08-26T23:59:59,N,0,Mississippi,Family Dollar,2024-06-05
FAMILY DOLLAR #2961,1838 6th Ave Se #8,Decatur,AL,35601-6027,256-822-7798,-86.9738,34.57753,,America/Chicago,N,,12/20/1996 00:00:00,N,2020-08-18T23:59:59,2021-08-26T23:59:59,N,0,Alabama,Family Dollar,2024-06-05
FAMILY DOLLAR #13570,6201 Us Highway 431,Alexandria,AL,36250-5046,356-342-0222,-85.891765,33.762459,,America/Chicago,N,,04/27/2023 00:00:00,N,,,Y,0,Alabama,Family Dollar,2024-06-05
FAMILY DOLLAR #610,905 Moulton St W,Decatur,AL,35601-2041,256-822-7799,-86.999726,34.603733,,America/Chicago,N,,12/15/1982 00:00:00,N,2020-08-18T23:59:59,2021-08-26T23:59:59,N,0,Alabama,Family Dollar,2024-06-05
FAMILY DOLLAR #13519,299 Old Fort Rd West,Fort Deposit,AL,36032,--,-86.5822,31.9862,,America/Chicago,N,,06/06/2024 00:00:00,Y,,,Y,,Alabama,Family Dollar,2024-06-05
FAMILY DOLLAR #552,1718 Quintard Ave,Anniston,AL,36201-3851,256-954-5664,-85.828,33.66706,,America/Chicago,N,,05/19/1983 00:00:00,N,2020-08-18T23:59:59,2021-08-26T23:59:59,N,0,Alabama,Family Dollar,2024-06-05
FAMILY DOLLAR #523,701 W Main St,Tupelo,MS,38804-3707,662-350-6061,-88.714244,34.256921,,America/Chicago,N,,12/14/1981 00:00:00,N,2020-08-18T23:59:59,2021-08-26T23:59:59,N,0,Mississippi,Family Dollar,2024-06-05
FAMILY DOLLAR #870,1225 West Meighan Blvd,Gadsden,AL,35901-3333,256-467-0378,-86.0228,34.02286,,America/Chicago,N,,10/11/1984 00:00:00,N,2020-08-18T23:59:59,2021-08-26T23:59:59,N,0,Alabama,Family Dollar,2024-06-05
FAMILY DOLLAR #12811,2384 Al Highway 20,Town Creek,AL,35672,256-602-5018,-87.41063,34.680885,,America/Chicago,N,,07/28/2022 00:00:00,N,,,Y,0,Alabama,Family Dollar,2024-06-05
FAMILY DOLLAR #544,10364 Al Hwy 168,Boaz,AL,35957-1949,256-907-4015,-86.161174,34.198315,,America/Chicago,N,,04/22/1982 00:00:00,N,2020-08-18T23:59:59,2021-08-26T23:59:59,N,0,Alabama,Family Dollar,2024-06-05
FAMILY DOLLAR #12637,17916 Us Highway 280,Dadeville,AL,36853,256-373-0023,-85.764656,32.8366,,America/Chicago,N,,01/07/2021 00:00:00,N,2020-08-18T23:59:59,2021-08-26T23:59:59,Y,0,Alabama,Family Dollar,2024-06-05
FAMILY DOLLAR #2721,315 Sand Mountain Dr E,Albertville,AL,35950-2329,256-744-7246,-86.206143,34.265782,,America/Chicago,N,,09/08/1995 00:00:00,N,2020-08-18T23:59:59,2021-08-26T23:59:59,N,0,Alabama,Family Dollar,2024-06-05
FAMILY DOLLAR #10393,803 E Jackson Road,Union,MS,39365,769-222-6003,-89.111046,32.571602,,America/Chicago,N,,07/11/2013 00:00:00,N,2021-09-05T23:59:59,2021-09-16T23:59:59,N,0,Mississippi,Family Dollar,2024-06-05
FAMILY DOLLAR #13470,13516 Choctaw Ave,Gilbertown,AL,36908-0000,251-262-5642,-88.321543,31.878377,,America/Chicago,N,,03/27/2023 00:00:00,N,,,Y,0,Alabama,Family Dollar,2024-06-05
FAMILY DOLLAR #13879,518 Main Street,Tallassee,AL,36078,334-812-5559,-85.870665,32.548465,,America/Chicago,N,,02/01/2024 00:00:00,N,,,Y,0,Alabama,Family Dollar,2024-06-05
FAMILY DOLLAR #8842,1960 Veteran'S Memorial Blvd S,Eupora,MS,39744,662-258-1059,-89.26706,33.54345,,America/Chicago,N,,11/23/2011 00:00:00,N,2020-08-18T23:59:59,2021-08-26T23:59:59,Y,0,Mississippi,Family Dollar,2024-06-05
FAMILY DOLLAR #13575,3743  Mccullough Blvd.,Belden,MS,38826,662-350-6487,-88.781243,34.30554,,America/Chicago,N,,06/16/2023 00:00:00,N,,,Y,0,Mississippi,Family Dollar,2024-06-05
FAMILY DOLLAR #10233,200 S Jackson Street,Grove Hill,AL,36451,251-360-6017,-87.776818,31.70315,,America/Chicago,N,,08/15/2013 00:00:00,N,2020-08-18T23:59:59,2021-08-26T23:59:59,N,0,Alabama,Family Dollar,2024-06-05
FAMILY DOLLAR #13195,802 Pelham Road,Jacksonville,AL,36265-2736,256-365-9079,-85.760315,33.805782,,America/Chicago,N,,02/24/2022 00:00:00,N,,,N,0,Alabama,Family Dollar,2024-06-05
FAMILY DOLLAR #462,217 Cedar Street,Greenville,AL,36037-2205,334-525-6038,-86.621827,31.830577,,America/Chicago,N,,05/28/1981 00:00:00,N,2020-08-18T23:59:59,2021-08-26T23:59:59,N,0,Alabama,Family Dollar,2024-06-05
FAMILY DOLLAR #12695,15458 Highway 15,Decatur,MS,39327,601-282-2933,-89.10703,32.441826,,America/Chicago,N,,07/29/2021 00:00:00,N,2020-08-18T23:59:59,2021-08-26T23:59:59,Y,0,Mississippi,Family Dollar,2024-06-05
FAMILY DOLLAR #13646,10113 Highway 9,Heflin,AL,36264,938-526-0648,-85.6376,33.5232,,America/Chicago,N,,01/29/2024 00:00:00,N,,,Y,0,Alabama,Family Dollar,2024-06-05
FAMILY DOLLAR #13647,Sec Huntsville Browns Ferry Rd,Tanner,AL,35671,256-444-6659,-86.965089,34.731045,,America/Chicago,N,,09/20/2023 00:00:00,N,,,Y,0,Alabama,Family Dollar,2024-06-05
FAMILY DOLLAR #566,402 S Archusa Ave,Quitman,MS,39355-2328,601-963-2386,-88.728413,32.034477,,America/Chicago,N,,11/11/1999 00:00:00,N,,,Y,0,Mississippi,Family Dollar,2024-06-05
FAMILY DOLLAR #13487,8491 Us Hwy 72,Cherokee,AL,35616-4407,938-666-7959,-87.968358,34.753791,,America/Chicago,N,,04/27/2023 00:00:00,N,,,Y,0,Alabama,Family Dollar,2024-06-05
FAMILY DOLLAR #12875,17824 Montgomery Hwy,Highland Home,AL,36041,334-525-6059,-86.314674,31.945093,,America/Chicago,N,,12/16/2021 00:00:00,N,,,Y,0,Alabama,Family Dollar,2024-06-05
FAMILY DOLLAR #2324,441 N. 4th Street,Baldwyn,MS,38824,662-350-4052,-88.634384,34.51404,,America/Chicago,N,,02/02/1994 00:00:00,N,2020-08-18T23:59:59,2021-08-26T23:59:59,Y,0,Mississippi,Family Dollar,2024-06-05
FAMILY DOLLAR #13456,586 W Veterans Blvd,Derma,MS,38839,662-786-5003,-89.295504,33.85544,,America/Chicago,N,,01/05/2023 00:00:00,N,,,Y,0,Mississippi,Family Dollar,2024-06-05
FAMILY DOLLAR #13196,3530 Cathedral Caverns Hwy,Grant,AL,35747-0000,256-672-6112,-86.26041,34.500675,,America/Chicago,N,,04/07/2022 00:00:00,N,,,Y,0,Alabama,Family Dollar,2024-06-05
FAMILY DOLLAR #489,515 S Jefferson St  Ste B,Athens,AL,35611-3541,256-867-6687,-86.971662,34.798594,,America/Chicago,N,,02/04/1982 00:00:00,N,2020-08-18T23:59:59,2021-08-26T23:59:59,N,0,Alabama,Family Dollar,2024-06-05
FAMILY DOLLAR #13406,110 Highway 15 N,Pontotoc,MS,38863,662-509-3902,-89.01711,34.250146,,America/Chicago,N,,06/15/2022 00:00:00,N,,,Y,0,Mississippi,Family Dollar,2024-06-05
FAMILY DOLLAR #12589,731 Ross Street,Heflin,AL,36264,256-463-1247,-85.58873,33.646797,,America/Chicago,N,,09/17/2020 00:00:00,N,2020-08-18T23:59:59,2021-08-26T23:59:59,Y,0,Alabama,Family Dollar,2024-06-05
FAMILY DOLLAR #12565,14249 Al Highway 68,Crossville,AL,35962,256-529-4397,-85.987951,34.286159,,America/Chicago,N,,08/15/2020 00:00:00,N,2020-08-18T23:59:59,2021-08-26T23:59:59,Y,0,Alabama,Family Dollar,2024-06-05
FAMILY DOLLAR #12723,188 Northside Drive,Newton,MS,39345,601-627-6043,-89.14307,32.333225,,America/Chicago,N,,08/26/2021 00:00:00,N,2020-08-18T23:59:59,2021-08-26T23:59:59,Y,0,Mississippi,Family Dollar,2024-06-05
FAMILY DOLLAR #12599,715 W State Highway 106,Georgiana,AL,36033,334-625-6520,-86.75566,31.648508,,America/Chicago,N,,09/10/2020 00:00:00,N,2020-08-18T23:59:59,2021-08-26T23:59:59,Y,0,Alabama,Family Dollar,2024-06-05
FAMILY DOLLAR #11045,2715 University Drive Nw,Huntsville,AL,35816-3317,938-666-7657,-86.6086,34.735782,,America/Chicago,N,,01/08/2015 00:00:00,N,2020-08-18T23:59:59,2021-08-26T23:59:59,N,0,Alabama,Family Dollar,2024-06-05
FAMILY DOLLAR #13733,16881 Highway 21 N,Sebastopol,MS,39359,769-240-0257,-89.342384,32.566372,,America/Chicago,N,,08/31/2023 00:00:00,N,,,N,0,Mississippi,Family Dollar,2024-06-05
FAMILY DOLLAR #13736,719 E Church Street,Booneville,MS,38829,662-596-1005,-88.553655,34.654253,,America/Chicago,N,,08/24/2023 00:00:00,N,,,Y,0,Mississippi,Family Dollar,2024-06-05
FAMILY DOLLAR #13507,185 S Alabama Ave,Monroeville,AL,36460-1811,251-302-5002,-87.32256,31.523672,,America/Chicago,N,,07/28/2022 00:00:00,N,,,Y,0,Alabama,Family Dollar,2024-06-05
FAMILY DOLLAR #13536,11620 Highway 20,Florence,AL,35633-0000,256-978-6095,-87.810562,34.897908,,America/Chicago,N,,04/22/2023 00:00:00,N,,,Y,0,Alabama,Family Dollar,2024-06-05
FAMILY DOLLAR #8175,208 W. Martin Luther King Hwy.,Tuskegee,AL,36083-2131,334-421-6035,-85.69268,32.422877,,America/Chicago,N,,11/05/2009 00:00:00,N,2020-08-18T23:59:59,2021-08-26T23:59:59,N,0,Alabama,Family Dollar,2024-06-05
FAMILY DOLLAR #6724,3407 Pulaski Pike Nw,Huntsville,AL,35810-3254,938-666-7619,-86.617322,34.77039,,America/Chicago,N,,06/16/2005 00:00:00,N,2020-08-18T23:59:59,2021-08-26T23:59:59,N,0,Alabama,Family Dollar,2024-06-05
FAMILY DOLLAR #12935,7198 Al Highway 207,Anderson,AL,35610,256-867-6168,-87.26869,34.92374,,America/Chicago,N,,04/28/2022 00:00:00,N,,,Y,0,Alabama,Family Dollar,2024-06-05
FAMILY DOLLAR #404,405 Mastin Lake Road Nw,Huntsville,AL,35810,938-666-7659,-86.5785586,34.76231035,,America/Chicago,N,,04/03/1979 00:00:00,N,2020-08-18T23:59:59,2021-08-26T23:59:59,N,0,Alabama,Family Dollar,2024-06-05
FAMILY DOLLAR #403,381 Haslam Street,Piedmont,AL,36272,256-447-5154,-85.60484151,33.93320673,,America/Chicago,N,,04/06/1979 00:00:00,N,2020-08-18T23:59:59,2021-08-26T23:59:59,N,0,Alabama,Family Dollar,2024-06-05
FAMILY DOLLAR #1375,1127 College Ave,Jackson,AL,36545-2404,251-262-5226,-87.896465,31.523856,,America/Chicago,N,,01/14/1988 00:00:00,N,2020-08-18T23:59:59,2021-08-26T23:59:59,N,0,Alabama,Family Dollar,2024-06-05
FAMILY DOLLAR #13202,116 S. Pontotoc Rd.,Bruce,MS,38915,662-703-4276,-89.3503,33.989883,,America/Chicago,N,,04/28/2022 00:00:00,N,,,Y,0,Mississippi,Family Dollar,2024-06-05
FAMILY DOLLAR #6736,2512 Winchester Pike Nw,Huntsville,AL,35810-1598,938-666-7620,-86.59892,34.79339,,America/Chicago,N,,07/28/2005 00:00:00,N,2020-08-18T23:59:59,2021-08-26T23:59:59,N,0,Alabama,Family Dollar,2024-06-05
FAMILY DOLLAR #13762,7865 Hwy 43,Florence,AL,35634,256-246-8456,-87.527047,34.960038,,America/Chicago,N,,11/20/2023 00:00:00,N,,,Y,0,Alabama,Family Dollar,2024-06-05
FAMILY DOLLAR #13172,15870 County Road 59,Woodland,AL,63280,938-526-0002,-85.397194,33.3736,,America/Chicago,N,,05/09/2022 00:00:00,N,,,Y,0,Alabama,Family Dollar,2024-06-05
FAMILY DOLLAR #2800,329 Highway 12 East,Kosciusko,MS,39090-3420,662-290-9156,-89.584828,33.065538,,America/Chicago,N,,06/07/1996 00:00:00,N,2020-08-18T23:59:59,2021-08-26T23:59:59,N,0,Mississippi,Family Dollar,2024-06-05
FAMILY DOLLAR #5934,904 S Lafayette St,Lafayette,AL,36862-2518,334-276-1019,-85.405171,32.881528,,America/Chicago,N,,05/20/2004 00:00:00,N,2020-08-18T23:59:59,2021-08-26T23:59:59,N,0,Alabama,Family Dollar,2024-06-05
FAMILY DOLLAR #13706,500 Highway 16 West,Carthage,MS,39051,601-298-6330,-89.540191,32.732434,,America/Chicago,N,,04/17/2023 00:00:00,N,,,Y,0,Mississippi,Family Dollar,2024-06-05
FAMILY DOLLAR #2474,822 S Forest Av,Luverne,AL,36049-7016,334-508-7000,-86.264997,31.704364,,America/Chicago,N,,08/31/1994 00:00:00,N,2020-08-18T23:59:59,2021-08-26T23:59:59,N,0,Alabama,Family Dollar,2024-06-05
FAMILY DOLLAR #379,419 Azalea Dr,Waynesboro,MS,39367-2624,601-755-5068,-88.65186,31.67206,,America/Chicago,N,,06/11/1981 00:00:00,N,2020-08-18T23:59:59,2021-08-26T23:59:59,N,0,Mississippi,Family Dollar,2024-06-05
FAMILY DOLLAR #10317,601 N. Pine Avenue,Heidelberg,MS,39439,601-935-9000,-88.989309,31.892354,,America/Chicago,N,,03/21/2013 00:00:00,N,2020-08-18T23:59:59,2021-08-26T23:59:59,N,0,Mississippi,Family Dollar,2024-06-05
FAMILY DOLLAR #8720,110 Baskin Street,Union Springs,AL,36089,334-777-0699,-85.71183242,32.14685076,,America/Chicago,N,,07/14/2011 00:00:00,N,2020-08-18T23:59:59,2021-08-26T23:59:59,Y,0,Alabama,Family Dollar,2024-06-05
FAMILY DOLLAR #12777,450 W. Front Street,Evergreen,AL,36401-3279,251-369-4044,-86.96126,31.430065,,America/Chicago,N,,05/27/2021 00:00:00,N,2020-08-18T23:59:59,2021-08-26T23:59:59,Y,0,Alabama,Family Dollar,2024-06-05
FAMILY DOLLAR #320,1420 2nd Avenue,Opelika,AL,36801,334-203-0266,-85.390224,32.643805,,America/Chicago,N,,08/24/1978 00:00:00,N,2020-08-18T23:59:59,2021-08-26T23:59:59,N,0,Alabama,Family Dollar,2024-06-05
FAMILY DOLLAR #13422,3949 Al Highway 9,Cedar Bluff,AL,35959-5031,256-269-0502,-85.599431,34.219854,,America/Chicago,N,,01/19/2023 00:00:00,N,,,Y,0,Alabama,Family Dollar,2024-06-05
FAMILY DOLLAR #13534,17150 Jordan Street,Chatom,AL,36518,251-319-6851,-88.252626,31.469,,America/Chicago,N,,10/27/2022 00:00:00,N,,,Y,0,Alabama,Family Dollar,2024-06-05
FAMILY DOLLAR #13525,237 N. Woodland,Forest,MS,39074-3307,769-240-0049,-89.480331,32.366884,,America/Chicago,N,,11/10/2022 00:00:00,N,,,Y,0,Mississippi,Family Dollar,2024-06-05
FAMILY DOLLAR #13171,4200 Highway 15,Louin,MS,39338,601-778-6265,-89.26032,32.06513,,America/Chicago,N,,12/08/2022 00:00:00,N,,,Y,0,Mississippi,Family Dollar,2024-06-05
FAMILY DOLLAR #298,502 E Willow St,Scottsboro,AL,35768-1906,256-912-0832,-86.02869,34.673051,,America/Chicago,N,,03/02/1978 00:00:00,N,2020-08-18T23:59:59,2021-08-26T23:59:59,N,0,Alabama,Family Dollar,2024-06-05
FAMILY DOLLAR #1161,144 Lovvorn Ave,Bowdon,GA,30108-1141,470-280-6741,-85.251892,33.540386,,America/New_York,N,,06/18/1987 00:00:00,N,2020-08-18T23:59:59,2021-08-26T23:59:59,N,0,Georgia,Family Dollar,2024-06-05
FAMILY DOLLAR #12666,106 S Applegate Street,Winona,MS,38967,662-845-6011,-89.736465,33.481808,,America/Chicago,N,,01/21/2021 00:00:00,N,2020-08-18T23:59:59,2021-08-26T23:59:59,N,0,Mississippi,Family Dollar,2024-06-05
FAMILY DOLLAR #13880,2300 Lee Road 112,Opelika,AL,36804,--,-85.3717,32.5437,,America/Chicago,N,,06/13/2024 00:00:00,Y,,,Y,,Alabama,Family Dollar,2024-06-05
FAMILY DOLLAR #2053,119 Robertson Ave,Tallapoosa,GA,30176,470-329-0054,-85.289519,33.745035,,America/New_York,N,,04/29/1992 00:00:00,N,2020-08-18T23:59:59,2021-08-26T23:59:59,N,0,Georgia,Family Dollar,2024-06-05
FAMILY DOLLAR #12766,34195 Highway 35,Vaiden,MS,39176,662-440-6000,-89.76431,33.332882,,America/Chicago,N,,10/03/2021 00:00:00,N,,,Y,0,Mississippi,Family Dollar,2024-06-05
FAMILY DOLLAR #12861,15818 South Highway 21,Uriah,AL,36480-0000,251-262-5534,-87.50255,31.303404,,America/Chicago,N,,02/17/2022 00:00:00,N,,,Y,0,Alabama,Family Dollar,2024-06-05
FAMILY DOLLAR #13374,2040 East Shiloh Road,Corinth,MS,38834,662-594-6377,-88.497861,34.943764,,America/Chicago,N,,10/06/2022 00:00:00,N,,,Y,0,Mississippi,Family Dollar,2024-06-05
FAMILY DOLLAR #13424,315 South Front St,Sandersville,MS,39477,601-778-6262,-89.038481,31.782206,,America/Chicago,N,,01/05/2023 00:00:00,N,,,Y,0,Mississippi,Family Dollar,2024-06-05
FAMILY DOLLAR #569,403 N Gilmer Ave,Lanett,AL,36863-2053,334-203-0281,-85.187277,32.8703,,America/Chicago,N,,10/14/1982 00:00:00,N,2020-08-18T23:59:59,2021-08-26T23:59:59,N,0,Alabama,Family Dollar,2024-06-05
FAMILY DOLLAR #2985,2760d Highway 15,Bay Springs,MS,39422,601-286-6393,-89.287654,31.972986,,America/Chicago,N,,05/30/1997 00:00:00,N,2020-08-18T23:59:59,2021-08-26T23:59:59,N,0,Mississippi,Family Dollar,2024-06-05
FAMILY DOLLAR #13201,3 Kennedy St.,State Line,MS,39362,601-755-5087,-88.47318,31.435137,,America/Chicago,N,,08/11/2022 00:00:00,N,,,Y,0,Mississippi,Family Dollar,2024-06-05
FAMILY DOLLAR #10789,301a Us Highway 29,Valley,AL,36854,334-631-6012,-85.184089,32.797868,,America/Chicago,N,,10/23/2014 00:00:00,N,2020-08-18T23:59:59,2021-08-26T23:59:59,N,0,Alabama,Family Dollar,2024-06-05
FAMILY DOLLAR #12957,17070 Oklahoma Street,Coffeeville,MS,38922,662-481-2096,-89.676956,33.97373,,America/Chicago,N,,06/02/2022 00:00:00,N,,,Y,0,Mississippi,Family Dollar,2024-06-05
FAMILY DOLLAR #1152,369 E Madison St,Durant,MS,39063-3713,662-639-4091,-89.853416,33.076236,,America/Chicago,N,,09/25/1986 00:00:00,N,2020-08-18T23:59:59,2021-08-26T23:59:59,N,0,Mississippi,Family Dollar,2024-06-05
FAMILY DOLLAR #2732,291 E Court Sq,Franklin,GA,30217,770-809-7231,-85.097787,33.278189,,America/New_York,N,,02/16/1996 00:00:00,N,2020-08-18T23:59:59,2021-08-26T23:59:59,N,0,Georgia,Family Dollar,2024-06-05
FAMILY DOLLAR #4089,Highway 43 North,Mcintosh,AL,36553,251-266-7658,-88.030734,31.26495,,America/Chicago,N,,05/25/2000 00:00:00,N,2020-08-18T23:59:59,2021-08-26T23:59:59,N,0,Alabama,Family Dollar,2024-06-05
FAMILY DOLLAR #13720,2777 Huntsville Highway,Fayetteville,TN,37334,931-240-0767,-86.572237,35.073811,,America/Chicago,N,,02/04/2024 00:00:00,N,,,Y,0,Tennessee,Family Dollar,2024-06-05
FAMILY DOLLAR #8957,2290 Maple Street,Carrollton,GA,30117,770-809-7217,-85.115266,33.560892,,America/New_York,N,,08/16/2012 00:00:00,N,2020-08-18T23:59:59,2021-08-26T23:59:59,N,0,Georgia,Family Dollar,2024-06-05
FAMILY DOLLAR #13423,5129 Highway 80,Morton,MS,39117,769-241-6231,-89.648637,32.35243,,America/Chicago,N,,01/19/2023 00:00:00,N,,,Y,0,Mississippi,Family Dollar,2024-06-05
FAMILY DOLLAR #5068,1815 Commerce St,Grenada,MS,38901-5106,662-294-5188,-89.810012,33.764397,,America/Chicago,N,,03/07/2002 00:00:00,N,2020-08-18T23:59:59,2021-08-26T23:59:59,N,0,Mississippi,Family Dollar,2024-06-05
FAMILY DOLLAR #12720,409 Duncan Street,Water Valley,MS,38965,662-715-6071,-89.63225,34.152805,,America/Chicago,N,,06/10/2021 00:00:00,N,2020-08-18T23:59:59,2021-08-26T23:59:59,Y,0,Mississippi,Family Dollar,2024-06-05
FAMILY DOLLAR #13230,1172 Highway 15,Stringer,MS,39481,956-614-6010,-89.267044,31.868124,,America/Chicago,N,,12/08/2022 00:00:00,N,,,Y,0,Mississippi,Family Dollar,2024-06-05
FAMILY DOLLAR #10222,100 N Dr. Mlk Jr. Blvd.,Grenada,MS,38901,662-520-5000,-89.809584,33.7849,,America/Chicago,N,,05/23/2013 00:00:00,N,2020-08-18T23:59:59,2021-08-26T23:59:59,N,0,Mississippi,Family Dollar,2024-06-05
FAMILY DOLLAR #276,727 S. Main Street,Cedartown,GA,30125,470-999-3164,-85.25456006,34.00715596,,America/New_York,N,,08/25/1977 00:00:00,N,2020-08-18T23:59:59,2021-08-26T23:59:59,N,0,Georgia,Family Dollar,2024-06-05
FAMILY DOLLAR #13437,16996 Broad Street,Henagar,AL,35978-0000,256-868-5001,-85.742725,34.633773,,America/Chicago,N,,04/07/2023 00:00:00,N,,,Y,0,Alabama,Family Dollar,2024-06-05
FAMILY DOLLAR #229,430 N Park St,Carrollton,GA,30117-3035,770-809-7218,-85.07881,33.584439,,America/New_York,N,,12/04/1975 00:00:00,N,2020-08-18T23:59:59,2021-08-26T23:59:59,N,0,Georgia,Family Dollar,2024-06-05
FAMILY DOLLAR #12291,9563 Main St.,Goodman,MS,39079,662-735-7011,-89.91244324,32.97138652,,America/Chicago,N,,02/28/2019 00:00:00,N,2020-08-18T23:59:59,2021-08-26T23:59:59,N,0,Mississippi,Family Dollar,2024-06-05
FAMILY DOLLAR #4899,515 Bankhead Hwy,Carrollton,GA,30117-2446,470-729-1326,-85.058665,33.584932,,America/New_York,N,,11/08/2001 00:00:00,N,2020-08-18T23:59:59,2021-08-26T23:59:59,N,0,Georgia,Family Dollar,2024-06-05
FAMILY DOLLAR #620,527 S Greenwood St,La Grange,GA,30240-3125,762-888-1130,-85.034764,33.032893,,America/New_York,N,,02/28/1985 00:00:00,N,2020-08-18T23:59:59,2021-08-26T23:59:59,N,0,Georgia,Family Dollar,2024-06-05
FAMILY DOLLAR #1628,304 Mason Street,Laurel,MS,39440,601-335-8766,-89.13898,31.693233,,America/Chicago,N,,06/01/1989 00:00:00,N,2020-08-18T23:59:59,2021-08-26T23:59:59,N,0,Mississippi,Family Dollar,2024-06-05
FAMILY DOLLAR #13853,1020 Highway 15 South,Laurel,MS,39443,601-651-3318,-89.105342,31.652767,,America/Chicago,N,,03/21/2024 00:00:00,N,,,Y,0,Mississippi,Family Dollar,2024-06-05
FAMILY DOLLAR #6189,916 Hogansville Rd (U. S. High,Lagrange,GA,30241-1412,762-888-1131,-85.013428,33.047657,,America/New_York,N,,04/22/2004 00:00:00,N,2020-08-18T23:59:59,2021-08-26T23:59:59,N,0,Georgia,Family Dollar,2024-06-05
FAMILY DOLLAR #198,511 College St W,Fayetteville,TN,37334-2915,931-557-4256,-86.576667,35.153532,,America/Chicago,N,,06/03/1982 00:00:00,N,2020-08-18T23:59:59,2021-08-26T23:59:59,N,0,Tennessee,Family Dollar,2024-06-05
FAMILY DOLLAR #10026,806 S 16th Avenue,Laurel,MS,39440,601-778-6086,-89.14733775,31.67878096,,America/Chicago,N,,08/03/2013 00:00:00,N,2020-08-18T23:59:59,2021-08-26T23:59:59,N,0,Mississippi,Family Dollar,2024-06-05
FAMILY DOLLAR #12170,202 White  Oak,Raleigh,MS,39153,601-675-6428,-89.52421,32.03815,,America/Chicago,N,,08/02/2018 00:00:00,N,2020-08-18T23:59:59,2021-08-26T23:59:59,N,0,Mississippi,Family Dollar,2024-06-05
FAMILY DOLLAR #13492,28191 Highway 15,Walnut,MS,38683,662-223-3402,-88.903317,34.945755,,America/Chicago,N,,11/10/2022 00:00:00,N,,,Y,0,Mississippi,Family Dollar,2024-06-05
FAMILY DOLLAR #779,2007 Wayne Rd,Savannah,TN,38372-2235,731-400-6089,-88.230707,35.226004,,America/Chicago,N,,04/05/1984 00:00:00,N,2020-08-18T23:59:59,2021-08-26T23:59:59,N,0,Tennessee,Family Dollar,2024-06-05
FAMILY DOLLAR #13586,21 Bartley Rd,Lagrange,GA,30241,706-350-1754,-84.991994,32.979375,,America/New_York,N,,04/19/2024 00:00:00,N,,,Y,0,Georgia,Family Dollar,2024-06-05
FAMILY DOLLAR #12746,19996 Us Highway 117,Ider,AL,35981-0000,256-465-0045,-85.66952,34.698273,,America/Chicago,N,,04/19/2022 00:00:00,N,,,Y,0,Alabama,Family Dollar,2024-06-05
FAMILY DOLLAR #12931,12 Silver Run Dr,Seale,AL,36875-0000,334-214-1039,-85.16646,32.327827,,America/Chicago,N,,05/19/2022 00:00:00,N,,,Y,0,Alabama,Family Dollar,2024-06-05
FAMILY DOLLAR #6125,3926 Us Hwy 80 W,Phenix City,AL,36869,334-592-2034,-85.094173,32.470947,,America/Chicago,N,,08/28/2004 00:00:00,N,2020-08-18T23:59:59,2021-08-26T23:59:59,N,0,Alabama,Family Dollar,2024-06-05
FAMILY DOLLAR #658,327 Depot St,Lexington,MS,39095-3606,662-450-4518,-90.044578,33.110585,,America/Chicago,N,,10/13/1983 00:00:00,N,2020-08-18T23:59:59,2021-08-26T23:59:59,N,0,Mississippi,Family Dollar,2024-06-05
FAMILY DOLLAR #12986,169 Ripley Ave,Ashland,MS,38603,662-504-6005,-89.18623,34.833736,,America/Chicago,N,,04/02/2022 00:00:00,N,,,Y,0,Mississippi,Family Dollar,2024-06-05
FAMILY DOLLAR #13173,200 Mayfield Street,Taylorsville,MS,39168,769-248-0005,-89.43321,31.830334,,America/Chicago,N,,05/05/2022 00:00:00,N,,,Y,0,Mississippi,Family Dollar,2024-06-05
FAMILY DOLLAR #10798,306 E. Main Street,Adamsville,TN,38310-2318,731-315-4022,-88.385568,35.235987,,America/Chicago,N,,10/10/2013 00:00:00,N,2020-08-18T23:59:59,2021-08-26T23:59:59,N,0,Tennessee,Family Dollar,2024-06-05
FAMILY DOLLAR #660,85 Park Avenue,Lindale,GA,30147,706-528-9354,-85.1744235,34.18743081,,America/New_York,N,,09/15/1983 00:00:00,N,2020-08-18T23:59:59,2021-08-26T23:59:59,N,0,Georgia,Family Dollar,2024-06-05
FAMILY DOLLAR #3309,104 Adam St,Stevenson,AL,35772-3769,256-663-6002,-85.81656231,34.86889882,,America/Chicago,N,,07/16/1998 00:00:00,N,2020-08-18T23:59:59,2021-08-26T23:59:59,N,0,Alabama,Family Dollar,2024-06-05
FAMILY DOLLAR #283,1922 Shorter Avenue Nw,Rome,GA,30165-2141,706-528-9164,-85.21830238,34.27049902,,America/New_York,N,,11/17/1977 00:00:00,N,2020-08-18T23:59:59,2021-08-26T23:59:59,N,0,Georgia,Family Dollar,2024-06-05
FAMILY DOLLAR #2002,623 Hill St,Ellisville,MS,39437-2413,601-817-5071,-89.201609,31.608997,,America/Chicago,N,,03/18/1992 00:00:00,N,2020-08-18T23:59:59,2021-08-26T23:59:59,N,0,Mississippi,Family Dollar,2024-06-05
FAMILY DOLLAR #12665,2001 Billy Tucker Circle,Hogansville,GA,30230,706-813-7007,-84.89943,33.16681,,America/New_York,N,,01/14/2021 00:00:00,N,2020-08-18T23:59:59,2021-08-26T23:59:59,Y,0,Georgia,Family Dollar,2024-06-05
FAMILY DOLLAR #12821,716 S Main St,Middleton,TN,38052,901-424-6287,-88.892746,35.043438,,America/Chicago,N,,01/20/2022 00:00:00,N,,,Y,0,Tennessee,Family Dollar,2024-06-05
FAMILY DOLLAR #13640,1960 Main Street,Louisville,AL,36048,334-232-0172,-85.561774,31.780367,,America/Chicago,N,,08/24/2023 00:00:00,N,,,Y,0,Alabama,Family Dollar,2024-06-05
FAMILY DOLLAR #9430,19160 Highway 43,Mount Vernon,AL,36560-3446,251-265-6054,-88.01510414,31.09059434,,America/Chicago,N,,09/24/2015 00:00:00,N,2022-03-20T23:59:59,2022-04-18T23:59:59,N,0,Alabama,Family Dollar,2024-06-05
FAMILY DOLLAR #178,10205 Commerce Street,Summerville,GA,30747,706-578-6008,-85.346756,34.48352,,America/New_York,N,,02/03/1977 00:00:00,N,2020-08-18T23:59:59,2021-08-26T23:59:59,N,0,Georgia,Family Dollar,2024-06-05
FAMILY DOLLAR #11233,1181 Brundidge Street,Clio,AL,36017,334-457-6000,-85.61200536,31.70856389,,America/Chicago,N,,01/28/2015 00:00:00,N,2021-09-05T23:59:59,2021-09-16T23:59:59,N,0,Alabama,Family Dollar,2024-06-05
FAMILY DOLLAR #439,303 N. Main Street,Opp,AL,36467-2009,334-764-8101,-86.255981,31.28548,,America/Chicago,N,,04/04/1979 00:00:00,N,2020-08-18T23:59:59,2021-08-26T23:59:59,N,0,Alabama,Family Dollar,2024-06-05
FAMILY DOLLAR #1089,500 E Church St,Atmore,AL,36502-2626,251-655-5013,-87.488465,31.02144,,America/Chicago,N,,12/13/1985 00:00:00,N,2020-08-18T23:59:59,2021-08-26T23:59:59,N,0,Alabama,Family Dollar,2024-06-05
FAMILY DOLLAR #7277,1849 Stadium Dr,Phenix City,AL,36867-3109,334-214-1021,-85.017638,32.495658,,America/Chicago,N,,05/11/2006 00:00:00,N,2021-10-03T23:59:59,2021-10-14T23:59:59,N,0,Alabama,Family Dollar,2024-06-05
FAMILY DOLLAR #296,1113 280 Byp,Phenix City,AL,36867-5447,334-592-2033,-85.029678,32.467632,,America/Chicago,N,,08/10/1978 00:00:00,N,2020-08-18T23:59:59,2021-08-26T23:59:59,N,0,Alabama,Family Dollar,2024-06-05
FAMILY DOLLAR #13898,2307 Bill Nance Blvd,Clifton,TN,38425,931-298-0162,-87.98601,35.374662,,America/Chicago,N,,03/23/2024 00:00:00,N,,,Y,0,Tennessee,Family Dollar,2024-06-05
FAMILY DOLLAR #1139,1417 N Broad St,Rome,GA,30161,706-413-8328,-85.157811,34.264412,,America/New_York,N,,07/17/1986 00:00:00,N,2020-08-18T23:59:59,2021-08-26T23:59:59,Y,0,Georgia,Family Dollar,2024-06-05
FAMILY DOLLAR #10424,1710 Crawford Road,Phenix City,AL,36867-4229,334-592-2037,-85.017374,32.47388,,America/Chicago,N,,01/23/2014 00:00:00,N,2020-08-18T23:59:59,2021-08-26T23:59:59,N,0,Alabama,Family Dollar,2024-06-05
FAMILY DOLLAR #8064,2005 W. Hwy 16,Newnan,GA,30263,678-633-6512,-84.861984,33.430243,,America/New_York,N,,04/09/2009 00:00:00,N,2020-08-18T23:59:59,2021-08-26T23:59:59,N,0,Georgia,Family Dollar,2024-06-05
FAMILY DOLLAR #3506,1074 E Peace St,Canton,MS,39046-4026,601-761-6033,-90.011288,32.611622,,America/Chicago,N,,04/13/2000 00:00:00,N,2020-08-18T23:59:59,2021-08-26T23:59:59,N,0,Mississippi,Family Dollar,2024-06-05
FAMILY DOLLAR #6666,1009 Gateway Dr,Phenix City,AL,36869-7735,334-214-1050,-85.02611,32.43247,,America/Chicago,N,,09/22/2005 00:00:00,N,2020-08-18T23:59:59,2021-08-26T23:59:59,N,0,Alabama,Family Dollar,2024-06-05
FAMILY DOLLAR #1261,19535 N 3rd St,Citronelle,AL,36522-2029,251-264-6268,-88.238944,31.098971,,America/Chicago,N,,01/29/1987 00:00:00,N,2020-08-18T23:59:59,2021-08-26T23:59:59,Y,0,Alabama,Family Dollar,2024-06-05
FAMILY DOLLAR #12190,9591 Conners Rd,Villa Rica,GA,30180,470-243-1541,-84.89932,33.731457,,America/New_York,N,,06/28/2018 00:00:00,N,2020-08-18T23:59:59,2021-08-26T23:59:59,N,0,Georgia,Family Dollar,2024-06-05
FAMILY DOLLAR #12994,400 N Main Street,Cornersville,TN,37047,931-288-6319,-86.83797,35.370358,,America/Chicago,N,,12/09/2021 00:00:00,N,,,Y,0,Tennessee,Family Dollar,2024-06-05
FAMILY DOLLAR #11902,3376 N. Liberty Street,Canton,MS,39046-3717,601-761-6026,-90.03427871,32.61549411,,America/Chicago,N,,05/25/2017 00:00:00,N,2020-08-18T23:59:59,2021-08-26T23:59:59,N,0,Mississippi,Family Dollar,2024-06-05
FAMILY DOLLAR #4876,11200 Hwy 97,Walnut Hill,FL,32568-1821,850-937-5289,-87.488508,30.994148,,America/Chicago,N,,09/02/2001 00:00:00,N,2020-08-18T23:59:59,2021-08-26T23:59:59,N,0,Florida,Family Dollar,2024-06-05
FAMILY DOLLAR #6827,3126 Veterans Pkwy,Columbus,GA,31904-8247,762-261-3512,-84.980831,32.49349,,America/New_York,N,,06/29/2006 00:00:00,N,2020-08-18T23:59:59,2021-08-26T23:59:59,N,0,Georgia,Family Dollar,2024-06-05
FAMILY DOLLAR #10423,2323 Hamilton Road,Columbus,GA,31904-8553,762-208-5192,-84.98380203,32.48670018,,America/New_York,N,,04/02/2014 00:00:00,N,2020-08-18T23:59:59,2021-08-26T23:59:59,N,0,Georgia,Family Dollar,2024-06-05
FAMILY DOLLAR #9021,9441 N Century Blvd,Century,FL,32535,850-706-6011,-87.259498,30.996799,,America/Chicago,N,,08/09/2012 00:00:00,N,2020-08-18T23:59:59,2021-08-26T23:59:59,N,0,Florida,Family Dollar,2024-06-05
FAMILY DOLLAR #11660,844 Veterans Parkway,Columbus,GA,31901-2804,762-261-1703,-84.98721364,32.46227279,,America/New_York,N,,07/28/2016 00:00:00,N,2020-08-18T23:59:59,2021-08-26T23:59:59,N,0,Georgia,Family Dollar,2024-06-05
FAMILY DOLLAR #12619,2801 Double Churches Road,Columbus,GA,31909,762-261-3871,-84.94966,32.552,,America/New_York,N,,10/29/2020 00:00:00,N,2020-08-18T23:59:59,2021-08-26T23:59:59,N,0,Georgia,Family Dollar,2024-06-05
FAMILY DOLLAR #8723,338 S. Main St.,Pine Mountain,GA,31822,706-489-7257,-84.852438,32.860581,,America/New_York,N,,06/23/2011 00:00:00,N,2020-08-18T23:59:59,2021-08-26T23:59:59,N,0,Georgia,Family Dollar,2024-06-05
FAMILY DOLLAR #9043,403 Front Street S,Richton,MS,39476,601-912-9000,-88.93658,31.34493,,America/Chicago,N,,07/12/2012 00:00:00,N,2020-08-18T23:59:59,2021-08-26T23:59:59,Y,0,Mississippi,Family Dollar,2024-06-05
FAMILY DOLLAR #10265,1131 W Peace Street,Canton,MS,39046,601-667-6279,-90.054381,32.610717,,America/Chicago,N,,06/13/2013 00:00:00,N,2020-08-18T23:59:59,2021-08-26T23:59:59,N,0,Mississippi,Family Dollar,2024-06-05
FAMILY DOLLAR #4751,159 Temple Ave Ste A,Newnan,GA,30263-1669,470-683-5296,-84.813602,33.383364,,America/New_York,N,,05/31/2001 00:00:00,N,2020-08-18T23:59:59,2021-08-26T23:59:59,N,0,Georgia,Family Dollar,2024-06-05
FAMILY DOLLAR #2783,700 Highway 7 N,Greenwood,MS,38930,662-219-2432,-90.15201,33.517826,,America/Chicago,N,,03/08/1996 00:00:00,N,2020-08-18T23:59:59,2021-08-26T23:59:59,N,0,Mississippi,Family Dollar,2024-06-05
FAMILY DOLLAR #632,183 N. Memphis Street,Holly Springs,MS,38635-2257,662-504-6068,-89.44835,34.770596,,America/Chicago,N,,03/02/1983 00:00:00,N,2020-08-18T23:59:59,2021-08-26T23:59:59,N,0,Mississippi,Family Dollar,2024-06-05
FAMILY DOLLAR #4209,807 Main St,Leakesville,MS,39451,601-514-3134,-88.55963,31.15677,,America/Chicago,N,,11/30/2000 00:00:00,N,2020-08-18T23:59:59,2021-08-26T23:59:59,Y,0,Mississippi,Family Dollar,2024-06-05
FAMILY DOLLAR #4246,2126 Buena  Vista Road,Columbus,GA,31906-3110,762-208-5397,-84.95954,32.464405,,America/New_York,N,,11/30/2000 00:00:00,N,2020-08-18T23:59:59,2021-08-26T23:59:59,N,0,Georgia,Family Dollar,2024-06-05
FAMILY DOLLAR #318,121 Jefferson St,Newnan,GA,30263-1420,678-633-6087,-84.795443,33.381353,,America/New_York,N,,08/24/1978 00:00:00,N,2020-08-18T23:59:59,2021-08-26T23:59:59,N,0,Georgia,Family Dollar,2024-06-05
FAMILY DOLLAR #12160,324 Brown Ave,Columbus,GA,31903,706-249-9375,-84.96073443,32.44989918,,America/New_York,N,,07/05/2018 00:00:00,N,2020-08-18T23:59:59,2021-08-26T23:59:59,Y,0,Georgia,Family Dollar,2024-06-05
FAMILY DOLLAR #12688,50470 Al Highway 277,Bridgeport,AL,35740-6517,938-930-1234,-85.72719,34.940998,,America/Chicago,N,,09/25/2021 00:00:00,N,,,Y,0,Alabama,Family Dollar,2024-06-05
FAMILY DOLLAR #12630,"1900 Auburn Avenue, Suite A",Columbus,GA,31906,706-940-3451,-84.945076,32.480648,,America/New_York,N,,01/21/2021 00:00:00,N,2020-08-18T23:59:59,2021-08-26T23:59:59,N,0,Georgia,Family Dollar,2024-06-05
FAMILY DOLLAR #13679,620 S. College St,Winchester,TN,37398,931-313-4684,-86.107063,35.180887,,America/Chicago,N,,07/24/2023 00:00:00,N,,,Y,0,Tennessee,Family Dollar,2024-06-05
FAMILY DOLLAR #9373,5181 Warm Springs Rd,Columbus,GA,31909-4159,762-240-9006,-84.904425,32.537039,,America/New_York,N,,05/10/2012 00:00:00,N,2020-08-18T23:59:59,2021-08-26T23:59:59,N,0,Georgia,Family Dollar,2024-06-05
FAMILY DOLLAR #1563,3438 Buena Vista Road,Columbus,GA,31906-4367,762-240-9000,-84.937052,32.455952,,America/New_York,N,,01/12/1989 00:00:00,N,2020-08-18T23:59:59,2021-08-26T23:59:59,N,0,Georgia,Family Dollar,2024-06-05
FAMILY DOLLAR #5108,1647 S Lumpkin Rd,Columbus,GA,31903-2721,762-240-9001,-84.9511,32.42393,,America/New_York,N,,07/03/2002 00:00:00,N,2021-09-19T23:59:59,2021-09-30T23:59:59,N,0,Georgia,Family Dollar,2024-06-05
FAMILY DOLLAR #11459,4011 Forrest Road,Columbus,GA,31907-2648,762-261-2725,-84.92400808,32.48432858,,America/New_York,N,,09/28/2016 00:00:00,N,2020-08-18T23:59:59,2021-08-26T23:59:59,N,0,Georgia,Family Dollar,2024-06-05
FAMILY DOLLAR #11610,320 Highway 82 W,Greenwood,MS,38930,662-385-4003,-90.18933225,33.50656927,,America/Chicago,N,,01/14/2016 00:00:00,N,2020-08-18T23:59:59,2021-08-26T23:59:59,N,0,Mississippi,Family Dollar,2024-06-05
FAMILY DOLLAR #8860,810 Fort Benning Road,Columbus,GA,31903-2002,762-240-9005,-84.9395229,32.43645059,,America/New_York,N,,11/30/2011 00:00:00,N,2020-08-18T23:59:59,2021-08-26T23:59:59,N,0,Georgia,Family Dollar,2024-06-05
FAMILY DOLLAR #9257,14218 Alabama Street,Jay,FL,32565,850-359-1428,-87.14940828,30.9533036,,America/Chicago,N,,10/24/2013 00:00:00,N,2020-08-18T23:59:59,2021-08-26T23:59:59,N,0,Florida,Family Dollar,2024-06-05
FAMILY DOLLAR #418,3759 Victory Dr Ste 12,Columbus,GA,31903-3221,762-240-9011,-84.942485,32.416631,,America/New_York,N,,04/04/1979 00:00:00,N,2020-08-18T23:59:59,2021-08-26T23:59:59,N,0,Georgia,Family Dollar,2024-06-05
FAMILY DOLLAR #3303,310 W Main St,Charleston,MS,38921-2231,662-849-6000,-90.061421,34.00683,,America/Chicago,N,,04/09/1998 00:00:00,N,2020-08-18T23:59:59,2021-08-26T23:59:59,N,0,Mississippi,Family Dollar,2024-06-05
FAMILY DOLLAR #13204,253 Sweetwater Branch Road,Fort Mitchell,AL,36856,334-214-1013,-85.005005,32.282406,,America/Chicago,N,,08/26/2023 00:00:00,N,,,Y,0,Alabama,Family Dollar,2024-06-05
FAMILY DOLLAR #5105,326 Farr Rd,Columus,GA,31907,762-261-3564,-84.923064,32.443792,,America/New_York,N,,08/22/2002 00:00:00,N,2020-08-18T23:59:59,2021-08-26T23:59:59,N,0,Georgia,Family Dollar,2024-06-05
FAMILY DOLLAR #13801,3030 Highway 11,Moselle,MS,39459,769-390-8010,-89.280662,31.501591,,America/Chicago,N,,04/13/2024 00:00:00,N,,,Y,0,Mississippi,Family Dollar,2024-06-05
FAMILY DOLLAR #8295,5600 Milgen Rd,Columbus,GA,31907-8700,762-261-3712,-84.890057,32.519777,,America/New_York,N,,05/20/2010 00:00:00,N,2020-08-18T23:59:59,2021-08-26T23:59:59,N,0,Georgia,Family Dollar,2024-06-05
FAMILY DOLLAR #12778,17 N Main St,Luthersville,GA,30251,678-633-6844,-84.744545,33.211494,,America/New_York,N,,01/27/2022 00:00:00,N,,,Y,0,Georgia,Family Dollar,2024-06-05
FAMILY DOLLAR #333,2112 Floyd Road,Columbus,GA,31907-3667,762-240-9012,-84.89841,32.480576,,America/New_York,N,,11/29/1979 00:00:00,N,2020-08-18T23:59:59,2021-08-26T23:59:59,N,0,Georgia,Family Dollar,2024-06-05
FAMILY DOLLAR #12685,4710 Steam Mill Road,Columbus,GA,31907-5575,706-330-5010,-84.9093,32.4541,,America/New_York,N,,09/23/2021 00:00:00,N,,,N,0,Georgia,Family Dollar,2024-06-05
FAMILY DOLLAR #13713,9228 Highway 42,Petal,MS,39465,601-909-0880,-89.111051,31.375959,,America/Chicago,N,,09/21/2023 00:00:00,N,,,Y,0,Mississippi,Family Dollar,2024-06-05
FAMILY DOLLAR #8826,2985 Villa Rica Highway,Dallas,GA,30157,678-695-5265,-84.839923,33.868688,,America/New_York,N,,01/19/2012 00:00:00,N,2020-08-18T23:59:59,2021-08-26T23:59:59,N,0,Georgia,Family Dollar,2024-06-05
FAMILY DOLLAR #2180,304 E Government St,Brandon,MS,39042-3262,769-241-6184,-89.983367,32.272581,,America/Chicago,N,,02/24/1993 00:00:00,N,2020-08-18T23:59:59,2021-08-26T23:59:59,N,0,Mississippi,Family Dollar,2024-06-05
FAMILY DOLLAR #7132,"4336 Ridge Rd, Ste 101",Douglasville,GA,30134-5043,470-523-9366,-84.819109,33.81385,,America/New_York,N,,05/25/2006 00:00:00,N,2020-08-18T23:59:59,2021-08-26T23:59:59,N,0,Georgia,Family Dollar,2024-06-05
FAMILY DOLLAR #11402,906 Amber Drive,Columbus,GA,31907-4602,762-261-3337,-84.89198006,32.46327405,,America/New_York,N,,05/07/2015 00:00:00,N,2020-08-18T23:59:59,2021-08-26T23:59:59,N,0,Georgia,Family Dollar,2024-06-05
FAMILY DOLLAR #12470,7900 Beaver Run Road,Midland,GA,31820,762-359-0959,-84.8539,32.53727,,America/New_York,N,,05/28/2020 00:00:00,N,2020-08-18T23:59:59,2021-08-26T23:59:59,N,0,Georgia,Family Dollar,2024-06-05
FAMILY DOLLAR #3246,116 Highway 51 N,Batesville,MS,38606-2347,662-703-4032,-89.94264,34.31245,,America/Chicago,N,,10/16/1997 00:00:00,N,2020-08-18T23:59:59,2021-08-26T23:59:59,N,0,Mississippi,Family Dollar,2024-06-05
FAMILY DOLLAR #4039,308 W. Main Street,Hohenwald,TN,38462-1316,931-329-3012,-87.55778,35.548344,,America/Chicago,N,,02/03/2000 00:00:00,N,2020-08-18T23:59:59,2021-08-26T23:59:59,N,0,Tennessee,Family Dollar,2024-06-05
FAMILY DOLLAR #13484,660 Paulding Plaza,Dallas,GA,30132,470-638-7618,-84.803596,33.908925,,America/New_York,N,,11/14/2022 00:00:00,N,,,Y,0,Georgia,Family Dollar,2024-06-05
FAMILY DOLLAR #13104,400 E. Lee Street,Sardis,MS,38666,662-487-6352,-89.905235,34.437428,,America/Chicago,N,,07/08/2022 00:00:00,N,,,Y,0,Mississippi,Family Dollar,2024-06-05
FAMILY DOLLAR #12970,903 Rucker Boulevard,Enterprise,AL,36330,334-489-6189,-85.8304,31.323729,,America/Chicago,N,,10/14/2021 00:00:00,N,,,N,0,Alabama,Family Dollar,2024-06-05
FAMILY DOLLAR #7819,816 Main Street,Collins,MS,39428,601-921-6007,-89.56011612,31.63837984,,America/Chicago,N,,01/24/2008 00:00:00,N,2020-08-18T23:59:59,2021-08-26T23:59:59,N,0,Mississippi,Family Dollar,2024-06-05
FAMILY DOLLAR #350,6113 Fairburn Rd,Douglasville,GA,30134-2371,678-813-3153,-84.73232,33.752519,,America/New_York,N,,08/02/1979 00:00:00,N,2020-08-18T23:59:59,2021-08-26T23:59:59,N,0,Georgia,Family Dollar,2024-06-05
FAMILY DOLLAR #13554,755 Highway 468,Brandon,MS,39042,769-241-6035,-90.031069,32.224943,,America/Chicago,N,,04/27/2023 00:00:00,N,,,Y,0,Mississippi,Family Dollar,2024-06-05
FAMILY DOLLAR #10157,1606 E County Line Road,Ridgeland,MS,39157-1906,769-289-0061,-90.121755,32.399967,,America/Chicago,N,,07/03/2014 00:00:00,N,2020-08-18T23:59:59,2021-08-26T23:59:59,N,0,Mississippi,Family Dollar,2024-06-05
FAMILY DOLLAR #12328,398 Hwy 51,Ridgeland,MS,39157,769-289-0081,-90.13396,32.419743,,America/Chicago,N,,09/06/2019 00:00:00,N,2020-08-18T23:59:59,2021-08-26T23:59:59,N,0,Mississippi,Family Dollar,2024-06-05
FAMILY DOLLAR #12294,5060 Parkway Drive,Jackson,MS,39211,769-867-9751,-90.12332563,32.37462374,,America/Chicago,N,,01/10/2019 00:00:00,N,2020-08-18T23:59:59,2021-08-26T23:59:59,N,0,Mississippi,Family Dollar,2024-06-05
FAMILY DOLLAR #10905,1736 Simpson Highway 149,Mendenhall,MS,39114-3423,601-808-6001,-89.879277,31.963987,,America/Chicago,N,,04/10/2014 00:00:00,N,2020-08-18T23:59:59,2021-08-26T23:59:59,N,0,Mississippi,Family Dollar,2024-06-05
FAMILY DOLLAR #12579,23 Hwy 590 W,Seminary,MS,39479,601-640-9009,-89.506516,31.562897,,America/Chicago,N,,04/08/2021 00:00:00,N,2020-08-18T23:59:59,2021-08-26T23:59:59,N,0,Mississippi,Family Dollar,2024-06-05
FAMILY DOLLAR #5675,9145b Roosevelt Blvd,Palmetto,GA,30268-1849,470-975-4593,-84.660361,33.529338,,America/New_York,N,,08/21/2003 00:00:00,N,2020-08-18T23:59:59,2021-08-26T23:59:59,N,0,Georgia,Family Dollar,2024-06-05
FAMILY DOLLAR #440,986 Eufaula Avenue,Eufaula,AL,36027,334-355-6750,-85.1471,31.881615,,America/Chicago,N,,04/03/1979 00:00:00,N,2020-08-18T23:59:59,2021-08-26T23:59:59,N,0,Alabama,Family Dollar,2024-06-05
FAMILY DOLLAR #11748,5380 Brownsville Road Sw,Powder Springs,GA,30127,470-938-7895,-84.72329183,33.8222312,,America/New_York,N,,08/29/2017 00:00:00,N,2020-08-18T23:59:59,2021-08-26T23:59:59,N,0,Georgia,Family Dollar,2024-06-05
FAMILY DOLLAR #12663,2107 Fairburn Rd,Douglasville,GA,30135-1037,770-799-7825,-84.70132,33.746075,,America/New_York,N,,04/07/2022 00:00:00,N,,,N,0,Georgia,Family Dollar,2024-06-05
FAMILY DOLLAR #2850,605 W Market Street,Bolivar,TN,38008-2240,731-203-0049,-88.99475,35.255913,,America/Chicago,N,,04/26/1996 00:00:00,N,2022-03-27T23:59:59,2022-04-25T23:59:59,N,0,Tennessee,Family Dollar,2024-06-05
FAMILY DOLLAR #6731,311 Briarwood Dr,Jackson,MS,39206-3002,601-813-0448,-90.153676,32.37963,,America/Chicago,N,,08/25/2005 00:00:00,N,2020-08-18T23:59:59,2021-08-26T23:59:59,N,0,Mississippi,Family Dollar,2024-06-05
FAMILY DOLLAR #2727,3123 Hwy 80 E,Pearl,MS,39208-3503,601-202-1001,-90.11603,32.2815,,America/Chicago,N,,09/29/1995 00:00:00,N,2020-08-18T23:59:59,2021-08-26T23:59:59,N,0,Mississippi,Family Dollar,2024-06-05
FAMILY DOLLAR #8652,2682 Lee Road,Lithia Springs,GA,30122-3351,470-632-4014,-84.667506,33.733226,,America/New_York,N,,07/21/2011 00:00:00,N,2020-08-18T23:59:59,2021-08-26T23:59:59,N,0,Georgia,Family Dollar,2024-06-05
FAMILY DOLLAR #13199,8094 Highway 85 N,Laurel Hill,FL,32567-2137,850-316-9690,-86.466835,30.959976,,America/Chicago,N,,06/23/2022 00:00:00,N,,,Y,0,Florida,Family Dollar,2024-06-05
FAMILY DOLLAR #11922,4697 Main Street,Jasper,TN,37347,423-651-0967,-85.6208713,35.07482188,,America/Chicago,N,,07/27/2017 00:00:00,N,2020-08-18T23:59:59,2021-08-26T23:59:59,N,0,Tennessee,Family Dollar,2024-06-05
FAMILY DOLLAR #4235,121 Whitley Ave,Henderson,TN,38340-2221,731-595-6001,-88.647896,35.43591,,America/Chicago,N,,01/04/2001 00:00:00,N,2020-08-18T23:59:59,2021-08-26T23:59:59,N,0,Tennessee,Family Dollar,2024-06-05
FAMILY DOLLAR #682,1152 5th St,Florala,AL,36442-3219,334-767-6000,-86.328696,31.004972,,America/Chicago,N,,09/29/1983 00:00:00,N,2020-08-18T23:59:59,2021-08-26T23:59:59,N,0,Alabama,Family Dollar,2024-06-05
FAMILY DOLLAR #4155,7421 Adairsville Hwy,Adairsville,GA,30103-2014,470-231-4346,-84.93183,34.378481,,America/New_York,N,,09/21/2000 00:00:00,N,2020-08-18T23:59:59,2021-08-26T23:59:59,N,0,Georgia,Family Dollar,2024-06-05
FAMILY DOLLAR #3177,4445 N State St,Jackson,MS,39206-5306,769-348-3986,-90.175765,32.352751,,America/Chicago,N,,08/14/1997 00:00:00,N,2020-08-18T23:59:59,2021-08-26T23:59:59,N,0,Mississippi,Family Dollar,2024-06-05
FAMILY DOLLAR #13506,104 Hwy 51  N,Como,MS,38619,662-426-8901,-89.949312,34.510772,,America/Chicago,N,,08/17/2023 00:00:00,N,,,Y,0,Mississippi,Family Dollar,2024-06-05
FAMILY DOLLAR #10158,621 South Pearson Road,Pearl,MS,39208,769-209-4779,-90.133341,32.261699,,America/Chicago,N,,10/31/2013 00:00:00,N,2020-08-18T23:59:59,2021-08-26T23:59:59,N,0,Mississippi,Family Dollar,2024-06-05
FAMILY DOLLAR #12781,88 Lobelville Hwy,Linden,TN,37096-6076,731-316-4182,-87.83305,35.621838,,America/Chicago,N,,06/24/2021 00:00:00,N,2020-08-18T23:59:59,2021-08-26T23:59:59,Y,0,Tennessee,Family Dollar,2024-06-05
FAMILY DOLLAR #3408,10687 Veterans Memorial Hwy,Lithia Springs,GA,30122-1800,770-799-2720,-84.663831,33.793281,,America/New_York,N,,06/11/1998 00:00:00,N,2020-08-18T23:59:59,2021-08-26T23:59:59,N,0,Georgia,Family Dollar,2024-06-05
FAMILY DOLLAR #448,416 W Main St,Manchester,GA,31816-1657,762-264-4056,-84.619485,32.855436,,America/New_York,N,,03/03/1981 00:00:00,N,2020-08-18T23:59:59,2021-08-26T23:59:59,Y,0,Georgia,Family Dollar,2024-06-05
FAMILY DOLLAR #10151,3824 Powder Springs Rd,Powder Springs,GA,30127-2736,678-695-9528,-84.665918,33.860978,,America/New_York,N,,03/14/2013 00:00:00,N,2020-08-18T23:59:59,2021-08-26T23:59:59,N,0,Georgia,Family Dollar,2024-06-05
FAMILY DOLLAR #1044,119 Nashville Hwy  Ste 94,Columbia,TN,38401-2434,931-777-2014,-87.031915,35.627258,,America/Chicago,N,,11/26/1986 00:00:00,N,2020-08-18T23:59:59,2021-08-26T23:59:59,N,0,Tennessee,Family Dollar,2024-06-05
FAMILY DOLLAR #12990,308 Highway 520,Cusseta,GA,31805,706-786-5615,-84.79284,32.307922,,America/New_York,N,,07/22/2022 00:00:00,N,,,Y,0,Georgia,Family Dollar,2024-06-05
FAMILY DOLLAR #5360,1301 Edwards St,Hattiesburg,MS,39401-5516,769-207-5269,-89.285564,31.307246,,America/Chicago,N,,11/21/2002 00:00:00,N,2020-08-18T23:59:59,2021-08-26T23:59:59,N,0,Mississippi,Family Dollar,2024-06-05
FAMILY DOLLAR #411,124 Saraland Loop,Saraland,AL,36571-2419,251-509-0454,-88.074988,30.825974,,America/Chicago,N,,09/03/1998 00:00:00,N,2020-08-18T23:59:59,2021-08-26T23:59:59,N,0,Alabama,Family Dollar,2024-06-05
FAMILY DOLLAR #1119,215 Broadway Dr,Hattiesburg,MS,39401-5083,769-390-8017,-89.306064,31.31701,,America/Chicago,N,,02/27/1986 00:00:00,N,2020-08-18T23:59:59,2021-08-26T23:59:59,N,0,Mississippi,Family Dollar,2024-06-05
FAMILY DOLLAR #5213,320 W Woodrow Wilson Ave,Jackson,MS,39213-7649,769-208-6326,-90.195147,32.327337,,America/Chicago,N,,05/23/2002 00:00:00,N,2020-08-18T23:59:59,2021-08-26T23:59:59,N,0,Mississippi,Family Dollar,2024-06-05
FAMILY DOLLAR #11634,8370 Senoia Rd,Fairburn,GA,30213,470-615-3694,-84.57533155,33.52965406,,America/New_York,N,,12/07/2017 00:00:00,N,2020-08-18T23:59:59,2021-08-26T23:59:59,N,0,Georgia,Family Dollar,2024-06-05
FAMILY DOLLAR #559,3204 Medgar Evers Boulevard,Jackson,MS,39213-6842,769-246-5952,-90.20752,32.33531,,America/Chicago,N,,09/09/1982 00:00:00,N,2020-08-18T23:59:59,2021-08-26T23:59:59,N,0,Mississippi,Family Dollar,2024-06-05
FAMILY DOLLAR #3708,3814 W 4th St  Ste 40,Hattiesburg,MS,39401,601-255-9912,-89.347025,31.335318,,America/Chicago,N,,09/02/1999 00:00:00,N,2020-08-18T23:59:59,2021-08-26T23:59:59,N,0,Mississippi,Family Dollar,2024-06-05
FAMILY DOLLAR #499,100 W Broad Street,Fairburn,GA,30213,470-369-9766,-84.578789,33.568675,,America/New_York,N,,04/29/1982 00:00:00,N,2020-08-18T23:59:59,2021-08-26T23:59:59,N,0,Georgia,Family Dollar,2024-06-05
FAMILY DOLLAR #1695,3140 W Northside Drive,Jackson,MS,39213,601-813-0707,-90.227806,32.356525,,America/Chicago,N,,09/28/1989 00:00:00,N,2020-08-18T23:59:59,2021-08-26T23:59:59,N,0,Mississippi,Family Dollar,2024-06-05
FAMILY DOLLAR #290,815 S Wall St,Calhoun,GA,30701-2617,762-204-6238,-84.945388,34.48603,,America/New_York,N,,12/08/1977 00:00:00,N,2020-08-18T23:59:59,2021-08-26T23:59:59,N,0,Georgia,Family Dollar,2024-06-05
FAMILY DOLLAR #5957,760 E 15th St,Yazoo City,MS,39194-2706,662-673-6301,-90.394628,32.862562,,America/Chicago,N,,08/21/2003 00:00:00,N,2020-08-18T23:59:59,2021-08-26T23:59:59,N,0,Mississippi,Family Dollar,2024-06-05
FAMILY DOLLAR #10318,2526 Lincoln Road,Hattiesburg,MS,39402,601-909-4062,-89.329636,31.303735,,America/Chicago,N,,01/31/2013 00:00:00,N,2020-08-18T23:59:59,2021-08-26T23:59:59,N,0,Mississippi,Family Dollar,2024-06-05
FAMILY DOLLAR #12656,101 Mansker Drive,Flora,MS,39071,601-813-0085,-90.32033,32.54855,,America/Chicago,N,,01/08/2021 00:00:00,N,2020-08-18T23:59:59,2021-08-26T23:59:59,Y,0,Mississippi,Family Dollar,2024-06-05
FAMILY DOLLAR #2389,4270 Main St,Lucedale,MS,39452,601-514-0192,-88.59417,30.92551,,America/Chicago,N,,06/29/1994 00:00:00,N,2020-08-18T23:59:59,2021-08-26T23:59:59,N,0,Mississippi,Family Dollar,2024-06-05
FAMILY DOLLAR #2874,824 Mission Ridge Road,Rossville,GA,30742,762-887-6321,-85.31248216,34.91606602,,America/New_York,N,,07/26/1996 00:00:00,N,2020-08-18T23:59:59,2021-08-26T23:59:59,N,0,Georgia,Family Dollar,2024-06-05
FAMILY DOLLAR #2799,301 Broadway Street,Yazoo,MS,39194,662-673-6281,-90.410572,32.84630649,,America/Chicago,N,,01/12/1996 00:00:00,N,2020-08-18T23:59:59,2021-08-26T23:59:59,N,0,Mississippi,Family Dollar,2024-06-05
FAMILY DOLLAR #3921,2566 Robinson St  Ste B,Jackson,MS,39209-7029,601-813-0445,-90.230123,32.307589,,America/Chicago,N,,10/14/1999 00:00:00,N,2020-08-18T23:59:59,2021-08-26T23:59:59,N,0,Mississippi,Family Dollar,2024-06-05
FAMILY DOLLAR #5868,4960 Roosevelt Hwy,Union City,GA,30291-1124,470-491-4578,-84.549133,33.595413,,America/New_York,N,,04/29/2004 00:00:00,N,2020-08-18T23:59:59,2021-08-26T23:59:59,N,0,Georgia,Family Dollar,2024-06-05
FAMILY DOLLAR #2347,6250 Mccrary Rd,Semmes,AL,36575-0288,251-706-7786,-88.258746,30.821749,,America/Chicago,N,,05/18/1994 00:00:00,N,2020-08-18T23:59:59,2021-08-26T23:59:59,Y,0,Alabama,Family Dollar,2024-06-05
FAMILY DOLLAR #10443,2820 Terry Road,Jackson,MS,39212,769-209-4780,-90.218248,32.267053,,America/Chicago,N,,08/21/2014 00:00:00,N,2020-08-18T23:59:59,2021-08-26T23:59:59,N,0,Mississippi,Family Dollar,2024-06-05
FAMILY DOLLAR #364,1255 Veterans Mem Hwy Ste #16,Mableton,GA,30126-3115,470-531-2640,-84.5897,33.815934,,America/New_York,N,,08/30/1979 00:00:00,N,2020-08-18T23:59:59,2021-08-26T23:59:59,N,0,Georgia,Family Dollar,2024-06-05
FAMILY DOLLAR #6791,4747 Clinton Blvd,Jackson,MS,39209-2405,601-813-0449,-90.252275,32.328219,,America/Chicago,N,,08/25/2005 00:00:00,N,2020-08-18T23:59:59,2021-08-26T23:59:59,N,0,Mississippi,Family Dollar,2024-06-05
FAMILY DOLLAR #8649,1330 East-West Connector,Austell,GA,30106-1350,678-695-5264,-84.593352,33.856095,,America/New_York,N,,06/16/2011 00:00:00,N,2020-08-18T23:59:59,2021-08-26T23:59:59,N,0,Georgia,Family Dollar,2024-06-05
FAMILY DOLLAR #5171,3366 Terry Rd,Jackson,MS,39212-4953,601-813-0447,-90.222757,32.252914,,America/Chicago,N,,05/02/2002 00:00:00,N,2020-08-18T23:59:59,2021-08-26T23:59:59,N,0,Mississippi,Family Dollar,2024-06-05
FAMILY DOLLAR #4370,401 Riverside Parkway,Austell,GA,30168-2810,678-695-5021,-84.56803,33.77766,,America/New_York,N,,03/15/2001 00:00:00,N,2020-08-18T23:59:59,2021-08-26T23:59:59,N,0,Georgia,Family Dollar,2024-06-05
FAMILY DOLLAR #12531,503 Tennessee Avenue N,Parsons,TN,38363,901-300-7352,-88.12822,35.65711,,America/Chicago,N,,04/30/2020 00:00:00,N,2020-08-18T23:59:59,2021-08-26T23:59:59,Y,0,Tennessee,Family Dollar,2024-06-05
FAMILY DOLLAR #8456,6200 Mableton Pkwy,Mableton,GA,30126-5248,770-799-1987,-84.568646,33.801862,,America/New_York,N,09/05/2024,11/11/2010 00:00:00,N,2020-08-18T23:59:59,2021-08-26T23:59:59,N,1,Georgia,Family Dollar,2024-06-05
FAMILY DOLLAR #10484,13281 Moffett Road,Wilmer,AL,36587-4419,251-509-0455,-88.358226,30.822808,,America/Chicago,N,,05/07/2014 00:00:00,N,2020-08-18T23:59:59,2021-08-26T23:59:59,N,0,Alabama,Family Dollar,2024-06-05
FAMILY DOLLAR #11580,3985 Flat Shoals Road,Union City,GA,30291-1588,678-489-9064,-84.51848225,33.58770628,,America/New_York,N,,04/21/2016 00:00:00,N,2020-08-18T23:59:59,2021-08-26T23:59:59,N,0,Georgia,Family Dollar,2024-06-05
FAMILY DOLLAR #1428,514 Kirkland Street,Abbeville,AL,36310-2417,334-575-6000,-85.2512107,31.56763268,,America/Chicago,N,,04/21/1988 00:00:00,N,2021-09-12T23:59:59,2021-09-23T23:59:59,N,0,Alabama,Family Dollar,2024-06-05
FAMILY DOLLAR #594,Hwy 41 & 7th St,Tracy City,TN,37387,423-651-0894,-85.725216,35.257756,,America/Chicago,N,,01/27/1983 00:00:00,N,2020-08-18T23:59:59,2021-08-26T23:59:59,N,0,Tennessee,Family Dollar,2024-06-05
FAMILY DOLLAR #398,424 S Craft Hwy,Chickasaw,AL,36611-2213,251-301-8306,-88.07601,30.757821,,America/Chicago,N,,12/10/1980 00:00:00,N,2020-08-18T23:59:59,2021-08-26T23:59:59,N,0,Alabama,Family Dollar,2024-06-05
FAMILY DOLLAR #13215,5 New York Ave,Sumrall,MS,39482,769-307-6071,-89.55238,31.414474,,America/Chicago,N,,11/03/2022 00:00:00,N,,,Y,0,Mississippi,Family Dollar,2024-06-05
FAMILY DOLLAR #10677,4472 Campbellton Road Sw,Atlanta,GA,30331-6504,470-681-2722,-84.53451073,33.69574463,,America/New_York,N,,05/21/2015 00:00:00,N,2020-08-18T23:59:59,2021-08-26T23:59:59,N,0,Georgia,Family Dollar,2024-06-05
FAMILY DOLLAR #10480,3454 Baker Road,Acworth,GA,30101,678-273-7219,-84.6506,34.0762,,America/New_York,N,,09/01/2013 00:00:00,N,2020-08-18T23:59:59,2021-08-26T23:59:59,N,0,Georgia,Family Dollar,2024-06-05
FAMILY DOLLAR #1104,520 N. Hayden,Belzoni,MS,39038,662-399-8007,-90.48869,33.1827,,America/Chicago,N,,05/01/1986 00:00:00,N,2020-08-18T23:59:59,2021-08-26T23:59:59,Y,0,Mississippi,Family Dollar,2024-06-05
FAMILY DOLLAR #13882,2068 Highway 64,Whiteville,TN,38075,731-859-2778,-89.153614,35.318176,,America/Chicago,N,,04/06/2024 00:00:00,N,,,N,0,Tennessee,Family Dollar,2024-06-05
FAMILY DOLLAR #10545,1214 N. Wilson Avenue,Prichard,AL,36610-1739,251-509-0413,-88.077981,30.746336,,America/Chicago,N,,03/20/2014 00:00:00,N,2020-08-18T23:59:59,2021-08-26T23:59:59,N,0,Alabama,Family Dollar,2024-06-05
FAMILY DOLLAR #10056,1308 Powder Springs Rd Sw,Marietta,GA,30064-3933,770-767-5926,-84.5804,33.920998,,America/New_York,N,,08/15/2013 00:00:00,N,2020-08-18T23:59:59,2021-08-26T23:59:59,N,0,Georgia,Family Dollar,2024-06-05
FAMILY DOLLAR #5535,2019a Raymond Rd,Jackson,MS,39204-4131,769-246-5870,-90.267848,32.273314,,America/Chicago,N,,03/27/2003 00:00:00,N,2020-08-18T23:59:59,2021-08-26T23:59:59,N,0,Mississippi,Family Dollar,2024-06-05
FAMILY DOLLAR #1725,3435 Roosevelt Hwy   Suite C,Red Oak,GA,30272,404-942-1353,-84.501661,33.623202,,America/New_York,N,,12/12/1989 00:00:00,N,2020-08-18T23:59:59,2021-08-26T23:59:59,N,0,Georgia,Family Dollar,2024-06-05
FAMILY DOLLAR #2349,3721b Campbellton Rd Sw,Atlanta,GA,30331-5221,404-905-0492,-84.510315,33.6913,,America/New_York,N,,12/15/1993 00:00:00,N,2020-08-18T23:59:59,2021-08-26T23:59:59,N,0,Georgia,Family Dollar,2024-06-05
FAMILY DOLLAR #9106,2051 Austell Road Sw,Marietta,GA,30008-4140,678-695-9521,-84.566552,33.903085,,America/New_York,N,,04/04/2013 00:00:00,N,2020-08-18T23:59:59,2021-08-26T23:59:59,N,0,Georgia,Family Dollar,2024-06-05
FAMILY DOLLAR #2645,3800 Tennessee Ave  Ste 1,Chattanooga,TN,37409-1270,423-508-3214,-85.326428,35.00937,,America/New_York,N,,03/22/1996 00:00:00,N,2020-08-18T23:59:59,2021-08-26T23:59:59,N,0,Tennessee,Family Dollar,2024-06-05
FAMILY DOLLAR #10326,850 Veterans Memorial Hwy Sw,Mableton,GA,30126,678-567-4789,-84.53005519,33.80592514,,America/New_York,N,,04/10/2014 00:00:00,N,2020-08-18T23:59:59,2021-08-26T23:59:59,N,0,Georgia,Family Dollar,2024-06-05
FAMILY DOLLAR #11615,4226 Washington Road,East Point,GA,30344-7004,404-446-2110,-84.49089172,33.640156,,America/New_York,N,,03/31/2016 00:00:00,N,2020-08-18T23:59:59,2021-08-26T23:59:59,N,0,Georgia,Family Dollar,2024-06-05
FAMILY DOLLAR #3514,222 Clinton Blvd,Clinton,MS,39056-5126,601-460-4001,-90.313427,32.333609,,America/Chicago,N,,09/24/1998 00:00:00,N,2020-08-18T23:59:59,2021-08-26T23:59:59,N,0,Mississippi,Family Dollar,2024-06-05
FAMILY DOLLAR #4539,17575 Us Hwy 64,Somerville,TN,38068,901-424-6154,-89.337395,35.242092,,America/Chicago,N,,05/31/2001 00:00:00,N,2020-08-18T23:59:59,2021-08-26T23:59:59,Y,0,Tennessee,Family Dollar,2024-06-05
FAMILY DOLLAR #263,767 Battlefield Pkwy,Fort Oglethorpe,GA,30742-3923,762-887-6320,-85.251693,34.955255,,America/New_York,N,,03/17/1977 00:00:00,N,2020-08-18T23:59:59,2021-08-26T23:59:59,N,0,Georgia,Family Dollar,2024-06-05
FAMILY DOLLAR #4108,713 Martin Luther King Dr.,Marks,MS,38646,662-259-6059,-90.275422,34.251485,,America/Chicago,N,,07/27/2000 00:00:00,N,2020-08-18T23:59:59,2021-08-26T23:59:59,N,0,Mississippi,Family Dollar,2024-06-05
FAMILY DOLLAR #8385,6385 Old National Hwy,Atlanta,GA,30349,448-206-1643,-84.472039,33.581196,,America/New_York,N,,11/10/2011 00:00:00,N,2020-08-18T23:59:59,2021-08-26T23:59:59,N,0,Georgia,Family Dollar,2024-06-05
FAMILY DOLLAR #2341,728 Sandtown Rd,Marietta,GA,30060-3046,770-799-2709,-84.556458,33.934514,,America/New_York,N,,11/17/1993 00:00:00,N,2020-08-18T23:59:59,2021-08-26T23:59:59,N,0,Georgia,Family Dollar,2024-06-05
FAMILY DOLLAR #13463,1553 Broad Street,Lumpkin,GA,31815-0000,229-405-6171,-84.79855,32.051376,,America/New_York,N,,04/27/2023 00:00:00,N,,,Y,0,Georgia,Family Dollar,2024-06-05
FAMILY DOLLAR #4367,7490 Old National Hwy,Riverdale,GA,30296-1672,470-491-6739,-84.464115,33.552496,,America/New_York,N,,08/31/2000 00:00:00,N,2020-08-18T23:59:59,2021-08-26T23:59:59,N,0,Georgia,Family Dollar,2024-06-05
FAMILY DOLLAR #6151,3500 Martin Luther Kg Jr Dr Sw,Atlanta,GA,30331-4007,404-464-0382,-84.502896,33.757318,,America/New_York,N,,04/19/2007 00:00:00,N,2020-08-18T23:59:59,2021-08-26T23:59:59,N,0,Georgia,Family Dollar,2024-06-05
FAMILY DOLLAR #231,5403 Old National Highway,Atlanta,GA,30349-3205,943-200-3104,-84.47196112,33.60863706,,America/New_York,N,,02/03/1993 00:00:00,N,2020-08-18T23:59:59,2021-08-26T23:59:59,N,0,Georgia,Family Dollar,2024-06-05
FAMILY DOLLAR #3143,2500 Cobb Dr Se  Ste F,Smyrna,GA,30080-1838,470-531-0591,-84.539459,33.89135,,America/New_York,N,,09/11/1997 00:00:00,N,2020-08-18T23:59:59,2021-08-26T23:59:59,N,0,Georgia,Family Dollar,2024-06-05
FAMILY DOLLAR #1168,2312 Saint Stephens Rd,Mobile,AL,36617-3622,251-263-5428,-88.082765,30.719586,,America/Chicago,N,,10/23/1986 00:00:00,N,2020-08-18T23:59:59,2021-08-26T23:59:59,N,0,Alabama,Family Dollar,2024-06-05
FAMILY DOLLAR #4634,3251 Rossville Blvd,Chattanooga,TN,37407-1923,423-668-6861,-85.29385,35.00524,,America/New_York,N,,05/31/2001 00:00:00,N,2020-08-18T23:59:59,2021-08-26T23:59:59,N,0,Tennessee,Family Dollar,2024-06-05
FAMILY DOLLAR #11892,2925 Headland Dr.,Atlanta,GA,30344,470-681-0282,-84.48409391,33.69054124,,America/New_York,N,,05/25/2018 00:00:00,N,2020-08-18T23:59:59,2021-08-26T23:59:59,N,0,Georgia,Family Dollar,2024-06-05
FAMILY DOLLAR #624,117 W. Church Street,Lexington,TN,38351,731-316-4164,-88.3966,35.6529,,America/Chicago,N,,04/21/1983 00:00:00,N,2020-08-18T23:59:59,2021-08-26T23:59:59,N,0,Tennessee,Family Dollar,2024-06-05
FAMILY DOLLAR #11060,903 Glynn Street N,Fayetteville,GA,30214,678-489-9224,-84.44827662,33.4647746,,America/New_York,N,,11/13/2014 00:00:00,N,2020-08-18T23:59:59,2021-08-26T23:59:59,N,0,Georgia,Family Dollar,2024-06-05
FAMILY DOLLAR #12249,2461a Riverdale Road,College Park,GA,30337-5003,470-763-2764,-84.47015919,33.63605509,,America/New_York,N,,09/15/2018 00:00:00,N,2020-08-18T23:59:59,2021-08-26T23:59:59,N,0,Georgia,Family Dollar,2024-06-05
FAMILY DOLLAR #12997,22 Robert Quarters Road,Concord,GA,30206,470-735-3779,-84.437,33.0912,,America/New_York,N,,09/29/2022 00:00:00,N,,,Y,0,Georgia,Family Dollar,2024-06-05
FAMILY DOLLAR #3075,3791 S Cobb Dr Se Ste H,Smyrna,GA,30080-5514,678-981-2199,-84.517291,33.861594,,America/New_York,N,,06/26/1997 00:00:00,N,2020-08-18T23:59:59,2021-08-26T23:59:59,N,0,Georgia,Family Dollar,2024-06-05
FAMILY DOLLAR #8882,4726 Moffett Rd,Mobile,AL,36618,251-283-6983,-88.150198,30.721261,,America/Chicago,N,,09/01/2011 00:00:00,N,2020-08-18T23:59:59,2021-08-26T23:59:59,N,0,Alabama,Family Dollar,2024-06-05
FAMILY DOLLAR #634,3050 Martin Luther King Dr,Atlanta,GA,30311,470-447-6195,-84.486808,33.749715,,America/New_York,N,,06/09/1983 00:00:00,N,2020-08-18T23:59:59,2021-08-26T23:59:59,N,0,Georgia,Family Dollar,2024-06-05
FAMILY DOLLAR #3965,13170 Highway 28,Whitwell,TN,37397,423-242-4573,-85.52047474,35.19097037,,America/Chicago,N,,01/27/2000 00:00:00,N,2020-08-18T23:59:59,2021-08-26T23:59:59,N,0,Tennessee,Family Dollar,2024-06-05
FAMILY DOLLAR #8918,653 Stanton Rd,Mobile,AL,36617,251-283-6984,-88.097925,30.711274,,America/Chicago,N,,08/09/2012 00:00:00,N,2020-08-18T23:59:59,2021-08-26T23:59:59,N,0,Alabama,Family Dollar,2024-06-05
FAMILY DOLLAR #6938,3707 S Siwell Rd,Jackson,MS,39212-4396,601-813-0450,-90.301257,32.246385,,America/Chicago,N,,12/14/2006 00:00:00,N,2020-08-18T23:59:59,2021-08-26T23:59:59,N,0,Mississippi,Family Dollar,2024-06-05
FAMILY DOLLAR #10654,3128 Washington Road,East Point,GA,30344-5415,470-845-1504,-84.462393,33.670045,,America/New_York,N,,06/06/2014 00:00:00,N,2020-08-18T23:59:59,2021-08-26T23:59:59,N,0,Georgia,Family Dollar,2024-06-05
FAMILY DOLLAR #363,619 S Marietta Pkwy,Marietta,GA,30060-2748,470-924-2316,-84.533261,33.944732,,America/New_York,N,,07/26/1979 00:00:00,N,2020-08-18T23:59:59,2021-08-26T23:59:59,N,0,Georgia,Family Dollar,2024-06-05
FAMILY DOLLAR #4391,"2038 S. Willow Street, Ste. 10",Chattanooga,TN,37404-5809,423-668-6417,-85.279979,35.018959,,America/New_York,N,,09/14/2000 00:00:00,N,2020-08-18T23:59:59,2021-08-26T23:59:59,N,0,Tennessee,Family Dollar,2024-06-05
FAMILY DOLLAR #10152,408 N Broad Street,Mobile,AL,36603-5927,251-283-6986,-88.054879,30.695296,,America/Chicago,N,,06/12/2014 00:00:00,N,2020-08-18T23:59:59,2021-08-26T23:59:59,N,0,Alabama,Family Dollar,2024-06-05
FAMILY DOLLAR #11277,3609 Ringgold Road,East Ridge,TN,37412-1247,423-680-5993,-85.25887,35.002754,,America/New_York,N,,12/11/2014 00:00:00,N,2020-08-18T23:59:59,2021-08-26T23:59:59,N,0,Tennessee,Family Dollar,2024-06-05
FAMILY DOLLAR #10384,4291 Highway 42,Bassfield,MS,39421,601-419-7375,-89.746611,31.496509,,America/Chicago,N,,05/23/2013 00:00:00,N,2020-08-18T23:59:59,2021-08-26T23:59:59,N,0,Mississippi,Family Dollar,2024-06-05
FAMILY DOLLAR #1788,2433 Delowe Drive,East Point,GA,30344-2338,404-942-1395,-84.45818,33.68909,,America/New_York,N,,07/25/1990 00:00:00,N,2020-08-18T23:59:59,2021-08-26T23:59:59,N,0,Georgia,Family Dollar,2024-06-05
FAMILY DOLLAR #13698,224 N Main St,Lobelville,TN,37097,629-216-3509,-87.782473,35.774907,,America/Chicago,N,,02/07/2024 00:00:00,N,,,Y,0,Tennessee,Family Dollar,2024-06-05
FAMILY DOLLAR #10267,567 Cobb Parkway N,Marietta,GA,30062-3322,678-567-4579,-84.53435383,33.96520993,,America/New_York,N,,10/17/2013 00:00:00,N,2022-04-17T23:59:59,2022-05-16T23:59:59,N,0,Georgia,Family Dollar,2024-06-05
FAMILY DOLLAR #410,2998 Springhill Ave,Mobile,AL,36607-1814,251-283-6981,-88.111437,30.700856,,America/Chicago,N,,04/06/1979 00:00:00,N,2020-08-18T23:59:59,2021-08-26T23:59:59,N,0,Alabama,Family Dollar,2024-06-05
FAMILY DOLLAR #9097,2324 Cascade Rd.,Atlanta,GA,30311,470-571-1594,-84.46437117,33.72178793,,America/New_York,N,,11/29/2012 00:00:00,N,2020-08-18T23:59:59,2021-08-26T23:59:59,N,0,Georgia,Family Dollar,2024-06-05
FAMILY DOLLAR #235,2178 Campbellton Rd Sw,Atlanta,GA,30311-4606,470-773-6683,-84.459492,33.705162,,America/New_York,N,,03/01/1976 00:00:00,N,2020-08-18T23:59:59,2021-08-26T23:59:59,N,0,Georgia,Family Dollar,2024-06-05
FAMILY DOLLAR #2678,5469 Riverdale Rd,College Park,GA,30349-6193,470-975-8614,-84.437716,33.607316,,America/New_York,N,,06/09/1995 00:00:00,N,2020-08-18T23:59:59,2021-08-26T23:59:59,N,0,Georgia,Family Dollar,2024-06-05
FAMILY DOLLAR #5651,5540 Bells Ferry Rd,Acworth,GA,30102-2526,770-800-9990,-84.573935,34.086501,,America/New_York,N,,02/13/2003 00:00:00,N,2020-08-18T23:59:59,2021-08-26T23:59:59,N,0,Georgia,Family Dollar,2024-06-05
FAMILY DOLLAR #8261,6380 Highway 87 N,Milton,FL,32570,850-400-4584,-87.053134,30.666744,,America/Chicago,N,,10/07/2010 00:00:00,N,2021-09-19T23:59:59,2021-09-30T23:59:59,N,0,Florida,Family Dollar,2024-06-05
FAMILY DOLLAR #4238,8500 Highway 85,Jonesboro,GA,30238-4308,470-781-7791,-84.422692,33.522697,,America/New_York,N,,06/29/2000 00:00:00,N,2020-08-18T23:59:59,2021-08-26T23:59:59,N,0,Georgia,Family Dollar,2024-06-05
FAMILY DOLLAR #1864,5319 Ringgold Rd,Chattanooga,TN,37412-3125,423-668-6849,-85.23337,34.995326,,America/New_York,N,,03/27/1991 00:00:00,N,2020-08-18T23:59:59,2021-08-26T23:59:59,N,0,Tennessee,Family Dollar,2024-06-05
FAMILY DOLLAR #7189,1616 Virginia Ave,Atlanta,GA,30337,470-681-0823,-84.442433,33.658427,,America/New_York,N,,01/26/2006 00:00:00,N,2020-08-18T23:59:59,2021-08-26T23:59:59,N,0,Georgia,Family Dollar,2024-06-05
FAMILY DOLLAR #10676,2001 James Jackson Pkwy Nw,Atlanta,GA,30318,404-410-0351,-84.47579464,33.81051337,,America/New_York,N,06/13/2024,02/12/2015 00:00:00,N,,,N,1,Georgia,Family Dollar,2024-06-05
FAMILY DOLLAR #11696,3031 Main Street,East Point,GA,30344,404-942-1087,-84.44308186,33.67248922,,America/New_York,N,,11/23/2016 00:00:00,N,2020-08-18T23:59:59,2021-08-26T23:59:59,N,0,Georgia,Family Dollar,2024-06-05
FAMILY DOLLAR #1027,106 Poplar Springs Rd,Ringgold,GA,30736,762-209-5127,-85.13236313,34.90666836,,America/New_York,N,,05/01/1986 00:00:00,N,,,N,0,Georgia,Family Dollar,2024-06-05
FAMILY DOLLAR #3354,1731 Columbia Ave,Prentiss,MS,39474-1556,601-806-9000,-89.867744,31.596367,,America/Chicago,N,,05/28/1998 00:00:00,N,2020-08-18T23:59:59,2021-08-26T23:59:59,N,0,Mississippi,Family Dollar,2024-06-05
FAMILY DOLLAR #3983,2709 Chattanooga Rd,Rocky Face,GA,30740-8520,470-531-0426,-85.031392,34.806486,,America/New_York,N,,07/20/2000 00:00:00,N,2020-08-18T23:59:59,2021-08-26T23:59:59,N,0,Georgia,Family Dollar,2024-06-05
FAMILY DOLLAR #4220,5638 Riverdale Rd,Atlanta,GA,30349-7315,470-936-9077,-84.427133,33.601222,,America/New_York,N,,06/29/2000 00:00:00,N,2020-08-18T23:59:59,2021-08-26T23:59:59,N,0,Georgia,Family Dollar,2024-06-05
FAMILY DOLLAR #8582,12100 County Line Road,Fayetteville,GA,30215,678-561-9759,-84.401723,33.426275,,America/New_York,N,,07/14/2011 00:00:00,N,2020-08-18T23:59:59,2021-08-26T23:59:59,N,0,Georgia,Family Dollar,2024-06-05
FAMILY DOLLAR #2930,674 Hwy 138,Riverdale,GA,30274-3965,470-369-9568,-84.413099,33.547432,,America/New_York,N,,08/30/1996 00:00:00,N,2020-08-18T23:59:59,2021-08-26T23:59:59,N,0,Georgia,Family Dollar,2024-06-05
FAMILY DOLLAR #1445,2101 E 3rd St,Chattanooga,TN,37404,423-668-6876,-85.268702,35.040033,,America/New_York,N,06/07/2024,06/23/1988 00:00:00,N,2020-08-18T23:59:59,2021-08-26T23:59:59,N,1,Tennessee,Family Dollar,2024-06-05
FAMILY DOLLAR #7527,2393 Spring Rd Se,Smyrna,GA,30080-2631,470-531-8113,-84.48454,33.88402,,America/New_York,N,,08/24/2006 00:00:00,N,2020-08-18T23:59:59,2021-08-26T23:59:59,N,0,Georgia,Family Dollar,2024-06-05
FAMILY DOLLAR #12123,1531 Campbellton Rd,Atlanta,GA,30311,470-604-7542,-84.43860282,33.71335661,,America/New_York,N,,07/05/2018 00:00:00,N,2020-08-18T23:59:59,2021-08-26T23:59:59,N,0,Georgia,Family Dollar,2024-06-05
FAMILY DOLLAR #12510,6690 Highway 85,Riverdale,GA,30274,470-975-9272,-84.41201,33.57207,,America/New_York,N,,02/14/2020 00:00:00,N,2020-08-18T23:59:59,2021-08-26T23:59:59,N,0,Georgia,Family Dollar,2024-06-05
FAMILY DOLLAR #6030,2045 D L Hollowell Pkwy Nw,Atlanta,GA,30318-4701,470-668-2082,-84.45228,33.7774,,America/New_York,N,,01/29/2004 00:00:00,N,2020-08-18T23:59:59,2021-08-26T23:59:59,N,0,Georgia,Family Dollar,2024-06-05
FAMILY DOLLAR #8648,6365 Hwy 85,Riverdale,GA,30274-1608,470-369-9570,-84.412161,33.581738,,America/New_York,N,,07/21/2011 00:00:00,N,2020-08-18T23:59:59,2021-08-26T23:59:59,N,0,Georgia,Family Dollar,2024-06-05
FAMILY DOLLAR #8960,5000 Brainerd Rd.,Chattanooga,TN,37411-3903,423-680-5991,-85.226753,35.011926,,America/New_York,N,,03/15/2012 00:00:00,N,2020-08-18T23:59:59,2021-08-26T23:59:59,N,0,Tennessee,Family Dollar,2024-06-05
FAMILY DOLLAR #10567,2035 Dayton Blvd,Red Bank,TN,37415-6411,423-708-5009,-85.311214,35.091171,,America/New_York,N,,09/12/2013 00:00:00,N,2020-08-18T23:59:59,2021-08-26T23:59:59,N,0,Tennessee,Family Dollar,2024-06-05
FAMILY DOLLAR #1321,736 N Highway 29,Cantonment,FL,32533-9595,850-937-5135,-87.324871,30.620151,,America/Chicago,N,,07/23/1987 00:00:00,N,2020-08-18T23:59:59,2021-08-26T23:59:59,N,0,Florida,Family Dollar,2024-06-05
FAMILY DOLLAR #5312,717 Dauphin Island Pkwy,Mobile,AL,36606-1265,251-283-6982,-88.08658,30.665688,,America/Chicago,N,,07/03/2002 00:00:00,N,2020-08-18T23:59:59,2021-08-26T23:59:59,N,0,Alabama,Family Dollar,2024-06-05
FAMILY DOLLAR #4319,580 N Oak Ave,Ruleville,MS,38771,662-878-6000,-90.546158,33.729988,,America/Chicago,N,,11/16/2000 00:00:00,N,2020-08-18T23:59:59,2021-08-26T23:59:59,N,0,Mississippi,Family Dollar,2024-06-05
FAMILY DOLLAR #10699,50 Highway 138,Riverdale,GA,30274,470-369-9569,-84.391912,33.54103,,America/New_York,N,,08/28/2014 00:00:00,N,2020-08-18T23:59:59,2021-08-26T23:59:59,N,0,Georgia,Family Dollar,2024-06-05
FAMILY DOLLAR #9156,1049 S Hickory Street,Loxley,AL,36551,251-571-4752,-87.753515,30.621649,,America/Chicago,N,,06/07/2012 00:00:00,N,2020-08-18T23:59:59,2021-08-26T23:59:59,N,0,Alabama,Family Dollar,2024-06-05
FAMILY DOLLAR #1728,1165 Ralph D Abernathy Blvd Sw,Atlanta,GA,30310-1757,470-668-5433,-84.425777,33.739094,,America/New_York,N,,06/14/1990 00:00:00,N,,,N,0,Georgia,Family Dollar,2024-06-05
FAMILY DOLLAR #13587,507 N. Hancock Street,Fort Gaines,GA,39851-3221,229-466-0062,-85.050308,31.613072,,America/New_York,N,,08/19/2023 00:00:00,N,,,Y,0,Georgia,Family Dollar,2024-06-05
FAMILY DOLLAR #5059,3310 Dogwood Dr,Hapeville,GA,30354-1440,470-498-4849,-84.408057,33.663986,,America/New_York,N,,08/29/2002 00:00:00,N,2020-08-18T23:59:59,2021-08-26T23:59:59,N,0,Georgia,Family Dollar,2024-06-05
FAMILY DOLLAR #1786,3201 Wilcox Blvd  Ste N,Chattanooga,TN,37411-1056,423-668-6867,-85.24256182,35.04857131,,America/New_York,N,,07/11/1990 00:00:00,N,2020-08-18T23:59:59,2021-08-26T23:59:59,N,0,Tennessee,Family Dollar,2024-06-05
FAMILY DOLLAR #1302,2755 Pleasant Valley Rd,Mobile,AL,36606-2162,251-263-7398,-88.10764,30.660988,,America/Chicago,N,,03/26/1987 00:00:00,N,2020-08-18T23:59:59,2021-08-26T23:59:59,N,0,Alabama,Family Dollar,2024-06-05
FAMILY DOLLAR #8788,316 S. University Blvd,Mobile,AL,36609-2909,251-308-5093,-88.171854,30.67281,,America/Chicago,N,,08/18/2011 00:00:00,N,2020-08-18T23:59:59,2021-08-26T23:59:59,N,0,Alabama,Family Dollar,2024-06-05
FAMILY DOLLAR #12977,415 Azalea Road,Mobile,AL,36609-0000,251-509-0121,-88.150986,30.668058,,America/Chicago,N,,02/17/2022 00:00:00,N,,,N,0,Alabama,Family Dollar,2024-06-05
FAMILY DOLLAR #6509,565 Joseph E. Lowery Blvd. Sw,Atlanta,GA,30310-1400,470-751-3961,-84.418234,33.739702,,America/New_York,N,,11/11/2004 00:00:00,N,2020-08-18T23:59:59,2021-08-26T23:59:59,N,0,Georgia,Family Dollar,2024-06-05
FAMILY DOLLAR #36,1210 E. Morris Street,Dalton,GA,30721,762-578-1860,-84.950731,34.767148,,America/New_York,N,,09/21/1967 00:00:00,N,2020-08-18T23:59:59,2021-08-26T23:59:59,N,0,Georgia,Family Dollar,2024-06-05
FAMILY DOLLAR #434,5397 Stewart Street,Milton,FL,32570-4732,850-979-5202,-87.04371166,30.6304927,,America/Chicago,N,,04/06/1979 00:00:00,N,2020-08-18T23:59:59,2021-08-26T23:59:59,N,0,Florida,Family Dollar,2024-06-05
FAMILY DOLLAR #12070,1932 Metropolitan Pkwy,Atlanta,GA,30315,470-604-7123,-84.40765146,33.7016258,,America/New_York,N,,04/26/2018 00:00:00,N,2020-08-18T23:59:59,2021-08-26T23:59:59,N,0,Georgia,Family Dollar,2024-06-05
FAMILY DOLLAR #12530,"804 Cleveland Street, Suite 1",Headland,AL,36345,334-625-6501,-85.336174,31.335245,,America/Chicago,N,,05/01/2020 00:00:00,N,2020-08-18T23:59:59,2021-08-26T23:59:59,Y,0,Alabama,Family Dollar,2024-06-05
FAMILY DOLLAR #12612,299 Joseph E. Lowery Blvd. Nw,Atlanta,GA,30314-3201,470-508-7869,-84.41729,33.762875,,America/New_York,N,,05/24/2021 00:00:00,N,2020-08-18T23:59:59,2021-08-26T23:59:59,N,0,Georgia,Family Dollar,2024-06-05
FAMILY DOLLAR #12404,8255 Highway 90,Milton,FL,32583,850-564-2588,-86.97949,30.633099,,America/Chicago,N,,09/30/2020 00:00:00,N,2020-08-18T23:59:59,2021-08-26T23:59:59,N,0,Florida,Family Dollar,2024-06-05
FAMILY DOLLAR #6501,824 Donald L Hollowell Pkwy Nw,Atlanta,GA,30318-8402,470-571-3731,-84.414917,33.772685,,America/New_York,N,,08/26/2004 00:00:00,N,2020-08-18T23:59:59,2021-08-26T23:59:59,N,0,Georgia,Family Dollar,2024-06-05
FAMILY DOLLAR #3187,1354 Navco Rd,Mobile,AL,36605-2421,251-272-5442,-88.102845,30.646752,,America/Chicago,N,,09/11/1997 00:00:00,N,2020-08-18T23:59:59,2021-08-26T23:59:59,N,0,Alabama,Family Dollar,2024-06-05
FAMILY DOLLAR #8894,7132 Tara Blvd.,Jonesboro,GA,30236,470-369-9513,-84.370579,33.559637,,America/New_York,N,,01/10/2013 00:00:00,N,2020-08-18T23:59:59,2021-08-26T23:59:59,N,0,Georgia,Family Dollar,2024-06-05
FAMILY DOLLAR #9226,307 Forest Pkwy,Forest Park,GA,30297,470-498-4852,-84.379593,33.620164,,America/New_York,N,,03/01/2013 00:00:00,N,2020-08-18T23:59:59,2021-08-26T23:59:59,N,0,Georgia,Family Dollar,2024-06-05
FAMILY DOLLAR #6973,8570a Tara Blvd,Jonesboro,GA,30236-3416,470-781-3443,-84.362404,33.520805,,America/New_York,N,,07/14/2005 00:00:00,N,2020-08-18T23:59:59,2021-08-26T23:59:59,N,0,Georgia,Family Dollar,2024-06-05
FAMILY DOLLAR #270,830 Spur 138,Jonesboro,GA,30236-2218,470-713-8650,-84.363686,33.538834,,America/New_York,N,,05/12/1977 00:00:00,N,2020-08-18T23:59:59,2021-08-26T23:59:59,N,0,Georgia,Family Dollar,2024-06-05
FAMILY DOLLAR #12896,2121 Hwy 63 South,Lucedale,MS,39452,601-514-3130,-88.59697,30.763391,,America/Chicago,N,,03/31/2022 00:00:00,N,,,Y,0,Mississippi,Family Dollar,2024-06-05
FAMILY DOLLAR #3311,4019 Highway 90,Pace,FL,32571-1917,850-463-9096,-87.156508,30.600799,,America/Chicago,N,,05/28/1998 00:00:00,N,2020-08-18T23:59:59,2021-08-26T23:59:59,N,0,Florida,Family Dollar,2024-06-05
FAMILY DOLLAR #394,6 Lamar Property Dr.,Purvis,MS,39475-4114,601-348-6040,-89.40527,31.14683,,America/Chicago,N,,12/09/1992 00:00:00,N,2020-08-18T23:59:59,2021-08-26T23:59:59,Y,0,Mississippi,Family Dollar,2024-06-05
FAMILY DOLLAR #3669,798 Morrow Rd,Forest Park,GA,30297-3229,470-845-1548,-84.364154,33.591246,,America/New_York,N,,04/22/1999 00:00:00,N,2020-08-18T23:59:59,2021-08-26T23:59:59,N,0,Georgia,Family Dollar,2024-06-05
FAMILY DOLLAR #8953,4202 Hacks Cross Rd,Memphis,TN,38125,901-801-6533,-89.794817,35.033476,,America/Chicago,N,,03/29/2012 00:00:00,N,2020-08-18T23:59:59,2021-08-26T23:59:59,N,0,Tennessee,Family Dollar,2024-06-05
FAMILY DOLLAR #11425,1723 Lakewood Avenue Se,Atlanta,GA,30315-5103,404-460-9154,-84.38051026,33.70686408,,America/New_York,N,,11/25/2015 00:00:00,N,2020-08-18T23:59:59,2021-08-26T23:59:59,N,0,Georgia,Family Dollar,2024-06-05
FAMILY DOLLAR #12887,825 E Main Street,Raymond,MS,39154,601-526-5044,-90.40914,32.25457,,America/Chicago,N,,12/09/2021 00:00:00,N,,,Y,0,Mississippi,Family Dollar,2024-06-05
FAMILY DOLLAR #2764,29539 Highway 108,Gruetli-Laager,TN,37339-0009,931-223-4787,-85.634743,35.369063,,America/Chicago,N,,03/08/1996 00:00:00,N,2020-08-18T23:59:59,2021-08-26T23:59:59,N,0,Tennessee,Family Dollar,2024-06-05
FAMILY DOLLAR #7963,4018 Jonesboro Rd,Forest Park,GA,30297,470-498-4851,-84.363642,33.645464,,America/New_York,N,,10/22/2009 00:00:00,N,2020-08-18T23:59:59,2021-08-26T23:59:59,N,0,Georgia,Family Dollar,2024-06-05
FAMILY DOLLAR #6415,1765 Mundy Mill Rd,Jonesboro,GA,30238,470-369-9511,-84.338487,33.485713,,America/New_York,N,,08/28/2004 00:00:00,N,2020-08-18T23:59:59,2021-08-26T23:59:59,N,0,Georgia,Family Dollar,2024-06-05
FAMILY DOLLAR #4967,6715 Merchants Way,Morrow,GA,30260-2347,678-561-9966,-84.349226,33.571814,,America/New_York,N,,01/10/2002 00:00:00,N,2020-08-18T23:59:59,2021-08-26T23:59:59,N,0,Georgia,Family Dollar,2024-06-05
FAMILY DOLLAR #9380,1000 Whitehall Street,Jackson,TN,38301,731-574-2695,-88.78709,35.632484,,America/Chicago,N,,03/21/2013 00:00:00,N,2020-08-18T23:59:59,2021-08-26T23:59:59,N,0,Tennessee,Family Dollar,2024-06-05
FAMILY DOLLAR #3724,903c Hwy 82 E,Indianola,MS,38751-2325,662-452-0145,-90.637555,33.45922,,America/Chicago,N,,04/15/1999 00:00:00,N,2020-08-18T23:59:59,2021-08-26T23:59:59,N,0,Mississippi,Family Dollar,2024-06-05
FAMILY DOLLAR #397,4735 Jonesboro Rd,Forest Park,GA,30297-4318,404-460-0343,-84.356023,33.625196,,America/New_York,N,,11/06/1980 00:00:00,N,2022-04-17T23:59:59,2022-05-16T23:59:59,N,0,Georgia,Family Dollar,2024-06-05
FAMILY DOLLAR #5947,1707 Montgomery Hwy,Dothan,AL,36303-3309,334-828-8315,-85.40774,31.238622,,America/Chicago,N,,10/09/2003 00:00:00,N,2020-08-18T23:59:59,2021-08-26T23:59:59,N,0,Alabama,Family Dollar,2024-06-05
FAMILY DOLLAR #1503,2410 Cleveland Highway,Dalton,GA,30721-8155,762-209-5121,-84.94528,34.819798,,America/New_York,N,,04/26/1990 00:00:00,N,2020-08-18T23:59:59,2021-08-26T23:59:59,N,0,Georgia,Family Dollar,2024-06-05
FAMILY DOLLAR #10193,6901 Lee Highway,Chattanooga,TN,37421,423-680-5992,-85.167094,35.043337,,America/New_York,N,,11/09/2012 00:00:00,N,2020-08-18T23:59:59,2021-08-26T23:59:59,N,0,Tennessee,Family Dollar,2024-06-05
FAMILY DOLLAR #8515,11108 Tara Blvd.,Lovejoy,GA,30250,678-519-9318,-84.325373,33.452444,,America/New_York,N,,04/21/2011 00:00:00,N,2020-08-18T23:59:59,2021-08-26T23:59:59,N,0,Georgia,Family Dollar,2024-06-05
FAMILY DOLLAR #10476,114 S Broad Street,Buena Vista,GA,31803,762-208-7253,-84.518169,32.316391,,America/New_York,N,,06/05/2014 00:00:00,N,2020-08-18T23:59:59,2021-08-26T23:59:59,N,0,Georgia,Family Dollar,2024-06-05
FAMILY DOLLAR #367,3002 Dauphin Island Pky,Mobile,AL,36605-3835,251-272-5817,-88.075685,30.610396,,America/Chicago,N,,08/30/1979 00:00:00,N,2020-08-18T23:59:59,2021-08-26T23:59:59,N,0,Alabama,Family Dollar,2024-06-05
FAMILY DOLLAR #1113,903 Hollywood Dr,Jackson,TN,38301-4764,731-300-1713,-88.837025,35.624831,,America/Chicago,N,,03/19/1987 00:00:00,N,2020-08-18T23:59:59,2021-08-26T23:59:59,N,0,Tennessee,Family Dollar,2024-06-05
FAMILY DOLLAR #6611,"455 North Ave., Northeast",Atlanta,GA,30354,470-604-7442,-84.372124,33.770693,,America/New_York,N,01/15/2025,12/09/2004 00:00:00,N,2020-08-18T23:59:59,2021-08-26T23:59:59,N,1,Georgia,Family Dollar,2024-06-05
FAMILY DOLLAR #5960,6636 E Shelby Dr,Memphis,TN,38141-8439,901-455-0209,-89.84194,35.02093,,America/Chicago,N,,08/30/2003 00:00:00,N,2020-08-18T23:59:59,2021-08-26T23:59:59,N,0,Tennessee,Family Dollar,2024-06-05
FAMILY DOLLAR #10627,1301 N Highland Avenue,Jackson,TN,38301-4018,731-313-7189,-88.821813,35.636077,,America/Chicago,N,,07/24/2014 00:00:00,N,2020-08-18T23:59:59,2021-08-26T23:59:59,N,0,Tennessee,Family Dollar,2024-06-05
FAMILY DOLLAR #4283,7307 Lee Hwy,Chattanooga,TN,37421-1404,423-680-5989,-85.149888,35.052894,,America/New_York,N,,06/14/2001 00:00:00,N,2020-08-18T23:59:59,2021-08-26T23:59:59,N,0,Tennessee,Family Dollar,2024-06-05
FAMILY DOLLAR #324,532 N Center St,Thomaston,GA,30286-3696,470-592-0767,-84.326538,32.896675,,America/New_York,N,,11/09/1978 00:00:00,N,2020-08-18T23:59:59,2021-08-26T23:59:59,N,0,Georgia,Family Dollar,2024-06-05
FAMILY DOLLAR #2891,4749 Highway 58,Chattanooga,TN,37416-2231,423-668-6818,-85.189603,35.088368,,America/New_York,N,,06/21/1996 00:00:00,N,2020-08-18T23:59:59,2021-08-26T23:59:59,N,0,Tennessee,Family Dollar,2024-06-05
FAMILY DOLLAR #10473,2335 Hwy 138 E,Jonesboro,GA,30236-2731,470-369-9571,-84.314577,33.536328,,America/New_York,N,,01/09/2014 00:00:00,N,2020-08-18T23:59:59,2021-08-26T23:59:59,N,0,Georgia,Family Dollar,2024-06-05
FAMILY DOLLAR #5987,93 Woolsey Rd,Hampton,GA,30228,470-491-6799,-84.299464,33.38069,,America/New_York,N,,05/13/2004 00:00:00,N,2020-08-18T23:59:59,2021-08-26T23:59:59,N,0,Georgia,Family Dollar,2024-06-05
FAMILY DOLLAR #6892,6415 E Raines Rd,Memphis,TN,38115-6540,901-467-6462,-89.84931764,35.03446361,,America/Chicago,N,,05/26/2005 00:00:00,N,2020-08-18T23:59:59,2021-08-26T23:59:59,N,0,Tennessee,Family Dollar,2024-06-05
FAMILY DOLLAR #4107,2350 Lake Harbin Rd,Morrow,GA,30260-1908,470-498-4848,-84.313644,33.583426,,America/New_York,N,,04/06/2000 00:00:00,N,2020-08-18T23:59:59,2021-08-26T23:59:59,N,0,Georgia,Family Dollar,2024-06-05
FAMILY DOLLAR #449,1061 S Oates St,Dothan,AL,36301-3543,256-666-3956,-85.392233,31.210297,,America/Chicago,N,,02/26/1981 00:00:00,N,2020-08-18T23:59:59,2021-08-26T23:59:59,N,0,Alabama,Family Dollar,2024-06-05
FAMILY DOLLAR #10861,104 Palm Jean Road,Dothan,AL,36301,334-828-8317,-85.37283292,31.22132114,,America/Chicago,N,,12/17/2014 00:00:00,N,2020-08-18T23:59:59,2021-08-26T23:59:59,N,0,Alabama,Family Dollar,2024-06-05
FAMILY DOLLAR #11549,4194 Hickory Hill Road,Memphis,TN,38141-6814,901-410-1417,-89.86578073,35.03413884,,America/Chicago,N,,03/24/2016 00:00:00,N,2020-08-18T23:59:59,2021-08-26T23:59:59,N,0,Tennessee,Family Dollar,2024-06-05
FAMILY DOLLAR #1469,1655 Memorial Drive Se,Atlanta,GA,30317-2001,404-282-7940,-84.333649,33.747149,,America/New_York,N,,07/27/1988 00:00:00,N,2020-08-18T23:59:59,2021-08-26T23:59:59,N,0,Georgia,Family Dollar,2024-06-05
FAMILY DOLLAR #11811,6222 Winchester Road,Memphis,TN,38115-4175,901-390-4954,-89.85541536,35.05018743,,America/Chicago,N,,09/14/2016 00:00:00,N,2020-08-18T23:59:59,2021-08-26T23:59:59,N,0,Tennessee,Family Dollar,2024-06-05
