[
    {
        "storenumber":140,
        "name":"Culver City",
        "streetaddress":"13425 Washington Blvd.",
        "city":"Marina Del Rey",
        "state":"CA",
        "zipcode":90292,
        "latitude":33.99165,
        "longitude":-118.44626,
        "opened_date":"1999-10-28",
        "opened_year":"1999",
        "state_name":"California"
    },
    {
        "storenumber":117,
        "name":"Westchester",
        "streetaddress":"9149 S. Sepulveda Blvd.",
        "city":"Los Angeles",
        "state":"CA",
        "zipcode":90045,
        "latitude":33.95369,
        "longitude":-118.39677,
        "opened_date":"1997-01-22",
        "opened_year":"1997",
        "state_name":"California"
    },
    {
        "storenumber":55,
        "name":"West Los Angeles",
        "streetaddress":"9245 W. Venice Blvd.",
        "city":"Los Angeles",
        "state":"CA",
        "zipcode":90034,
        "latitude":34.02646,
        "longitude":-118.39427,
        "opened_date":"1989-09-06",
        "opened_year":"1989",
        "state_name":"California"
    },
    {
        "storenumber":309,
        "name":"El Segundo",
        "streetaddress":"600 N. Sepulveda Blvd.",
        "city":"El Segundo",
        "state":"CA",
        "zipcode":90245,
        "latitude":33.92387,
        "longitude":-118.39582,
        "opened_date":"2015-12-30",
        "opened_year":"2015",
        "state_name":"California"
    },
    {
        "storenumber":119,
        "name":"Westwood",
        "streetaddress":"922 Gayley",
        "city":"Los Angeles",
        "state":"CA",
        "zipcode":90024,
        "latitude":34.06306,
        "longitude":-118.44803,
        "opened_date":"1997-04-01",
        "opened_year":"1997",
        "state_name":"California"
    },
    {
        "storenumber":166,
        "name":"Inglewood",
        "streetaddress":"3411 W. Century Blvd.",
        "city":"Inglewood",
        "state":"CA",
        "zipcode":90301,
        "latitude":33.94579,
        "longitude":-118.33238,
        "opened_date":"2002-08-06",
        "opened_year":"2002",
        "state_name":"California"
    },
    {
        "storenumber":92,
        "name":"Redondo Beach",
        "streetaddress":"3801 Inglewood Ave.",
        "city":"Redondo Beach",
        "state":"CA",
        "zipcode":90278,
        "latitude":33.89208,
        "longitude":-118.36179,
        "opened_date":"1993-12-03",
        "opened_year":"1993",
        "state_name":"California"
    },
    {
        "storenumber":102,
        "name":"Hollywood",
        "streetaddress":"7009 Sunset Blvd.",
        "city":"Hollywood",
        "state":"CA",
        "zipcode":90028,
        "latitude":34.09822,
        "longitude":-118.34171,
        "opened_date":"1994-12-15",
        "opened_year":"1994",
        "state_name":"California"
    },
    {
        "storenumber":270,
        "name":"Torrance",
        "streetaddress":"20150 Hawthorne Blvd",
        "city":"Torrance",
        "state":"CA",
        "zipcode":90503,
        "latitude":33.84883,
        "longitude":-118.35312,
        "opened_date":"2012-03-14",
        "opened_year":"2012",
        "state_name":"California"
    },
    {
        "storenumber":310,
        "name":"Gardena",
        "streetaddress":"1701 Artesia Blvd.",
        "city":"Gardena",
        "state":"CA",
        "zipcode":90248,
        "latitude":33.8732,
        "longitude":-118.30729,
        "opened_date":"2016-01-21",
        "opened_year":"2016",
        "state_name":"California"
    },
    {
        "storenumber":111,
        "name":"Studio City",
        "streetaddress":"3640 Cahuenga Blvd.",
        "city":"Los Angeles",
        "state":"CA",
        "zipcode":90068,
        "latitude":34.13508,
        "longitude":-118.36062,
        "opened_date":"1995-12-27",
        "opened_year":"1995",
        "state_name":"California"
    },
    {
        "storenumber":85,
        "name":"Sherman Oaks",
        "streetaddress":"4444 Van Nuys Blvd.",
        "city":"Sherman Oaks",
        "state":"CA",
        "zipcode":91403,
        "latitude":34.1521,
        "longitude":-118.44831,
        "opened_date":"1993-07-15",
        "opened_year":"1993",
        "state_name":"California"
    },
    {
        "storenumber":74,
        "name":"Huntington Park",
        "streetaddress":"6000 Pacific Blvd.",
        "city":"Huntington Park",
        "state":"CA",
        "zipcode":90255,
        "latitude":33.98704,
        "longitude":-118.2248,
        "opened_date":"1992-04-23",
        "opened_year":"1992",
        "state_name":"California"
    },
    {
        "storenumber":347,
        "name":"Compton ",
        "streetaddress":"2200 S. Central Ave.",
        "city":"Compton",
        "state":"CA",
        "zipcode":90220,
        "latitude":33.87269,
        "longitude":-118.24841,
        "opened_date":"2019-10-24",
        "opened_year":"2019",
        "state_name":"California"
    },
    {
        "storenumber":9,
        "name":"North Hollywood",
        "streetaddress":"5864 Lankershim Blvd",
        "city":"N. Hollywood",
        "state":"CA",
        "zipcode":91601,
        "latitude":34.17746,
        "longitude":-118.38194,
        "opened_date":"1971-05-10",
        "opened_year":"1971",
        "state_name":"California"
    },
    {
        "storenumber":30,
        "name":"Torrance (Carson St.)",
        "streetaddress":"730 W. Carson St.",
        "city":"Torrance",
        "state":"CA",
        "zipcode":90502,
        "latitude":33.83114,
        "longitude":-118.28839,
        "opened_date":"1983-12-23",
        "opened_year":"1983",
        "state_name":"California"
    },
    {
        "storenumber":75,
        "name":"Torrance (Crenshaw & Lomita)",
        "streetaddress":"24445 Crenshaw Blvd.",
        "city":"Torrance",
        "state":"CA",
        "zipcode":90505,
        "latitude":33.80279,
        "longitude":-118.32835,
        "opened_date":"1992-07-30",
        "opened_year":"1992",
        "state_name":"California"
    },
    {
        "storenumber":287,
        "name":"South Gate",
        "streetaddress":"4601 Firestone Blvd.",
        "city":"South Gate",
        "state":"CA",
        "zipcode":90280,
        "latitude":33.95274,
        "longitude":-118.18831,
        "opened_date":"2013-10-31",
        "opened_year":"2013",
        "state_name":"California"
    },
    {
        "storenumber":18,
        "name":"Woodland Hills",
        "streetaddress":"19920 Ventura Blvd.",
        "city":"Woodland Hills",
        "state":"CA",
        "zipcode":91364,
        "latitude":34.17195,
        "longitude":-118.56664,
        "opened_date":"1976-02-08",
        "opened_year":"1976",
        "state_name":"California"
    },
    {
        "storenumber":174,
        "name":"Glendale (Brand & Broadway)",
        "streetaddress":"119 S. Brand Blvd.",
        "city":"Glendale",
        "state":"CA",
        "zipcode":91204,
        "latitude":34.1456,
        "longitude":-118.25545,
        "opened_date":"2003-06-12",
        "opened_year":"2003",
        "state_name":"California"
    },
    {
        "storenumber":110,
        "name":"Burbank",
        "streetaddress":"761 First Street",
        "city":"Burbank",
        "state":"CA",
        "zipcode":91502,
        "latitude":34.18497,
        "longitude":-118.31607,
        "opened_date":"1995-12-14",
        "opened_year":"1995",
        "state_name":"California"
    },
    {
        "storenumber":196,
        "name":"Van Nuys (Balboa)",
        "streetaddress":"7220 N. Balboa",
        "city":"Van Nuys",
        "state":"CA",
        "zipcode":91406,
        "latitude":34.20186,
        "longitude":-118.5007,
        "opened_date":"2005-10-05",
        "opened_year":"2005",
        "state_name":"California"
    },
    {
        "storenumber":134,
        "name":"Van Nuys",
        "streetaddress":"7930 Van Nuys Blvd.",
        "city":"Van Nuys",
        "state":"CA",
        "zipcode":91402,
        "latitude":34.21504,
        "longitude":-118.44821,
        "opened_date":"1998-12-10",
        "opened_year":"1998",
        "state_name":"California"
    },
    {
        "storenumber":157,
        "name":"Glendale (Harvey & Holly)",
        "streetaddress":"310 N. Harvey Dr.",
        "city":"Glendale",
        "state":"CA",
        "zipcode":91206,
        "latitude":34.14868,
        "longitude":-118.22735,
        "opened_date":"2001-11-15",
        "opened_year":"2001",
        "state_name":"California"
    },
    {
        "storenumber":10,
        "name":"Panorama City",
        "streetaddress":"13651 Roscoe Blvd.",
        "city":"Panorama City",
        "state":"CA",
        "zipcode":91402,
        "latitude":34.22201,
        "longitude":-118.43073,
        "opened_date":"1972-03-10",
        "opened_year":"1972",
        "state_name":"California"
    },
    {
        "storenumber":206,
        "name":"Canoga Park",
        "streetaddress":"6841 Topanga Canyon Blvd.",
        "city":"Canoga Park",
        "state":"CA",
        "zipcode":91303,
        "latitude":34.19492,
        "longitude":-118.60635,
        "opened_date":"2007-04-10",
        "opened_year":"2007",
        "state_name":"California"
    },
    {
        "storenumber":151,
        "name":"San Pedro",
        "streetaddress":"1090 N. Western Ave.",
        "city":"San Pedro",
        "state":"CA",
        "zipcode":90732,
        "latitude":33.75336,
        "longitude":-118.30862,
        "opened_date":"2001-06-14",
        "opened_year":"2001",
        "state_name":"California"
    },
    {
        "storenumber":112,
        "name":"Downey",
        "streetaddress":"8767 Firestone Blvd.",
        "city":"Downey",
        "state":"CA",
        "zipcode":90241,
        "latitude":33.93609,
        "longitude":-118.12421,
        "opened_date":"1996-03-05",
        "opened_year":"1996",
        "state_name":"California"
    },
    {
        "storenumber":208,
        "name":"Northridge (Tampa Ave.)",
        "streetaddress":"8830 Tampa Ave.",
        "city":"Northridge",
        "state":"CA",
        "zipcode":91324,
        "latitude":34.23079,
        "longitude":-118.55324,
        "opened_date":"2007-08-09",
        "opened_year":"2007",
        "state_name":"California"
    },
    {
        "storenumber":35,
        "name":"Northridge (Balboa & Lassen)",
        "streetaddress":"9858 Balboa Blvd.",
        "city":"Northridge",
        "state":"CA",
        "zipcode":91325,
        "latitude":34.25,
        "longitude":-118.50196,
        "opened_date":"1984-12-26",
        "opened_year":"1984",
        "state_name":"California"
    },
    {
        "storenumber":265,
        "name":"Signal Hill",
        "streetaddress":"799 E. Spring St.",
        "city":"Signal Hill",
        "state":"CA",
        "zipcode":90755,
        "latitude":33.81199,
        "longitude":-118.18333,
        "opened_date":"2011-10-27",
        "opened_year":"2011",
        "state_name":"California"
    },
    {
        "storenumber":121,
        "name":"Alhambra",
        "streetaddress":"1210 N. Atlantic Blvd.",
        "city":"Alhambra",
        "state":"CA",
        "zipcode":91801,
        "latitude":34.10603,
        "longitude":-118.13437,
        "opened_date":"1997-05-14",
        "opened_year":"1997",
        "state_name":"California"
    },
    {
        "storenumber":344,
        "name":"Bellflower",
        "streetaddress":"17325 Bellflower Blvd. ",
        "city":"Bellflower ",
        "state":"CA",
        "zipcode":90706,
        "latitude":33.8751,
        "longitude":-118.12539,
        "opened_date":"2019-08-23",
        "opened_year":"2019",
        "state_name":"California"
    },
    {
        "storenumber":337,
        "name":"Monterey Park ",
        "streetaddress":"5500 Market Place Dr. ",
        "city":"Monterey Park ",
        "state":"CA",
        "zipcode":91755,
        "latitude":34.03638,
        "longitude":-118.09739,
        "opened_date":"2018-12-06",
        "opened_year":"2018",
        "state_name":"California"
    },
    {
        "storenumber":40,
        "name":"Lakewood",
        "streetaddress":"5820 Bellflower Blvd.",
        "city":"Lakewood",
        "state":"CA",
        "zipcode":90713,
        "latitude":33.86098,
        "longitude":-118.12471,
        "opened_date":"1985-12-28",
        "opened_year":"1985",
        "state_name":"California"
    },
    {
        "storenumber":333,
        "name":"Long Beach",
        "streetaddress":"4041 Lakewood Blvd.",
        "city":"Long Beach",
        "state":"CA",
        "zipcode":90712,
        "latitude":33.83164,
        "longitude":-118.143,
        "opened_date":"2018-06-28",
        "opened_year":"2018",
        "state_name":"California"
    },
    {
        "storenumber":16,
        "name":"Tujunga",
        "streetaddress":"6225 Foothill Blvd.",
        "city":"Tujunga",
        "state":"CA",
        "zipcode":91042,
        "latitude":34.24106,
        "longitude":-118.26655,
        "opened_date":"1975-04-09",
        "opened_year":"1975",
        "state_name":"California"
    },
    {
        "storenumber":49,
        "name":"Pico Rivera",
        "streetaddress":"9070 Whittier Blvd.",
        "city":"Pico Rivera",
        "state":"CA",
        "zipcode":90660,
        "latitude":34.00053,
        "longitude":-118.08306,
        "opened_date":"1988-05-13",
        "opened_year":"1988",
        "state_name":"California"
    },
    {
        "storenumber":305,
        "name":"Cerritos",
        "streetaddress":"10900 Alondra Blvd.",
        "city":"Cerritos",
        "state":"CA",
        "zipcode":90703,
        "latitude":33.88714,
        "longitude":-118.1021,
        "opened_date":"2015-10-23",
        "opened_year":"2015",
        "state_name":"California"
    },
    {
        "storenumber":12,
        "name":"San Fernando",
        "streetaddress":"11455 Laurel Canyon Blvd.",
        "city":"San Fernando",
        "state":"CA",
        "zipcode":91340,
        "latitude":34.27802,
        "longitude":-118.45306,
        "opened_date":"1973-06-02",
        "opened_year":"1973",
        "state_name":"California"
    },
    {
        "storenumber":14,
        "name":"Norwalk",
        "streetaddress":"14330 Pioneer Blvd.",
        "city":"Norwalk",
        "state":"CA",
        "zipcode":90650,
        "latitude":33.90119,
        "longitude":-118.08224,
        "opened_date":"1974-02-18",
        "opened_year":"1974",
        "state_name":"California"
    },
    {
        "storenumber":178,
        "name":"Porter Ranch",
        "streetaddress":"19901 Rinaldi St.",
        "city":"Porter Ranch",
        "state":"CA",
        "zipcode":91326,
        "latitude":34.2758,
        "longitude":-118.56807,
        "opened_date":"2003-10-30",
        "opened_year":"2003",
        "state_name":"California"
    },
    {
        "storenumber":60,
        "name":"Long Beach (Los Coyotes Diagonal)",
        "streetaddress":"4600 Los Coyotes Dgl.",
        "city":"Long Beach",
        "state":"CA",
        "zipcode":90815,
        "latitude":33.79119,
        "longitude":-118.14011,
        "opened_date":"1990-06-06",
        "opened_year":"1990",
        "state_name":"California"
    },
    {
        "storenumber":20,
        "name":"Rosemead",
        "streetaddress":"4242 N. Rosemead Blvd.",
        "city":"Rosemead",
        "state":"CA",
        "zipcode":91770,
        "latitude":34.08397,
        "longitude":-118.07301,
        "opened_date":"1978-12-21",
        "opened_year":"1978",
        "state_name":"California"
    },
    {
        "storenumber":5,
        "name":"Pasadena",
        "streetaddress":"2114 E. Foothill Blvd.",
        "city":"Pasadena",
        "state":"CA",
        "zipcode":91107,
        "latitude":34.14948,
        "longitude":-118.1068,
        "opened_date":"1952-09-18",
        "opened_year":"1952",
        "state_name":"California"
    },
    {
        "storenumber":372,
        "name":"Whittier ",
        "streetaddress":"11802 Whittier Blvd.",
        "city":"Whittier ",
        "state":"CA",
        "zipcode":90601,
        "latitude":33.98,
        "longitude":-118.0505,
        "opened_date":"2021-12-03",
        "opened_year":"2021",
        "state_name":"California"
    },
    {
        "storenumber":47,
        "name":"Santa Fe Springs",
        "streetaddress":"10525 Carmenita",
        "city":"Santa Fe Springs",
        "state":"CA",
        "zipcode":90670,
        "latitude":33.93957,
        "longitude":-118.04684,
        "opened_date":"1987-10-21",
        "opened_year":"1987",
        "state_name":"California"
    },
    {
        "storenumber":135,
        "name":"Long Beach (Carson St.)",
        "streetaddress":"7691 Carson St.",
        "city":"Long Beach",
        "state":"CA",
        "zipcode":90808,
        "latitude":33.83109,
        "longitude":-118.08485,
        "opened_date":"1999-04-21",
        "opened_year":"1999",
        "state_name":"California"
    },
    {
        "storenumber":297,
        "name":"Westlake Village",
        "streetaddress":"30780 Russell Ranch Rd.",
        "city":"Westlake Village",
        "state":"CA",
        "zipcode":91361,
        "latitude":34.14764,
        "longitude":-118.79711,
        "opened_date":"2014-11-05",
        "opened_year":"2014",
        "state_name":"California"
    },
    {
        "storenumber":13,
        "name":"Temple City",
        "streetaddress":"10601 Lower Azusa Rd.",
        "city":"Temple City",
        "state":"CA",
        "zipcode":91780,
        "latitude":34.09244,
        "longitude":-118.03846,
        "opened_date":"1973-08-27",
        "opened_year":"1973",
        "state_name":"California"
    },
    {
        "storenumber":114,
        "name":"Long Beach",
        "streetaddress":"6391 E. Pacific Coast Hwy.",
        "city":"Long Beach",
        "state":"CA",
        "zipcode":90803,
        "latitude":33.75847,
        "longitude":-118.11117,
        "opened_date":"1996-04-25",
        "opened_year":"1996",
        "state_name":"California"
    },
    {
        "storenumber":105,
        "name":"La Mirada",
        "streetaddress":"14341 Firestone Blvd.",
        "city":"La Mirada",
        "state":"CA",
        "zipcode":90638,
        "latitude":33.88254,
        "longitude":-118.02468,
        "opened_date":"1995-05-31",
        "opened_year":"1995",
        "state_name":"California"
    },
    {
        "storenumber":271,
        "name":"Seal Beach",
        "streetaddress":"12365 Seal Beach Blvd.",
        "city":"Seal Beach",
        "state":"CA",
        "zipcode":90740,
        "latitude":33.78222,
        "longitude":-118.07251,
        "opened_date":"2012-03-15",
        "opened_year":"2012",
        "state_name":"California"
    },
    {
        "storenumber":42,
        "name":"Buena Park",
        "streetaddress":"7926 Valley View St.",
        "city":"Buena Park",
        "state":"CA",
        "zipcode":90620,
        "latitude":33.84731,
        "longitude":-118.0281,
        "opened_date":"1986-09-25",
        "opened_year":"1986",
        "state_name":"California"
    },
    {
        "storenumber":78,
        "name":"Simi Valley",
        "streetaddress":"2600 Stearns St.",
        "city":"Simi Valley",
        "state":"CA",
        "zipcode":93063,
        "latitude":34.28305,
        "longitude":-118.69094,
        "opened_date":"1992-10-22",
        "opened_year":"1992",
        "state_name":"California"
    },
    {
        "storenumber":27,
        "name":"Arcadia",
        "streetaddress":"420 N. Santa Anita",
        "city":"Arcadia",
        "state":"CA",
        "zipcode":91006,
        "latitude":34.14532,
        "longitude":-118.03124,
        "opened_date":"1982-06-08",
        "opened_year":"1982",
        "state_name":"California"
    },
    {
        "storenumber":11,
        "name":"Hacienda Heights",
        "streetaddress":"14620 E. Gale",
        "city":"Hacienda Heights",
        "state":"CA",
        "zipcode":91745,
        "latitude":34.0194,
        "longitude":-117.9873,
        "opened_date":"1972-07-24",
        "opened_year":"1972",
        "state_name":"California"
    },
    {
        "storenumber":1,
        "name":"Baldwin Park",
        "streetaddress":"13850 Francisquito Ave.",
        "city":"Baldwin Park",
        "state":"CA",
        "zipcode":91706,
        "latitude":34.06767,
        "longitude":-117.97349,
        "opened_date":"1948-10-22",
        "opened_year":"1948",
        "state_name":"California"
    },
    {
        "storenumber":330,
        "name":"La Habra",
        "streetaddress":"1761 W. Whittier Blvd.",
        "city":"La Habra",
        "state":"CA",
        "zipcode":90631,
        "latitude":33.93986,
        "longitude":-117.96633,
        "opened_date":"2018-05-03",
        "opened_year":"2018",
        "state_name":"California"
    },
    {
        "storenumber":7,
        "name":"La Puente",
        "streetaddress":"15259 Amar Rd.",
        "city":"La Puente",
        "state":"CA",
        "zipcode":91744,
        "latitude":34.03759,
        "longitude":-117.95173,
        "opened_date":"1968-05-01",
        "opened_year":"1968",
        "state_name":"California"
    },
    {
        "storenumber":53,
        "name":"Newhall",
        "streetaddress":"25220 N. The Old Road",
        "city":"Newhall",
        "state":"CA",
        "zipcode":91381,
        "latitude":34.37714,
        "longitude":-118.56538,
        "opened_date":"1988-12-28",
        "opened_year":"1988",
        "state_name":"California"
    },
    {
        "storenumber":37,
        "name":"Westminster",
        "streetaddress":"6292 Westminster Blvd.",
        "city":"Westminster",
        "state":"CA",
        "zipcode":92683,
        "latitude":33.75871,
        "longitude":-118.01959,
        "opened_date":"1985-06-29",
        "opened_year":"1985",
        "state_name":"California"
    },
    {
        "storenumber":4,
        "name":"West Covina (San Bernardino Rd.)",
        "streetaddress":"15610 San Bernardino Rd.",
        "city":"West Covina",
        "state":"CA",
        "zipcode":91722,
        "latitude":34.08978,
        "longitude":-117.94092,
        "opened_date":"1951-03-01",
        "opened_year":"1951",
        "state_name":"California"
    },
    {
        "storenumber":345,
        "name":"Stanton",
        "streetaddress":"12975 Beach Blvd.",
        "city":"Stanton ",
        "state":"CA",
        "zipcode":90680,
        "latitude":33.77485,
        "longitude":-117.99318,
        "opened_date":"2019-09-26",
        "opened_year":"2019",
        "state_name":"California"
    },
    {
        "storenumber":24,
        "name":"Anaheim",
        "streetaddress":"600 S. Brookhurst St.",
        "city":"Anaheim",
        "state":"CA",
        "zipcode":92804,
        "latitude":33.82483,
        "longitude":-117.9585,
        "opened_date":"1980-12-03",
        "opened_year":"1980",
        "state_name":"California"
    },
    {
        "storenumber":36,
        "name":"La Habra",
        "streetaddress":"2030 E. Lambert Rd.",
        "city":"La Habra",
        "state":"CA",
        "zipcode":90631,
        "latitude":33.9244,
        "longitude":-117.92377,
        "opened_date":"1985-05-14",
        "opened_year":"1985",
        "state_name":"California"
    },
    {
        "storenumber":66,
        "name":"City Of Industry",
        "streetaddress":"17849 E. Colima Road",
        "city":"City Of Industry",
        "state":"CA",
        "zipcode":91748,
        "latitude":33.99033,
        "longitude":-117.91538,
        "opened_date":"1991-06-18",
        "opened_year":"1991",
        "state_name":"California"
    },
    {
        "storenumber":107,
        "name":"Santa Clarita (Sand Canyon)",
        "streetaddress":"28368 Sand Canyon Rd.",
        "city":"Santa Clarita",
        "state":"CA",
        "zipcode":91351,
        "latitude":34.42368,
        "longitude":-118.42316,
        "opened_date":"1995-10-19",
        "opened_year":"1995",
        "state_name":"California"
    },
    {
        "storenumber":77,
        "name":"Fullerton",
        "streetaddress":"1180 S. Harbor Blvd.",
        "city":"Fullerton",
        "state":"CA",
        "zipcode":92832,
        "latitude":33.86023,
        "longitude":-117.92398,
        "opened_date":"1992-09-16",
        "opened_year":"1992",
        "state_name":"California"
    },
    {
        "storenumber":19,
        "name":"Garden Grove",
        "streetaddress":"9032 Trask Ave.",
        "city":"Garden Grove",
        "state":"CA",
        "zipcode":92844,
        "latitude":33.76643,
        "longitude":-117.97211,
        "opened_date":"1978-06-25",
        "opened_year":"1978",
        "state_name":"California"
    },
    {
        "storenumber":58,
        "name":"Newbury Park",
        "streetaddress":"1550 Newbury Rd.",
        "city":"Newbury Park",
        "state":"CA",
        "zipcode":91320,
        "latitude":34.18371,
        "longitude":-118.91459,
        "opened_date":"1990-02-28",
        "opened_year":"1990",
        "state_name":"California"
    },
    {
        "storenumber":171,
        "name":"Santa Clarita (Bouquet Canyon)",
        "streetaddress":"26401 Bouquet Canyon Rd.",
        "city":"Santa Clarita",
        "state":"CA",
        "zipcode":91350,
        "latitude":34.42546,
        "longitude":-118.53924,
        "opened_date":"2003-02-20",
        "opened_year":"2003",
        "state_name":"California"
    },
    {
        "storenumber":387,
        "name":"Huntington Beach II",
        "streetaddress":"7902 Edinger Ave",
        "city":"Huntington Beach",
        "state":"CA",
        "zipcode":92647,
        "latitude":33.72998,
        "longitude":-117.99061,
        "opened_date":"2023-01-26",
        "opened_year":"2023",
        "state_name":"California"
    },
    {
        "storenumber":381,
        "name":"Valencia",
        "streetaddress":"27510 The Old Road",
        "city":"Valencia",
        "state":"CA",
        "zipcode":91355,
        "latitude":34.42059,
        "longitude":-118.58277,
        "opened_date":"2022-10-14",
        "opened_year":"2022",
        "state_name":"California"
    },
    {
        "storenumber":6,
        "name":"Azusa",
        "streetaddress":"324 S. Azusa Ave.",
        "city":"Azusa",
        "state":"CA",
        "zipcode":91702,
        "latitude":34.11765,
        "longitude":-117.90734,
        "opened_date":"1966-08-01",
        "opened_year":"1966",
        "state_name":"California"
    },
    {
        "storenumber":370,
        "name":"Brea",
        "streetaddress":"1130 E. Imperial Hwy.",
        "city":"Brea",
        "state":"CA",
        "zipcode":92821,
        "latitude":33.91187,
        "longitude":-117.88934,
        "opened_date":"2021-10-14",
        "opened_year":"2021",
        "state_name":"California"
    },
    {
        "storenumber":179,
        "name":"Moorpark",
        "streetaddress":"856 New Los Angeles Ave.",
        "city":"Moorpark",
        "state":"CA",
        "zipcode":93021,
        "latitude":34.28022,
        "longitude":-118.86544,
        "opened_date":"2003-11-20",
        "opened_year":"2003",
        "state_name":"California"
    },
    {
        "storenumber":64,
        "name":"West Covina (Garvey Ave.)",
        "streetaddress":"2940 E. Garvey Ave.",
        "city":"West Covina",
        "state":"CA",
        "zipcode":91791,
        "latitude":34.0714,
        "longitude":-117.88194,
        "opened_date":"1990-12-22",
        "opened_year":"1990",
        "state_name":"California"
    },
    {
        "storenumber":180,
        "name":"Huntington Beach",
        "streetaddress":"18062 Beach Blvd.",
        "city":"Huntington Beach",
        "state":"CA",
        "zipcode":92648,
        "latitude":33.70038,
        "longitude":-117.98861,
        "opened_date":"2004-01-27",
        "opened_year":"2004",
        "state_name":"California"
    },
    {
        "storenumber":32,
        "name":"Placentia",
        "streetaddress":"825 W. Chapman",
        "city":"Placentia",
        "state":"CA",
        "zipcode":92870,
        "latitude":33.87434,
        "longitude":-117.87841,
        "opened_date":"1984-05-25",
        "opened_year":"1984",
        "state_name":"California"
    },
    {
        "storenumber":343,
        "name":"Azusa",
        "streetaddress":"988 E. Alosta Ave.",
        "city":"Azusa",
        "state":"CA",
        "zipcode":91702,
        "latitude":34.12834,
        "longitude":-117.8862,
        "opened_date":"2019-05-27",
        "opened_year":"2019",
        "state_name":"California"
    },
    {
        "storenumber":2,
        "name":"Covina",
        "streetaddress":"1371 Grand Ave.",
        "city":"Covina",
        "state":"CA",
        "zipcode":91724,
        "latitude":34.10491,
        "longitude":-117.87307,
        "opened_date":"1959-10-05",
        "opened_year":"1959",
        "state_name":"California"
    },
    {
        "storenumber":300,
        "name":"Anaheim",
        "streetaddress":"1168 State College Blvd.",
        "city":"Anaheim",
        "state":"CA",
        "zipcode":92806,
        "latitude":33.81889,
        "longitude":-117.88902,
        "opened_date":"2015-01-07",
        "opened_year":"2015",
        "state_name":"California"
    },
    {
        "storenumber":15,
        "name":"Diamond Bar",
        "streetaddress":"21133 Golden Springs",
        "city":"Diamond Bar",
        "state":"CA",
        "zipcode":91765,
        "latitude":34.0005,
        "longitude":-117.84346,
        "opened_date":"1974-06-30",
        "opened_year":"1974",
        "state_name":"California"
    },
    {
        "storenumber":199,
        "name":"City Of Industry (Grand & Valley)",
        "streetaddress":"21620 E. Valley Blvd",
        "city":"City Of Industry",
        "state":"CA",
        "zipcode":91789,
        "latitude":34.02749,
        "longitude":-117.83467,
        "opened_date":"2005-12-20",
        "opened_year":"2005",
        "state_name":"California"
    },
    {
        "storenumber":17,
        "name":"Santa Ana (Bristol & Civic Center)",
        "streetaddress":"815 N. Bristol",
        "city":"Santa Ana",
        "state":"CA",
        "zipcode":92703,
        "latitude":33.7523,
        "longitude":-117.88474,
        "opened_date":"1975-09-28",
        "opened_year":"1975",
        "state_name":"California"
    },
    {
        "storenumber":172,
        "name":"Glendora",
        "streetaddress":"1261 S. Lone Hill",
        "city":"Glendora",
        "state":"CA",
        "zipcode":91740,
        "latitude":34.11673,
        "longitude":-117.82941,
        "opened_date":"2003-03-27",
        "opened_year":"2003",
        "state_name":"California"
    },
    {
        "storenumber":182,
        "name":"Orange (Tustin & Lincoln)",
        "streetaddress":"2585 N. Tustin St.",
        "city":"Orange",
        "state":"CA",
        "zipcode":92865,
        "latitude":33.83196,
        "longitude":-117.83569,
        "opened_date":"2004-04-21",
        "opened_year":"2004",
        "state_name":"California"
    },
    {
        "storenumber":251,
        "name":"Costa Mesa",
        "streetaddress":"3211 Harbor Blvd.",
        "city":"Costa Mesa",
        "state":"CA",
        "zipcode":92626,
        "latitude":33.68773,
        "longitude":-117.9199,
        "opened_date":"2010-12-17",
        "opened_year":"2010",
        "state_name":"California"
    },
    {
        "storenumber":373,
        "name":"Yorba Linda",
        "streetaddress":"18181 Imperial Hwy.",
        "city":"Yorba Linda",
        "state":"CA",
        "zipcode":92886,
        "latitude":33.89101,
        "longitude":-117.81513,
        "opened_date":"2021-12-14",
        "opened_year":"2021",
        "state_name":"California"
    },
    {
        "storenumber":133,
        "name":"Santa Ana (Macarthur)",
        "streetaddress":"3361 S. Bristol",
        "city":"Santa Ana",
        "state":"CA",
        "zipcode":92704,
        "latitude":33.70036,
        "longitude":-117.8851,
        "opened_date":"1998-11-11",
        "opened_year":"1998",
        "state_name":"California"
    },
    {
        "storenumber":38,
        "name":"Costa Mesa",
        "streetaddress":"594 W. 19th Street",
        "city":"Costa Mesa",
        "state":"CA",
        "zipcode":92627,
        "latitude":33.64369,
        "longitude":-117.92289,
        "opened_date":"1985-09-23",
        "opened_year":"1985",
        "state_name":"California"
    },
    {
        "storenumber":379,
        "name":"Santa Ana",
        "streetaddress":"1809 N. Tustin Ave. ",
        "city":"Santa Ana ",
        "state":"CA",
        "zipcode":92705,
        "latitude":33.76139,
        "longitude":-117.83414,
        "opened_date":"2022-07-14",
        "opened_year":"2022",
        "state_name":"California"
    },
    {
        "storenumber":138,
        "name":"Anaheim Hills",
        "streetaddress":"5646 E. La Palma",
        "city":"Anaheim Hills",
        "state":"CA",
        "zipcode":92807,
        "latitude":33.85933,
        "longitude":-117.79148,
        "opened_date":"1999-08-12",
        "opened_year":"1999",
        "state_name":"California"
    },
    {
        "storenumber":59,
        "name":"Orange (Chapman & Prospect)",
        "streetaddress":"3501 E. Chapman Ave.",
        "city":"Orange",
        "state":"CA",
        "zipcode":92869,
        "latitude":33.78813,
        "longitude":-117.81646,
        "opened_date":"1990-03-09",
        "opened_year":"1990",
        "state_name":"California"
    },
    {
        "storenumber":41,
        "name":"Camarillo",
        "streetaddress":"1316 Ventura Blvd.",
        "city":"Camarillo",
        "state":"CA",
        "zipcode":93010,
        "latitude":34.21722,
        "longitude":-119.05295,
        "opened_date":"1986-08-27",
        "opened_year":"1986",
        "state_name":"California"
    },
    {
        "storenumber":3,
        "name":"La Verne",
        "streetaddress":"2098 Foothill Blvd.",
        "city":"La Verne",
        "state":"CA",
        "zipcode":91750,
        "latitude":34.11313,
        "longitude":-117.76564,
        "opened_date":"1962-07-03",
        "opened_year":"1962",
        "state_name":"California"
    },
    {
        "storenumber":33,
        "name":"Pomona (Garey Ave.)",
        "streetaddress":"2505 Garey Ave.",
        "city":"Pomona",
        "state":"CA",
        "zipcode":91766,
        "latitude":34.02579,
        "longitude":-117.74946,
        "opened_date":"1984-08-16",
        "opened_year":"1984",
        "state_name":"California"
    },
    {
        "storenumber":216,
        "name":"Tustin (District)",
        "streetaddress":"2895 Park Ave.",
        "city":"Tustin",
        "state":"CA",
        "zipcode":92782,
        "latitude":33.69499,
        "longitude":-117.82708,
        "opened_date":"2008-04-29",
        "opened_year":"2008",
        "state_name":"California"
    },
    {
        "storenumber":167,
        "name":"Chino",
        "streetaddress":"3927 Grand Ave.",
        "city":"Chino",
        "state":"CA",
        "zipcode":91710,
        "latitude":33.9974,
        "longitude":-117.71853,
        "opened_date":"2002-09-05",
        "opened_year":"2002",
        "state_name":"California"
    },
    {
        "storenumber":63,
        "name":"Tustin",
        "streetaddress":"3020 El Camino Real",
        "city":"Tustin",
        "state":"CA",
        "zipcode":92782,
        "latitude":33.72286,
        "longitude":-117.79367,
        "opened_date":"1990-10-10",
        "opened_year":"1990",
        "state_name":"California"
    },
    {
        "storenumber":67,
        "name":"Irvine",
        "streetaddress":"4115 Campus Drive",
        "city":"Irvine",
        "state":"CA",
        "zipcode":92612,
        "latitude":33.65015,
        "longitude":-117.84063,
        "opened_date":"1991-07-25",
        "opened_year":"1991",
        "state_name":"California"
    },
    {
        "storenumber":8,
        "name":"Pomona (Indian Hill Blvd.)",
        "streetaddress":"1851 Indian Hill Blvd.",
        "city":"Pomona",
        "state":"CA",
        "zipcode":91767,
        "latitude":34.07792,
        "longitude":-117.71965,
        "opened_date":"1970-04-01",
        "opened_year":"1970",
        "state_name":"California"
    },
    {
        "storenumber":45,
        "name":"Upland",
        "streetaddress":"1837 Foothill Blvd.",
        "city":"Upland",
        "state":"CA",
        "zipcode":91786,
        "latitude":34.10724,
        "longitude":-117.68629,
        "opened_date":"1987-04-06",
        "opened_year":"1987",
        "state_name":"California"
    },
    {
        "storenumber":21,
        "name":"Ontario (Mountain Ave.)",
        "streetaddress":"2235 Mountain Ave.",
        "city":"Ontario",
        "state":"CA",
        "zipcode":91761,
        "latitude":34.0327,
        "longitude":-117.66782,
        "opened_date":"1979-10-04",
        "opened_year":"1979",
        "state_name":"California"
    },
    {
        "storenumber":79,
        "name":"Palmdale",
        "streetaddress":"142 E Palmdale Blvd.",
        "city":"Palmdale",
        "state":"CA",
        "zipcode":93550,
        "latitude":34.57934,
        "longitude":-118.12803,
        "opened_date":"1992-10-30",
        "opened_year":"1992",
        "state_name":"California"
    },
    {
        "storenumber":163,
        "name":"Oxnard",
        "streetaddress":"381 W. Esplanade",
        "city":"Oxnard",
        "state":"CA",
        "zipcode":93036,
        "latitude":34.23508,
        "longitude":-119.17967,
        "opened_date":"2002-05-02",
        "opened_year":"2002",
        "state_name":"California"
    },
    {
        "storenumber":336,
        "name":"Upland ",
        "streetaddress":"1152 East 20th Street ",
        "city":"Upland ",
        "state":"CA",
        "zipcode":91784,
        "latitude":34.13607,
        "longitude":-117.63897,
        "opened_date":"2018-10-31",
        "opened_year":"2018",
        "state_name":"California"
    },
    {
        "storenumber":34,
        "name":"Ontario (Vineyard & G St.)",
        "streetaddress":"1891 E. G Street",
        "city":"Ontario",
        "state":"CA",
        "zipcode":91764,
        "latitude":34.06922,
        "longitude":-117.61145,
        "opened_date":"1984-10-19",
        "opened_year":"1984",
        "state_name":"California"
    },
    {
        "storenumber":25,
        "name":"Corona (Auto Center Dr.)",
        "streetaddress":"450 Auto Center Dr.",
        "city":"Corona",
        "state":"CA",
        "zipcode":92882,
        "latitude":33.88166,
        "longitude":-117.61349,
        "opened_date":"NaT",
        "opened_year":"nan",
        "state_name":"California"
    },
    {
        "storenumber":23,
        "name":"Rancho Cucamonga (Foothill & Vineyard)",
        "streetaddress":"8955 Foothill Blvd.",
        "city":"Rancho Cucamonga",
        "state":"CA",
        "zipcode":91730,
        "latitude":34.10625,
        "longitude":-117.60964,
        "opened_date":"1980-09-15",
        "opened_year":"1980",
        "state_name":"California"
    },
    {
        "storenumber":97,
        "name":"Foothill Ranch",
        "streetaddress":"26482 Towne Centre",
        "city":"Foothill Ranch",
        "state":"CA",
        "zipcode":92610,
        "latitude":33.68158,
        "longitude":-117.66941,
        "opened_date":"1994-07-06",
        "opened_year":"1994",
        "state_name":"California"
    },
    {
        "storenumber":170,
        "name":"Laguna Hills (El Toro)",
        "streetaddress":"24001 Avenida de la Carlota",
        "city":"Laguna Hills",
        "state":"CA",
        "zipcode":92653,
        "latitude":33.61331,
        "longitude":-117.70842,
        "opened_date":"2003-01-30",
        "opened_year":"2003",
        "state_name":"California"
    },
    {
        "storenumber":340,
        "name":"Eastvale",
        "streetaddress":"4950 Hamner Avenue ",
        "city":"Eastvale",
        "state":"CA",
        "zipcode":91752,
        "latitude":33.99813,
        "longitude":-117.55833,
        "opened_date":"2019-02-08",
        "opened_year":"2019",
        "state_name":"California"
    },
    {
        "storenumber":48,
        "name":"Norco",
        "streetaddress":"1810 Hamner Avenue",
        "city":"Norco",
        "state":"CA",
        "zipcode":92860,
        "latitude":33.90852,
        "longitude":-117.56168,
        "opened_date":"1988-03-05",
        "opened_year":"1988",
        "state_name":"California"
    },
    {
        "storenumber":144,
        "name":"Ontario (Ontario Mills)",
        "streetaddress":"4310 E. Ontario Mills Pkwy.",
        "city":"Ontario",
        "state":"CA",
        "zipcode":91764,
        "latitude":34.06834,
        "longitude":-117.55714,
        "opened_date":"2000-07-18",
        "opened_year":"2000",
        "state_name":"California"
    },
    {
        "storenumber":94,
        "name":"Laguna Niguel (La Paz)",
        "streetaddress":"27380 La Paz Rd.",
        "city":"Laguna Niguel",
        "state":"CA",
        "zipcode":92677,
        "latitude":33.56497,
        "longitude":-117.70737,
        "opened_date":"1994-01-03",
        "opened_year":"1994",
        "state_name":"California"
    },
    {
        "storenumber":76,
        "name":"Ventura",
        "streetaddress":"2070 Harbor Blvd.",
        "city":"Ventura",
        "state":"CA",
        "zipcode":93001,
        "latitude":34.26841,
        "longitude":-119.27283,
        "opened_date":"1992-09-08",
        "opened_year":"1992",
        "state_name":"California"
    },
    {
        "storenumber":43,
        "name":"Lancaster",
        "streetaddress":"\"2021 W. Avenue \"\"I\"\"\"",
        "city":"Lancaster",
        "state":"CA",
        "zipcode":93536,
        "latitude":34.70441,
        "longitude":-118.16698,
        "opened_date":"1986-11-26",
        "opened_year":"1986",
        "state_name":"California"
    },
    {
        "storenumber":175,
        "name":"Corona (Ontario Ave. & I-15)",
        "streetaddress":"2305 Compton Ave.",
        "city":"Corona",
        "state":"CA",
        "zipcode":92881,
        "latitude":33.84403,
        "longitude":-117.53647,
        "opened_date":"2003-06-19",
        "opened_year":"2003",
        "state_name":"California"
    },
    {
        "storenumber":84,
        "name":"Rancho Cucamonga (Foothill & I-15)",
        "streetaddress":"12599 Foothill Blvd.",
        "city":"Rancho Cucamonga",
        "state":"CA",
        "zipcode":91739,
        "latitude":34.10585,
        "longitude":-117.53026,
        "opened_date":"1993-04-14",
        "opened_year":"1993",
        "state_name":"California"
    },
    {
        "storenumber":281,
        "name":"Rancho Santa Margarita",
        "streetaddress":"30121 Santa Margarita Pkwy.",
        "city":"Rancho Santa Margarita",
        "state":"CA",
        "zipcode":92688,
        "latitude":33.64253,
        "longitude":-117.60524,
        "opened_date":"2013-02-13",
        "opened_year":"2013",
        "state_name":"California"
    },
    {
        "storenumber":28,
        "name":"Laguna Niguel (Avery Pkwy.)",
        "streetaddress":"28782 Camino Capistrano",
        "city":"San Juan Capistrano",
        "state":"CA",
        "zipcode":92675,
        "latitude":33.5453,
        "longitude":-117.67383,
        "opened_date":"1982-08-24",
        "opened_year":"1982",
        "state_name":"California"
    },
    {
        "storenumber":39,
        "name":"Pedley",
        "streetaddress":"6634 Clay St.",
        "city":"Riverside",
        "state":"CA",
        "zipcode":92509,
        "latitude":33.96709,
        "longitude":-117.46584,
        "opened_date":"1985-11-29",
        "opened_year":"1985",
        "state_name":"California"
    },
    {
        "storenumber":399,
        "name":"San Juan Capistrano",
        "streetaddress":"31791 Del Obispo St.",
        "city":"San Juan Capistrano",
        "state":"CA",
        "zipcode":92675,
        "latitude":33.50027,
        "longitude":-117.66038,
        "opened_date":"2023-12-07",
        "opened_year":"2023",
        "state_name":"California"
    },
    {
        "storenumber":335,
        "name":"Rancho Mission Viejo ",
        "streetaddress":"30655 Gateway Pl.",
        "city":"Rancho Mission Viejo ",
        "state":"CA",
        "zipcode":92694,
        "latitude":33.52053,
        "longitude":-117.61931,
        "opened_date":"2018-10-24",
        "opened_year":"2018",
        "state_name":"California"
    },
    {
        "storenumber":365,
        "name":"Riverside",
        "streetaddress":"3483 Van Buren Boulevard",
        "city":"Riverside",
        "state":"CA",
        "zipcode":92503,
        "latitude":33.91562,
        "longitude":-117.44211,
        "opened_date":"2021-07-02",
        "opened_year":"2021",
        "state_name":"California"
    },
    {
        "storenumber":22,
        "name":"Fontana",
        "streetaddress":"9855 Sierra Ave.",
        "city":"Fontana",
        "state":"CA",
        "zipcode":92335,
        "latitude":34.07498,
        "longitude":-117.43523,
        "opened_date":"1979-12-27",
        "opened_year":"1979",
        "state_name":"California"
    },
    {
        "storenumber":46,
        "name":"Riverside",
        "streetaddress":"7467 Indiana Ave.",
        "city":"Riverside",
        "state":"CA",
        "zipcode":92504,
        "latitude":33.93579,
        "longitude":-117.40385,
        "opened_date":"1985-11-29",
        "opened_year":"1985",
        "state_name":"California"
    },
    {
        "storenumber":385,
        "name":"San Clemente",
        "streetaddress":"115 Via Pico Plaza",
        "city":"San Clemente",
        "state":"CA",
        "zipcode":92672,
        "latitude":33.43745,
        "longitude":-117.62353,
        "opened_date":"2022-12-09",
        "opened_year":"2022",
        "state_name":"California"
    },
    {
        "storenumber":394,
        "name":"Rialto II",
        "streetaddress":"1456 S Riverside Ave.",
        "city":"Rialto",
        "state":"CA",
        "zipcode":92376,
        "latitude":34.07423,
        "longitude":-117.37063,
        "opened_date":"2023-09-07",
        "opened_year":"2023",
        "state_name":"California"
    },
    {
        "storenumber":286,
        "name":"Rialto",
        "streetaddress":"108 E. Easton St.",
        "city":"Rialto",
        "state":"CA",
        "zipcode":92376,
        "latitude":34.1344,
        "longitude":-117.37003,
        "opened_date":"2013-08-29",
        "opened_year":"2013",
        "state_name":"California"
    },
    {
        "storenumber":26,
        "name":"San Bernardino (5th Street)",
        "streetaddress":"795 W. 5th Street",
        "city":"San Bernardino",
        "state":"CA",
        "zipcode":92410,
        "latitude":34.10794,
        "longitude":-117.30054,
        "opened_date":"1982-02-11",
        "opened_year":"1982",
        "state_name":"California"
    },
    {
        "storenumber":353,
        "name":"Riverside",
        "streetaddress":"22410 Van Buren Blvd.",
        "city":"Riverside",
        "state":"CA",
        "zipcode":92518,
        "latitude":33.88854,
        "longitude":-117.27293,
        "opened_date":"2020-03-26",
        "opened_year":"2020",
        "state_name":"California"
    },
    {
        "storenumber":44,
        "name":"Moreno Valley",
        "streetaddress":"23035 Hemlock Ave.",
        "city":"Moreno Valley",
        "state":"CA",
        "zipcode":92557,
        "latitude":33.94211,
        "longitude":-117.26014,
        "opened_date":"1987-01-07",
        "opened_year":"1987",
        "state_name":"California"
    },
    {
        "storenumber":31,
        "name":"San Bernardino (Tippecanoe)",
        "streetaddress":"1065 Harriman Pl.",
        "city":"San Bernardino",
        "state":"CA",
        "zipcode":92408,
        "latitude":34.06638,
        "longitude":-117.26181,
        "opened_date":"1984-02-28",
        "opened_year":"1984",
        "state_name":"California"
    },
    {
        "storenumber":29,
        "name":"Hesperia (Main St.)",
        "streetaddress":"13074 Main St.",
        "city":"Hesperia",
        "state":"CA",
        "zipcode":92345,
        "latitude":34.42713,
        "longitude":-117.37809,
        "opened_date":"1983-06-24",
        "opened_year":"1983",
        "state_name":"California"
    },
    {
        "storenumber":54,
        "name":"Lake Elsinore",
        "streetaddress":"331 Railroad Canyon",
        "city":"Lake Elsinore",
        "state":"CA",
        "zipcode":92532,
        "latitude":33.66356,
        "longitude":-117.29851,
        "opened_date":"1989-05-18",
        "opened_year":"1989",
        "state_name":"California"
    },
    {
        "storenumber":398,
        "name":"Perris",
        "streetaddress":"229 Old Nuevo Rd.",
        "city":"Perris",
        "state":"CA",
        "zipcode":92570,
        "latitude":33.80078,
        "longitude":-117.23149,
        "opened_date":"2023-11-30",
        "opened_year":"2023",
        "state_name":"California"
    },
    {
        "storenumber":272,
        "name":"Highland",
        "streetaddress":"28009 Greenspot Rd.",
        "city":"Highland",
        "state":"CA",
        "zipcode":92346,
        "latitude":34.10791,
        "longitude":-117.19374,
        "opened_date":"2012-03-29",
        "opened_year":"2012",
        "state_name":"California"
    },
    {
        "storenumber":72,
        "name":"Hesperia (Bear Valley Rd.)",
        "streetaddress":"17069 Bear Valley Rd.",
        "city":"Hesperia",
        "state":"CA",
        "zipcode":92345,
        "latitude":34.4705,
        "longitude":-117.29092,
        "opened_date":"1992-03-10",
        "opened_year":"1992",
        "state_name":"California"
    },
    {
        "storenumber":233,
        "name":"Victorville",
        "streetaddress":"15290 Civic Drive",
        "city":"Victorville",
        "state":"CA",
        "zipcode":92394,
        "latitude":34.52112,
        "longitude":-117.32202,
        "opened_date":"2009-09-24",
        "opened_year":"2009",
        "state_name":"California"
    },
    {
        "storenumber":209,
        "name":"Lebec (Tejon Ranch)",
        "streetaddress":"5926 Dennis Mccarthy",
        "city":"Lebec",
        "state":"CA",
        "zipcode":93243,
        "latitude":34.98345,
        "longitude":-118.94828,
        "opened_date":"2007-08-30",
        "opened_year":"2007",
        "state_name":"California"
    },
    {
        "storenumber":224,
        "name":"Menifee",
        "streetaddress":"30296 Haun Road",
        "city":"Menifee",
        "state":"CA",
        "zipcode":92584,
        "latitude":33.68112,
        "longitude":-117.17501,
        "opened_date":"2008-10-28",
        "opened_year":"2008",
        "state_name":"California"
    },
    {
        "storenumber":318,
        "name":"Yucaipa",
        "streetaddress":"31465 Avenue E",
        "city":"Yucaipa",
        "state":"CA",
        "zipcode":92399,
        "latitude":34.02775,
        "longitude":-117.11733,
        "opened_date":"2016-11-17",
        "opened_year":"2016",
        "state_name":"California"
    },
    {
        "storenumber":212,
        "name":"Murrieta",
        "streetaddress":"39697 Avenida Acacias",
        "city":"Murrieta",
        "state":"CA",
        "zipcode":92563,
        "latitude":33.57324,
        "longitude":-117.17903,
        "opened_date":"2007-12-20",
        "opened_year":"2007",
        "state_name":"California"
    },
    {
        "storenumber":62,
        "name":"Temecula (Jefferson Ave.)",
        "streetaddress":"27700 Jefferson Ave.",
        "city":"Temecula",
        "state":"CA",
        "zipcode":92590,
        "latitude":33.51498,
        "longitude":-117.159,
        "opened_date":"1990-09-19",
        "opened_year":"1990",
        "state_name":"California"
    },
    {
        "storenumber":313,
        "name":"Oceanside",
        "streetaddress":"936 N. Coast Highway",
        "city":"Oceanside",
        "state":"CA",
        "zipcode":92054,
        "latitude":33.20394,
        "longitude":-117.38399,
        "opened_date":"2016-04-07",
        "opened_year":"2016",
        "state_name":"California"
    },
    {
        "storenumber":200,
        "name":"Temecula (Highway 79)",
        "streetaddress":"30697 Temecula Pkwy.",
        "city":"Temecula",
        "state":"CA",
        "zipcode":92592,
        "latitude":33.47588,
        "longitude":-117.12363,
        "opened_date":"2005-12-30",
        "opened_year":"2005",
        "state_name":"California"
    },
    {
        "storenumber":162,
        "name":"Oceanside",
        "streetaddress":"4605 Frazee",
        "city":"Oceanside",
        "state":"CA",
        "zipcode":92057,
        "latitude":33.23782,
        "longitude":-117.29927,
        "opened_date":"2002-04-04",
        "opened_year":"2002",
        "state_name":"California"
    },
    {
        "storenumber":108,
        "name":"Goleta",
        "streetaddress":"4865 Calle Real",
        "city":"Goleta",
        "state":"CA",
        "zipcode":93111,
        "latitude":34.44289,
        "longitude":-119.79074,
        "opened_date":"1995-11-14",
        "opened_year":"1995",
        "state_name":"California"
    },
    {
        "storenumber":52,
        "name":"Hemet",
        "streetaddress":"2885 W. Florida Ave.",
        "city":"Hemet",
        "state":"CA",
        "zipcode":92545,
        "latitude":33.74698,
        "longitude":-117.00175,
        "opened_date":"1988-09-09",
        "opened_year":"1988",
        "state_name":"California"
    },
    {
        "storenumber":355,
        "name":"Beaumont",
        "streetaddress":"1551 E. 2nd St. ",
        "city":"Beaumont",
        "state":"CA",
        "zipcode":92223,
        "latitude":33.92323,
        "longitude":-116.94849,
        "opened_date":"2020-07-24",
        "opened_year":"2020",
        "state_name":"California"
    },
    {
        "storenumber":61,
        "name":"Vista",
        "streetaddress":"2010 Hacienda Dr.",
        "city":"Vista",
        "state":"CA",
        "zipcode":92081,
        "latitude":33.18455,
        "longitude":-117.28496,
        "opened_date":"1990-08-30",
        "opened_year":"1990",
        "state_name":"California"
    },
    {
        "storenumber":89,
        "name":"Carlsbad",
        "streetaddress":"5950 Avenida Encinas",
        "city":"Carlsbad",
        "state":"CA",
        "zipcode":92008,
        "latitude":33.12509,
        "longitude":-117.32465,
        "opened_date":"1993-10-05",
        "opened_year":"1993",
        "state_name":"California"
    },
    {
        "storenumber":295,
        "name":"Encinitas",
        "streetaddress":"130 Calle Magdalena",
        "city":"Encinitas",
        "state":"CA",
        "zipcode":92024,
        "latitude":33.04729,
        "longitude":-117.28499,
        "opened_date":"2014-05-22",
        "opened_year":"2014",
        "state_name":"California"
    },
    {
        "storenumber":185,
        "name":"San Marcos",
        "streetaddress":"583 Grand Ave.",
        "city":"San Marcos",
        "state":"CA",
        "zipcode":92078,
        "latitude":33.13718,
        "longitude":-117.17717,
        "opened_date":"2004-07-27",
        "opened_year":"2004",
        "state_name":"California"
    },
    {
        "storenumber":292,
        "name":"Cabazon",
        "streetaddress":"49188 Seminole Dr.",
        "city":"Cabazon",
        "state":"CA",
        "zipcode":92230,
        "latitude":33.9214,
        "longitude":-116.80362,
        "opened_date":"2014-01-15",
        "opened_year":"2014",
        "state_name":"California"
    },
    {
        "storenumber":65,
        "name":"Bakersfield (Panama Ln.)",
        "streetaddress":"2310 Panama Lane",
        "city":"Bakersfield",
        "state":"CA",
        "zipcode":93307,
        "latitude":35.29633,
        "longitude":-119.02855,
        "opened_date":"1991-04-24",
        "opened_year":"1991",
        "state_name":"California"
    },
    {
        "storenumber":56,
        "name":"Barstow",
        "streetaddress":"2821 Lenwood Rd.",
        "city":"Barstow",
        "state":"CA",
        "zipcode":92311,
        "latitude":34.85006,
        "longitude":-117.08238,
        "opened_date":"1989-11-14",
        "opened_year":"1989",
        "state_name":"California"
    },
    {
        "storenumber":247,
        "name":"Escondido",
        "streetaddress":"1260 W Valley Parkway",
        "city":"Escondido",
        "state":"CA",
        "zipcode":92029,
        "latitude":33.11518,
        "longitude":-117.1019,
        "opened_date":"2010-09-30",
        "opened_year":"2010",
        "state_name":"California"
    },
    {
        "storenumber":145,
        "name":"Bakersfield (Stockdale Hwy)",
        "streetaddress":"5100 Stockdale Hwy.",
        "city":"Bakersfield",
        "state":"CA",
        "zipcode":93309,
        "latitude":35.35451,
        "longitude":-119.05794,
        "opened_date":"2000-10-02",
        "opened_year":"2000",
        "state_name":"California"
    },
    {
        "storenumber":362,
        "name":"Bakersfield",
        "streetaddress":"7985 Rosedale Hwy. ",
        "city":"Bakersfield",
        "state":"CA",
        "zipcode":93308,
        "latitude":35.38311,
        "longitude":-119.09086,
        "opened_date":"2021-01-28",
        "opened_year":"2021",
        "state_name":"California"
    },
    {
        "storenumber":87,
        "name":"Carmel Mountain",
        "streetaddress":"11880 Carmel Mountain Rd.",
        "city":"San Diego",
        "state":"CA",
        "zipcode":92128,
        "latitude":32.98171,
        "longitude":-117.07757,
        "opened_date":"1993-08-02",
        "opened_year":"1993",
        "state_name":"California"
    },
    {
        "storenumber":68,
        "name":"Mira Mesa",
        "streetaddress":"9410 Mira Mesa Blvd.",
        "city":"San Diego",
        "state":"CA",
        "zipcode":92126,
        "latitude":32.91764,
        "longitude":-117.12193,
        "opened_date":"1991-08-13",
        "opened_year":"1991",
        "state_name":"California"
    },
    {
        "storenumber":69,
        "name":"Pacific Beach",
        "streetaddress":"2910 Damon Ave.",
        "city":"Pacific Beach",
        "state":"CA",
        "zipcode":92109,
        "latitude":32.80896,
        "longitude":-117.21887,
        "opened_date":"1991-10-24",
        "opened_year":"1991",
        "state_name":"California"
    },
    {
        "storenumber":254,
        "name":"Poway",
        "streetaddress":"12890 Gregg Court",
        "city":"Poway",
        "state":"CA",
        "zipcode":92064,
        "latitude":32.93892,
        "longitude":-117.04651,
        "opened_date":"2011-04-21",
        "opened_year":"2011",
        "state_name":"California"
    },
    {
        "storenumber":71,
        "name":"Kearny Mesa",
        "streetaddress":"4375 Kearny Mesa Rd.",
        "city":"San Diego",
        "state":"CA",
        "zipcode":92111,
        "latitude":32.81967,
        "longitude":-117.14869,
        "opened_date":"1991-12-18",
        "opened_year":"1991",
        "state_name":"California"
    },
    {
        "storenumber":123,
        "name":"San Diego (Sports Arena Blvd.)",
        "streetaddress":"3102 Sports Arena Blvd.",
        "city":"San Diego",
        "state":"CA",
        "zipcode":92110,
        "latitude":32.75191,
        "longitude":-117.20527,
        "opened_date":"1997-06-27",
        "opened_year":"1997",
        "state_name":"California"
    },
    {
        "storenumber":128,
        "name":"Mission Valley",
        "streetaddress":"2005 Camino Del Este",
        "city":"San Diego",
        "state":"CA",
        "zipcode":92108,
        "latitude":32.76952,
        "longitude":-117.14345,
        "opened_date":"1998-05-21",
        "opened_year":"1998",
        "state_name":"California"
    },
    {
        "storenumber":375,
        "name":"San Diego",
        "streetaddress":"10370 Friars Rd.",
        "city":"San Diego ",
        "state":"CA",
        "zipcode":92120,
        "latitude":32.79099,
        "longitude":-117.10012,
        "opened_date":"2022-01-14",
        "opened_year":"2022",
        "state_name":"California"
    },
    {
        "storenumber":279,
        "name":"Santee",
        "streetaddress":"9414 Mission Gorge Rd.",
        "city":"Santee",
        "state":"CA",
        "zipcode":92071,
        "latitude":32.83901,
        "longitude":-116.99388,
        "opened_date":"2012-11-28",
        "opened_year":"2012",
        "state_name":"California"
    },
    {
        "storenumber":50,
        "name":"Thousand Palms",
        "streetaddress":"72265 Varner Rd.",
        "city":"Thousand Palms",
        "state":"CA",
        "zipcode":92276,
        "latitude":33.81566,
        "longitude":-116.40139,
        "opened_date":"1988-06-17",
        "opened_year":"1988",
        "state_name":"California"
    },
    {
        "storenumber":57,
        "name":"Lemon Grove",
        "streetaddress":"7160 Broadway",
        "city":"Lemon Grove",
        "state":"CA",
        "zipcode":91945,
        "latitude":32.74421,
        "longitude":-117.04325,
        "opened_date":"1990-01-16",
        "opened_year":"1990",
        "state_name":"California"
    },
    {
        "storenumber":374,
        "name":"Rancho Mirage",
        "streetaddress":"42560 Bob Hope Dr.",
        "city":"Rancho Mirage",
        "state":"CA",
        "zipcode":92270,
        "latitude":33.73631,
        "longitude":-116.40772,
        "opened_date":"2022-01-07",
        "opened_year":"2022",
        "state_name":"California"
    },
    {
        "storenumber":73,
        "name":"El Cajon",
        "streetaddress":"100 Fletcher Parkway",
        "city":"El Cajon",
        "state":"CA",
        "zipcode":92020,
        "latitude":32.80802,
        "longitude":-116.96289,
        "opened_date":"1992-03-31",
        "opened_year":"1992",
        "state_name":"California"
    },
    {
        "storenumber":70,
        "name":"National City",
        "streetaddress":"500 Mile-Of Cars Way",
        "city":"National City",
        "state":"CA",
        "zipcode":91950,
        "latitude":32.65966,
        "longitude":-117.10659,
        "opened_date":"1991-11-18",
        "opened_year":"1991",
        "state_name":"California"
    },
    {
        "storenumber":311,
        "name":"La Quinta",
        "streetaddress":"78611 Hwy. 111",
        "city":"La Quinta",
        "state":"CA",
        "zipcode":92253,
        "latitude":33.71257,
        "longitude":-116.29265,
        "opened_date":"2016-02-04",
        "opened_year":"2016",
        "state_name":"California"
    },
    {
        "storenumber":383,
        "name":"San Diego",
        "streetaddress":"1093 Outer Rd.",
        "city":"San Diego",
        "state":"CA",
        "zipcode":92154,
        "latitude":32.57707,
        "longitude":-117.08055,
        "opened_date":"2022-11-18",
        "opened_year":"2022",
        "state_name":"California"
    },
    {
        "storenumber":391,
        "name":"Chula Vista II ",
        "streetaddress":"1810 Main Court",
        "city":"Chula Vista",
        "state":"CA",
        "zipcode":91911,
        "latitude":32.59459,
        "longitude":-117.03437,
        "opened_date":"2023-05-10",
        "opened_year":"2023",
        "state_name":"California"
    },
    {
        "storenumber":227,
        "name":"Chula Vista",
        "streetaddress":"1725 Eastlake Pkwy.",
        "city":"Chula Vista",
        "state":"CA",
        "zipcode":91915,
        "latitude":32.62049,
        "longitude":-116.96204,
        "opened_date":"2008-12-23",
        "opened_year":"2008",
        "state_name":"California"
    },
    {
        "storenumber":51,
        "name":"Indio",
        "streetaddress":"82043 Hwy. 111",
        "city":"Indio",
        "state":"CA",
        "zipcode":92201,
        "latitude":33.71425,
        "longitude":-116.23308,
        "opened_date":"1988-06-17",
        "opened_year":"1988",
        "state_name":"California"
    },
    {
        "storenumber":389,
        "name":"Delano",
        "streetaddress":"505 Woollomes Ave.",
        "city":"Delano",
        "state":"CA",
        "zipcode":93215,
        "latitude":35.74714,
        "longitude":-119.24759,
        "opened_date":"2023-03-10",
        "opened_year":"2023",
        "state_name":"California"
    },
    {
        "storenumber":136,
        "name":"Santa Maria",
        "streetaddress":"1330 S. Bradley Road",
        "city":"Santa Maria",
        "state":"CA",
        "zipcode":93454,
        "latitude":34.93734,
        "longitude":-120.41884,
        "opened_date":"1999-05-27",
        "opened_year":"1999",
        "state_name":"California"
    },
    {
        "storenumber":250,
        "name":"Arroyo Grande",
        "streetaddress":"1170 W. Branch St.",
        "city":"Arroyo Grande",
        "state":"CA",
        "zipcode":93420,
        "latitude":35.12729,
        "longitude":-120.59796,
        "opened_date":"2010-11-16",
        "opened_year":"2010",
        "state_name":"California"
    },
    {
        "storenumber":367,
        "name":"Tulare",
        "streetaddress":"1591 E. Prosperity Ave. ",
        "city":"Tulare",
        "state":"CA",
        "zipcode":93274,
        "latitude":36.22548,
        "longitude":-119.32403,
        "opened_date":"2021-08-19",
        "opened_year":"2021",
        "state_name":"California"
    },
    {
        "storenumber":95,
        "name":"Kettleman City",
        "streetaddress":"33464 Bernard Dr.",
        "city":"Kettleman City",
        "state":"CA",
        "zipcode":93239,
        "latitude":35.98616,
        "longitude":-119.95924,
        "opened_date":"1994-03-24",
        "opened_year":"1994",
        "state_name":"California"
    },
    {
        "storenumber":98,
        "name":"Atascadero",
        "streetaddress":"6000 San Anselmo Rd.",
        "city":"Atascadero",
        "state":"CA",
        "zipcode":93422,
        "latitude":35.49698,
        "longitude":-120.6844,
        "opened_date":"1994-07-22",
        "opened_year":"1994",
        "state_name":"California"
    },
    {
        "storenumber":106,
        "name":"Visalia",
        "streetaddress":"1933 S. Mooney Blvd.",
        "city":"Visalia",
        "state":"CA",
        "zipcode":93277,
        "latitude":36.31346,
        "longitude":-119.31423,
        "opened_date":"1995-06-21",
        "opened_year":"1995",
        "state_name":"California"
    },
    {
        "storenumber":368,
        "name":"Visalia",
        "streetaddress":"506 W. Riggin Ave.",
        "city":"Visalia",
        "state":"CA",
        "zipcode":93291,
        "latitude":36.3569,
        "longitude":-119.29744,
        "opened_date":"2021-09-10",
        "opened_year":"2021",
        "state_name":"California"
    },
    {
        "storenumber":291,
        "name":"Hanford",
        "streetaddress":"280 S. 12th Ave.",
        "city":"Hanford",
        "state":"CA",
        "zipcode":93230,
        "latitude":36.32131,
        "longitude":-119.67359,
        "opened_date":"2013-12-19",
        "opened_year":"2013",
        "state_name":"California"
    },
    {
        "storenumber":211,
        "name":"El Centro",
        "streetaddress":"2390 S. 4Th Street",
        "city":"El Centro",
        "state":"CA",
        "zipcode":92243,
        "latitude":32.77146,
        "longitude":-115.55267,
        "opened_date":"2007-12-13",
        "opened_year":"2007",
        "state_name":"California"
    },
    {
        "storenumber":93,
        "name":"Fresno (2nd Street)",
        "streetaddress":"2657 S. Second St.",
        "city":"Fresno",
        "state":"CA",
        "zipcode":93706,
        "latitude":36.70482,
        "longitude":-119.77024,
        "opened_date":"1993-12-15",
        "opened_year":"1993",
        "state_name":"California"
    },
    {
        "storenumber":83,
        "name":"Fresno (Blackstone & Ashlan)",
        "streetaddress":"4302 N. Blackstone Ave.",
        "city":"Fresno",
        "state":"CA",
        "zipcode":93726,
        "latitude":36.79612,
        "longitude":-119.78992,
        "opened_date":"1992-12-18",
        "opened_year":"1992",
        "state_name":"California"
    },
    {
        "storenumber":220,
        "name":"Clovis",
        "streetaddress":"382 N. Clovis Ave.",
        "city":"Clovis",
        "state":"CA",
        "zipcode":93612,
        "latitude":36.83692,
        "longitude":-119.70056,
        "opened_date":"2008-08-21",
        "opened_year":"2008",
        "state_name":"California"
    },
    {
        "storenumber":82,
        "name":"Fresno (Shaw)",
        "streetaddress":"5106 W. Shaw St.",
        "city":"Fresno",
        "state":"CA",
        "zipcode":93722,
        "latitude":36.8085,
        "longitude":-119.88316,
        "opened_date":"1992-11-30",
        "opened_year":"1992",
        "state_name":"California"
    },
    {
        "storenumber":173,
        "name":"Fresno (Blackstone & Nees)",
        "streetaddress":"8010 N. Blackstone",
        "city":"Fresno",
        "state":"CA",
        "zipcode":93720,
        "latitude":36.85229,
        "longitude":-119.7904,
        "opened_date":"2003-04-30",
        "opened_year":"2003",
        "state_name":"California"
    },
    {
        "storenumber":401,
        "name":"Madera",
        "streetaddress":"1830 W. Cleveland Ave.",
        "city":"Madera",
        "state":"CA",
        "zipcode":93637,
        "latitude":36.97417,
        "longitude":-120.07839,
        "opened_date":"2024-01-05",
        "opened_year":"2024",
        "state_name":"California"
    },
    {
        "storenumber":226,
        "name":"Las Vegas (Tropicana Ave. & Tee Pee Ln.)",
        "streetaddress":"9610 W. Tropicana Ave.",
        "city":"Las Vegas",
        "state":"NV",
        "zipcode":89147,
        "latitude":36.10069,
        "longitude":-115.30211,
        "opened_date":"2008-12-18",
        "opened_year":"2008",
        "state_name":"Nevada"
    },
    {
        "storenumber":352,
        "name":"Las Vegas",
        "streetaddress":"6530 S. Rainbow Blvd. ",
        "city":"Las Vegas ",
        "state":"NV",
        "zipcode":89118,
        "latitude":36.06968,
        "longitude":-115.2417,
        "opened_date":"2020-03-17",
        "opened_year":"2020",
        "state_name":"Nevada"
    },
    {
        "storenumber":331,
        "name":"Las Vegas",
        "streetaddress":"10040 W. Sahara Ave.",
        "city":"Las Vegas",
        "state":"NV",
        "zipcode":89117,
        "latitude":36.14482,
        "longitude":-115.31351,
        "opened_date":"2018-05-25",
        "opened_year":"2018",
        "state_name":"Nevada"
    },
    {
        "storenumber":364,
        "name":"Henderson",
        "streetaddress":"3551 St. Rose Pkwy.",
        "city":"Henderson",
        "state":"NV",
        "zipcode":89052,
        "latitude":35.98619,
        "longitude":-115.14228,
        "opened_date":"2021-05-21",
        "opened_year":"2021",
        "state_name":"Nevada"
    },
    {
        "storenumber":221,
        "name":"Las Vegas (Blue Diamond Rd.)",
        "streetaddress":"3882 Blue Diamond Rd.",
        "city":"Las Vegas",
        "state":"NV",
        "zipcode":89139,
        "latitude":36.04056,
        "longitude":-115.19118,
        "opened_date":"2008-08-28",
        "opened_year":"2008",
        "state_name":"Nevada"
    },
    {
        "storenumber":181,
        "name":"Laughlin",
        "streetaddress":"2085 Casino Dr.",
        "city":"Laughlin",
        "state":"NV",
        "zipcode":89029,
        "latitude":35.15922,
        "longitude":-114.57523,
        "opened_date":"2004-03-04",
        "opened_year":"2004",
        "state_name":"Nevada"
    },
    {
        "storenumber":393,
        "name":"Las Vegas ",
        "streetaddress":"3397 W. Russell Rd.",
        "city":"Las Vegas",
        "state":"NV",
        "zipcode":89118,
        "latitude":36.08588,
        "longitude":-115.18521,
        "opened_date":"2023-08-31",
        "opened_year":"2023",
        "state_name":"Nevada"
    },
    {
        "storenumber":165,
        "name":"Las Vegas (Eastern Ave.)",
        "streetaddress":"9240 S. Eastern Ave.",
        "city":"Las Vegas",
        "state":"NV",
        "zipcode":89123,
        "latitude":36.02139,
        "longitude":-115.11813,
        "opened_date":"2002-07-10",
        "opened_year":"2002",
        "state_name":"Nevada"
    },
    {
        "storenumber":86,
        "name":"Las Vegas (Dean Martin & Tropicana)",
        "streetaddress":"4888 Dean Martin Dr.",
        "city":"Las Vegas",
        "state":"NV",
        "zipcode":89103,
        "latitude":36.10132,
        "longitude":-115.18219,
        "opened_date":"1993-07-28",
        "opened_year":"1993",
        "state_name":"Nevada"
    },
    {
        "storenumber":143,
        "name":"Lake Havasu City",
        "streetaddress":"81 London Bridge Rd.",
        "city":"Lake Havasu City",
        "state":"AZ",
        "zipcode":86403,
        "latitude":34.47483,
        "longitude":-114.34779,
        "opened_date":"2000-05-03",
        "opened_year":"2000",
        "state_name":"Arizona"
    },
    {
        "storenumber":320,
        "name":"Las Vegas",
        "streetaddress":"3545 S. Las Vegas Blvd, Ste L24",
        "city":"Las Vegas",
        "state":"NV",
        "zipcode":89109,
        "latitude":36.11744,
        "longitude":-115.1699,
        "opened_date":"2017-01-11",
        "opened_year":"2017",
        "state_name":"Nevada"
    },
    {
        "storenumber":104,
        "name":"Las Vegas (Lake Mead Blvd.)",
        "streetaddress":"1960 Rock Springs",
        "city":"Las Vegas",
        "state":"NV",
        "zipcode":89128,
        "latitude":36.19564,
        "longitude":-115.24654,
        "opened_date":"1995-02-28",
        "opened_year":"1995",
        "state_name":"Nevada"
    },
    {
        "storenumber":80,
        "name":"Las Vegas (Sahara)",
        "streetaddress":"2900 W. Sahara Ave.",
        "city":"Las Vegas",
        "state":"NV",
        "zipcode":89102,
        "latitude":36.14486,
        "longitude":-115.18057,
        "opened_date":"1992-11-17",
        "opened_year":"1992",
        "state_name":"Nevada"
    },
    {
        "storenumber":88,
        "name":"Las Vegas (Maryland Pkwy & Tropicana)",
        "streetaddress":"4705 S. Maryland Pkwy.",
        "city":"Las Vegas",
        "state":"NV",
        "zipcode":89119,
        "latitude":36.10417,
        "longitude":-115.13758,
        "opened_date":"1993-08-31",
        "opened_year":"1993",
        "state_name":"Nevada"
    },
    {
        "storenumber":203,
        "name":"Yuma",
        "streetaddress":"1940 E. 16th Street",
        "city":"Yuma",
        "state":"AZ",
        "zipcode":85365,
        "latitude":32.69905,
        "longitude":-114.60057,
        "opened_date":"2006-11-16",
        "opened_year":"2006",
        "state_name":"Arizona"
    },
    {
        "storenumber":204,
        "name":"Las Vegas (Centennial)",
        "streetaddress":"5690 Centennial Center Blvd.",
        "city":"Las Vegas",
        "state":"NV",
        "zipcode":89149,
        "latitude":36.2652,
        "longitude":-115.25707,
        "opened_date":"2007-02-07",
        "opened_year":"2007",
        "state_name":"Nevada"
    },
    {
        "storenumber":334,
        "name":"Las Vegas",
        "streetaddress":"3804 East Flamingo Rd.",
        "city":"Las Vegas",
        "state":"NV",
        "zipcode":89121,
        "latitude":36.11578,
        "longitude":-115.09154,
        "opened_date":"2018-10-18",
        "opened_year":"2018",
        "state_name":"Nevada"
    },
    {
        "storenumber":150,
        "name":"Henderson",
        "streetaddress":"1051 W. Sunset Rd.",
        "city":"Henderson",
        "state":"NV",
        "zipcode":89014,
        "latitude":36.06331,
        "longitude":-115.03392,
        "opened_date":"2001-03-29",
        "opened_year":"2001",
        "state_name":"Nevada"
    },
    {
        "storenumber":81,
        "name":"Las Vegas (Nellis)",
        "streetaddress":"51 N Nellis",
        "city":"Las Vegas",
        "state":"NV",
        "zipcode":89110,
        "latitude":36.16083,
        "longitude":-115.06266,
        "opened_date":"1992-11-18",
        "opened_year":"1992",
        "state_name":"Nevada"
    },
    {
        "storenumber":243,
        "name":"North Las Vegas",
        "streetaddress":"2765 E. Craig Rd.",
        "city":"North Las Vegas",
        "state":"NV",
        "zipcode":89030,
        "latitude":36.23968,
        "longitude":-115.11141,
        "opened_date":"2010-06-23",
        "opened_year":"2010",
        "state_name":"Nevada"
    },
    {
        "storenumber":234,
        "name":"North Las Vegas",
        "streetaddress":"6880 N. 5th Street",
        "city":"North Las Vegas",
        "state":"NV",
        "zipcode":89084,
        "latitude":36.28523,
        "longitude":-115.1344,
        "opened_date":"2009-10-29",
        "opened_year":"2009",
        "state_name":"Nevada"
    },
    {
        "storenumber":91,
        "name":"Merced",
        "streetaddress":"1579 M L King Jr Way",
        "city":"Merced",
        "state":"CA",
        "zipcode":95340,
        "latitude":37.29835,
        "longitude":-120.48184,
        "opened_date":"1993-11-18",
        "opened_year":"1993",
        "state_name":"California"
    },
    {
        "storenumber":99,
        "name":"Salinas",
        "streetaddress":"151 Kern St.",
        "city":"Salinas",
        "state":"CA",
        "zipcode":93905,
        "latitude":36.67993,
        "longitude":-121.6409,
        "opened_date":"1994-09-21",
        "opened_year":"1994",
        "state_name":"California"
    },
    {
        "storenumber":267,
        "name":"Santa Nella",
        "streetaddress":"28900 Henry Miller Rd.",
        "city":"Santa Nella",
        "state":"CA",
        "zipcode":95322,
        "latitude":37.101,
        "longitude":-121.0146,
        "opened_date":"2012-01-26",
        "opened_year":"2012",
        "state_name":"California"
    },
    {
        "storenumber":201,
        "name":"Kingman",
        "streetaddress":"1770 E. Beverly Ave.",
        "city":"Kingman",
        "state":"AZ",
        "zipcode":86409,
        "latitude":35.21825,
        "longitude":-114.03694,
        "opened_date":"2006-06-15",
        "opened_year":"2006",
        "state_name":"Arizona"
    },
    {
        "storenumber":312,
        "name":"Seaside",
        "streetaddress":"1350 Del Monte Blvd.",
        "city":"Seaside",
        "state":"CA",
        "zipcode":93955,
        "latitude":36.60592,
        "longitude":-121.85847,
        "opened_date":"2016-03-22",
        "opened_year":"2016",
        "state_name":"California"
    },
    {
        "storenumber":100,
        "name":"Gilroy",
        "streetaddress":"641 Leavesley Rd.",
        "city":"Gilroy",
        "state":"CA",
        "zipcode":95020,
        "latitude":37.0238,
        "longitude":-121.56419,
        "opened_date":"1994-11-10",
        "opened_year":"1994",
        "state_name":"California"
    },
    {
        "storenumber":161,
        "name":"Turlock",
        "streetaddress":"3071 Countryside Dr.",
        "city":"Turlock",
        "state":"CA",
        "zipcode":95380,
        "latitude":37.5205,
        "longitude":-120.8817,
        "opened_date":"2002-03-14",
        "opened_year":"2002",
        "state_name":"California"
    },
    {
        "storenumber":198,
        "name":"Morgan Hill",
        "streetaddress":"895 Cochrane Rd.",
        "city":"Morgan Hill",
        "state":"CA",
        "zipcode":95037,
        "latitude":37.15249,
        "longitude":-121.6548,
        "opened_date":"2005-11-30",
        "opened_year":"2005",
        "state_name":"California"
    },
    {
        "storenumber":386,
        "name":"Ceres",
        "streetaddress":"2942 Service Road",
        "city":"Ceres",
        "state":"CA",
        "zipcode":93507,
        "latitude":37.57993,
        "longitude":-120.93943,
        "opened_date":"2023-01-12",
        "opened_year":"2023",
        "state_name":"California"
    },
    {
        "storenumber":285,
        "name":"Modesto",
        "streetaddress":"1616 Sisk Rd.",
        "city":"Modesto",
        "state":"CA",
        "zipcode":95350,
        "latitude":37.66949,
        "longitude":-121.0356,
        "opened_date":"2013-08-22",
        "opened_year":"2013",
        "state_name":"California"
    },
    {
        "storenumber":342,
        "name":"San Jose (Cottle Road)",
        "streetaddress":"5590 Cottle Road",
        "city":"San Jose ",
        "state":"CA",
        "zipcode":95123,
        "latitude":37.25043,
        "longitude":-121.80391,
        "opened_date":"2019-05-02",
        "opened_year":"2019",
        "state_name":"California"
    },
    {
        "storenumber":90,
        "name":"Modesto",
        "streetaddress":"3900 Pelandale Ave.",
        "city":"Modesto",
        "state":"CA",
        "zipcode":95356,
        "latitude":37.6998,
        "longitude":-121.06759,
        "opened_date":"1993-10-18",
        "opened_year":"1993",
        "state_name":"California"
    },
    {
        "storenumber":142,
        "name":"San Jose (Santa Teresa Blvd.)",
        "streetaddress":"5611 Santa Teresa",
        "city":"San Jose",
        "state":"CA",
        "zipcode":95123,
        "latitude":37.24904,
        "longitude":-121.85943,
        "opened_date":"2000-01-26",
        "opened_year":"2000",
        "state_name":"California"
    },
    {
        "storenumber":158,
        "name":"San Jose (Capitol & Tully)",
        "streetaddress":"2950 E. Capitol Expy.",
        "city":"San Jose",
        "state":"CA",
        "zipcode":95148,
        "latitude":37.33009,
        "longitude":-121.81133,
        "opened_date":"2001-12-06",
        "opened_year":"2001",
        "state_name":"California"
    },
    {
        "storenumber":240,
        "name":"San Jose",
        "streetaddress":"550 Newhall Drive",
        "city":"San Jose",
        "state":"CA",
        "zipcode":95110,
        "latitude":37.3503,
        "longitude":-121.92187,
        "opened_date":"2010-01-14",
        "opened_year":"2010",
        "state_name":"California"
    },
    {
        "storenumber":191,
        "name":"Manteca",
        "streetaddress":"1490 E. Yosemite Ave.",
        "city":"Manteca",
        "state":"CA",
        "zipcode":95336,
        "latitude":37.79717,
        "longitude":-121.19248,
        "opened_date":"2005-04-12",
        "opened_year":"2005",
        "state_name":"California"
    },
    {
        "storenumber":115,
        "name":"Milpitas",
        "streetaddress":"50 Ranch Drive",
        "city":"Milpitas",
        "state":"CA",
        "zipcode":95035,
        "latitude":37.42629,
        "longitude":-121.92238,
        "opened_date":"1996-09-05",
        "opened_year":"1996",
        "state_name":"California"
    },
    {
        "storenumber":176,
        "name":"Santa Clara",
        "streetaddress":"3001 Mission College",
        "city":"Santa Clara",
        "state":"CA",
        "zipcode":95054,
        "latitude":37.388,
        "longitude":-121.98201,
        "opened_date":"2003-08-07",
        "opened_year":"2003",
        "state_name":"California"
    },
    {
        "storenumber":130,
        "name":"Sunnyvale",
        "streetaddress":"604 E. El Camino Real",
        "city":"Sunnyvale",
        "state":"CA",
        "zipcode":94087,
        "latitude":37.36097,
        "longitude":-122.02497,
        "opened_date":"1998-07-02",
        "opened_year":"1998",
        "state_name":"California"
    },
    {
        "storenumber":346,
        "name":"Lathrop ",
        "streetaddress":"16514 Golden Valley Parkway",
        "city":"Lathrop ",
        "state":"CA",
        "zipcode":95330,
        "latitude":37.81143,
        "longitude":-121.29806,
        "opened_date":"2019-10-17",
        "opened_year":"2019",
        "state_name":"California"
    },
    {
        "storenumber":96,
        "name":"Tracy",
        "streetaddress":"575 Clover Road",
        "city":"Tracy",
        "state":"CA",
        "zipcode":95376,
        "latitude":37.76184,
        "longitude":-121.43377,
        "opened_date":"1994-06-01",
        "opened_year":"1994",
        "state_name":"California"
    },
    {
        "storenumber":152,
        "name":"Mountain View (El Camino Real & Grant)",
        "streetaddress":"53 W. El Camino Real",
        "city":"Mountain View",
        "state":"CA",
        "zipcode":94040,
        "latitude":37.38038,
        "longitude":-122.07402,
        "opened_date":"2001-07-12",
        "opened_year":"2001",
        "state_name":"California"
    },
    {
        "storenumber":129,
        "name":"Mountain View (Rengstorff)",
        "streetaddress":"1159 N. Rengstorff",
        "city":"Mountain View",
        "state":"CA",
        "zipcode":94043,
        "latitude":37.42096,
        "longitude":-122.09334,
        "opened_date":"1998-06-11",
        "opened_year":"1998",
        "state_name":"California"
    },
    {
        "storenumber":194,
        "name":"Fremont",
        "streetaddress":"43349 Pacific Commons Blvd. ",
        "city":"Fremont",
        "state":"CA",
        "zipcode":94538,
        "latitude":37.50421,
        "longitude":-121.97399,
        "opened_date":"2005-08-17",
        "opened_year":"2005",
        "state_name":"California"
    },
    {
        "storenumber":149,
        "name":"Livermore",
        "streetaddress":"1881 N. Livermore Ave.",
        "city":"Livermore",
        "state":"CA",
        "zipcode":94550,
        "latitude":37.69939,
        "longitude":-121.77326,
        "opened_date":"2001-02-15",
        "opened_year":"2001",
        "state_name":"California"
    },
    {
        "storenumber":369,
        "name":"Stockton ",
        "streetaddress":"5202 Pacific Ave.",
        "city":"Stockton ",
        "state":"CA",
        "zipcode":95207,
        "latitude":37.99696,
        "longitude":-121.31452,
        "opened_date":"2021-09-17",
        "opened_year":"2021",
        "state_name":"California"
    },
    {
        "storenumber":101,
        "name":"Stockton",
        "streetaddress":"2727 W. March Lane",
        "city":"Stockton",
        "state":"CA",
        "zipcode":95219,
        "latitude":37.98471,
        "longitude":-121.34561,
        "opened_date":"1994-11-30",
        "opened_year":"1994",
        "state_name":"California"
    },
    {
        "storenumber":124,
        "name":"Pleasanton",
        "streetaddress":"6015 Johnson Dr.",
        "city":"Pleasanton",
        "state":"CA",
        "zipcode":94588,
        "latitude":37.70022,
        "longitude":-121.90763,
        "opened_date":"1997-08-06",
        "opened_year":"1997",
        "state_name":"California"
    },
    {
        "storenumber":156,
        "name":"Union City",
        "streetaddress":"32060 Union Landing",
        "city":"Union City",
        "state":"CA",
        "zipcode":94587,
        "latitude":37.59927,
        "longitude":-122.06561,
        "opened_date":"2001-11-01",
        "opened_year":"2001",
        "state_name":"California"
    },
    {
        "storenumber":246,
        "name":"Redwood City",
        "streetaddress":"949 Veterans Blvd",
        "city":"Redwood City",
        "state":"CA",
        "zipcode":94063,
        "latitude":37.49059,
        "longitude":-122.22785,
        "opened_date":"2010-08-26",
        "opened_year":"2010",
        "state_name":"California"
    },
    {
        "storenumber":257,
        "name":"San Carlos",
        "streetaddress":"445 Industrial Rd.",
        "city":"San Carlos",
        "state":"CA",
        "zipcode":94070,
        "latitude":37.51288,
        "longitude":-122.25859,
        "opened_date":"2011-06-16",
        "opened_year":"2011",
        "state_name":"California"
    },
    {
        "storenumber":197,
        "name":"Lodi",
        "streetaddress":"2625 W. Kettleman Ln.",
        "city":"Lodi",
        "state":"CA",
        "zipcode":95242,
        "latitude":38.11596,
        "longitude":-121.3082,
        "opened_date":"2005-10-13",
        "opened_year":"2005",
        "state_name":"California"
    },
    {
        "storenumber":118,
        "name":"San Ramon",
        "streetaddress":"2270 San Ramon Valley",
        "city":"San Ramon",
        "state":"CA",
        "zipcode":94583,
        "latitude":37.77914,
        "longitude":-121.97702,
        "opened_date":"1997-02-27",
        "opened_year":"1997",
        "state_name":"California"
    },
    {
        "storenumber":222,
        "name":"San Leandro",
        "streetaddress":"15575 Hesperian Blvd.",
        "city":"San Leandro",
        "state":"CA",
        "zipcode":94579,
        "latitude":37.68697,
        "longitude":-122.13113,
        "opened_date":"2008-09-30",
        "opened_year":"2008",
        "state_name":"California"
    },
    {
        "storenumber":189,
        "name":"Brentwood",
        "streetaddress":"5581 Lone Tree Way",
        "city":"Brentwood",
        "state":"CA",
        "zipcode":94513,
        "latitude":37.96115,
        "longitude":-121.74774,
        "opened_date":"2004-12-16",
        "opened_year":"2004",
        "state_name":"California"
    },
    {
        "storenumber":190,
        "name":"Millbrae",
        "streetaddress":"11 Rollins Rd.",
        "city":"Millbrae",
        "state":"CA",
        "zipcode":94030,
        "latitude":37.60082,
        "longitude":-122.38243,
        "opened_date":"2005-03-31",
        "opened_year":"2005",
        "state_name":"California"
    },
    {
        "storenumber":193,
        "name":"Oakland",
        "streetaddress":"8300 Oakport St.",
        "city":"Oakland",
        "state":"CA",
        "zipcode":94621,
        "latitude":37.74037,
        "longitude":-122.1984,
        "opened_date":"2005-05-18",
        "opened_year":"2005",
        "state_name":"California"
    },
    {
        "storenumber":168,
        "name":"Pittsburg",
        "streetaddress":"4550 Delta Gateway Blvd.",
        "city":"Pittsburg",
        "state":"CA",
        "zipcode":94565,
        "latitude":38.00537,
        "longitude":-121.83634,
        "opened_date":"2002-10-08",
        "opened_year":"2002",
        "state_name":"California"
    },
    {
        "storenumber":303,
        "name":"Alameda",
        "streetaddress":"555 Willie Stargell Ave.",
        "city":"Alameda",
        "state":"CA",
        "zipcode":94501,
        "latitude":37.78372,
        "longitude":-122.27728,
        "opened_date":"2015-05-14",
        "opened_year":"2015",
        "state_name":"California"
    },
    {
        "storenumber":326,
        "name":"Daly City",
        "streetaddress":"372 Gellert Blvd.",
        "city":"Daly City",
        "state":"CA",
        "zipcode":94015,
        "latitude":37.66603,
        "longitude":-122.46904,
        "opened_date":"2017-07-27",
        "opened_year":"2017",
        "state_name":"California"
    },
    {
        "storenumber":159,
        "name":"Daly City",
        "streetaddress":"260 Washington St.",
        "city":"Daly City",
        "state":"CA",
        "zipcode":94015,
        "latitude":37.68821,
        "longitude":-122.47202,
        "opened_date":"2002-01-17",
        "opened_year":"2002",
        "state_name":"California"
    },
    {
        "storenumber":274,
        "name":"Pleasant Hill",
        "streetaddress":"570 Contra Costa Blvd.",
        "city":"Pleasant Hill",
        "state":"CA",
        "zipcode":94523,
        "latitude":37.97596,
        "longitude":-122.06565,
        "opened_date":"2012-05-17",
        "opened_year":"2012",
        "state_name":"California"
    },
    {
        "storenumber":154,
        "name":"San Francisco",
        "streetaddress":"333 Jefferson",
        "city":"San Francisco",
        "state":"CA",
        "zipcode":94133,
        "latitude":37.80773,
        "longitude":-122.41858,
        "opened_date":"2001-09-20",
        "opened_year":"2001",
        "state_name":"California"
    },
    {
        "storenumber":184,
        "name":"Prescott",
        "streetaddress":"3040 Hwy. 69",
        "city":"Prescott",
        "state":"AZ",
        "zipcode":86301,
        "latitude":34.55245,
        "longitude":-112.40924,
        "opened_date":"2004-06-29",
        "opened_year":"2004",
        "state_name":"Arizona"
    },
    {
        "storenumber":388,
        "name":"Elk Grove II ",
        "streetaddress":"7620 Elk Grove Blvd.",
        "city":"Elk Grove",
        "state":"CA",
        "zipcode":95757,
        "latitude":38.40867,
        "longitude":-121.41279,
        "opened_date":"2023-02-23",
        "opened_year":"2023",
        "state_name":"California"
    },
    {
        "storenumber":116,
        "name":"Elk Grove",
        "streetaddress":"9188 E Stockton Blvd.",
        "city":"Elk Grove",
        "state":"CA",
        "zipcode":95624,
        "latitude":38.42411,
        "longitude":-121.3915,
        "opened_date":"1996-11-14",
        "opened_year":"1996",
        "state_name":"California"
    },
    {
        "storenumber":332,
        "name":"Surprise",
        "streetaddress":"14321 W. Bell Rd.",
        "city":"Surprise",
        "state":"AZ",
        "zipcode":85374,
        "latitude":33.63818,
        "longitude":-112.36853,
        "opened_date":"2018-06-08",
        "opened_year":"2018",
        "state_name":"Arizona"
    },
    {
        "storenumber":215,
        "name":"Washington City",
        "streetaddress":"832 W. Telegraph St.",
        "city":"Washington City",
        "state":"UT",
        "zipcode":84780,
        "latitude":37.1278,
        "longitude":-113.52311,
        "opened_date":"2008-04-22",
        "opened_year":"2008",
        "state_name":"Utah"
    },
    {
        "storenumber":120,
        "name":"Pinole",
        "streetaddress":"1417 Fitzgerald Dr.",
        "city":"Pinole",
        "state":"CA",
        "zipcode":94564,
        "latitude":37.98907,
        "longitude":-122.31071,
        "opened_date":"1997-04-24",
        "opened_year":"1997",
        "state_name":"California"
    },
    {
        "storenumber":148,
        "name":"Avondale",
        "streetaddress":"1525 Dysart Rd.",
        "city":"Avondale",
        "state":"AZ",
        "zipcode":85323,
        "latitude":33.45937,
        "longitude":-112.34041,
        "opened_date":"2000-12-07",
        "opened_year":"2000",
        "state_name":"Arizona"
    },
    {
        "storenumber":139,
        "name":"Placerville",
        "streetaddress":"3055 Forni Road",
        "city":"Placerville",
        "state":"CA",
        "zipcode":95667,
        "latitude":38.72039,
        "longitude":-120.83314,
        "opened_date":"1999-09-30",
        "opened_year":"1999",
        "state_name":"California"
    },
    {
        "storenumber":327,
        "name":"Sacramento",
        "streetaddress":"8200 Delta Shores Circle",
        "city":"Sacramento",
        "state":"CA",
        "zipcode":95832,
        "latitude":38.46537,
        "longitude":-121.49298,
        "opened_date":"2017-08-24",
        "opened_year":"2017",
        "state_name":"California"
    },
    {
        "storenumber":141,
        "name":"Mill Valley",
        "streetaddress":"798 Redwood Hwy.",
        "city":"Mill Valley",
        "state":"CA",
        "zipcode":94941,
        "latitude":37.89661,
        "longitude":-122.5155,
        "opened_date":"1999-12-16",
        "opened_year":"1999",
        "state_name":"California"
    },
    {
        "storenumber":229,
        "name":"Folsom",
        "streetaddress":"225 Placerville Rd.",
        "city":"Folsom",
        "state":"CA",
        "zipcode":95630,
        "latitude":38.64672,
        "longitude":-121.11442,
        "opened_date":"2009-01-29",
        "opened_year":"2009",
        "state_name":"California"
    },
    {
        "storenumber":232,
        "name":"Phoenix (Camelback)",
        "streetaddress":"9585 W. Camelback Rd.",
        "city":"Phoenix",
        "state":"AZ",
        "zipcode":85037,
        "latitude":33.50809,
        "longitude":-112.26647,
        "opened_date":"2009-06-11",
        "opened_year":"2009",
        "state_name":"Arizona"
    },
    {
        "storenumber":339,
        "name":"Vallejo",
        "streetaddress":"720 Admiral Callaghan Ln.",
        "city":"Vallejo",
        "state":"CA",
        "zipcode":94591,
        "latitude":38.12479,
        "longitude":-122.22787,
        "opened_date":"2018-01-10",
        "opened_year":"2018",
        "state_name":"California"
    },
    {
        "storenumber":122,
        "name":"Rancho Cordova",
        "streetaddress":"2475 Sunrise Blvd",
        "city":"Rancho Cordova",
        "state":"CA",
        "zipcode":95670,
        "latitude":38.61461,
        "longitude":-121.26897,
        "opened_date":"1997-06-03",
        "opened_year":"1997",
        "state_name":"California"
    },
    {
        "storenumber":169,
        "name":"Peoria",
        "streetaddress":"8285 W. Bell Rd.",
        "city":"Peoria",
        "state":"AZ",
        "zipcode":85382,
        "latitude":33.63773,
        "longitude":-112.23301,
        "opened_date":"2003-01-16",
        "opened_year":"2003",
        "state_name":"Arizona"
    },
    {
        "storenumber":125,
        "name":"Fairfield",
        "streetaddress":"1364 Holiday Lane",
        "city":"Fairfield",
        "state":"CA",
        "zipcode":94534,
        "latitude":38.25727,
        "longitude":-122.0647,
        "opened_date":"1997-09-09",
        "opened_year":"1997",
        "state_name":"California"
    },
    {
        "storenumber":276,
        "name":"Sacramento",
        "streetaddress":"2001 Alta Arden Expy.",
        "city":"Sacramento",
        "state":"CA",
        "zipcode":95825,
        "latitude":38.59805,
        "longitude":-121.4194,
        "opened_date":"2012-06-07",
        "opened_year":"2012",
        "state_name":"California"
    },
    {
        "storenumber":103,
        "name":"Vacaville",
        "streetaddress":"170 Nut Tree Pkwy.",
        "city":"Vacaville",
        "state":"CA",
        "zipcode":95687,
        "latitude":38.36646,
        "longitude":-121.96114,
        "opened_date":"1995-01-03",
        "opened_year":"1995",
        "state_name":"California"
    },
    {
        "storenumber":217,
        "name":"Sacramento (Madison)",
        "streetaddress":"4600 Madison Ave.",
        "city":"Sacramento",
        "state":"CA",
        "zipcode":95841,
        "latitude":38.66041,
        "longitude":-121.3571,
        "opened_date":"2008-05-29",
        "opened_year":"2008",
        "state_name":"California"
    },
    {
        "storenumber":187,
        "name":"Carson Valley",
        "streetaddress":"957 Topsy Lane",
        "city":"Carson City",
        "state":"NV",
        "zipcode":89705,
        "latitude":39.10902,
        "longitude":-119.77493,
        "opened_date":"2004-10-14",
        "opened_year":"2004",
        "state_name":"Nevada"
    },