objectid,fac_name,owner_type,city,county,field_offi,loc_id,eff_date,elevation,sectional_,boundary_2,icao_ident,fss_name,land_area_,atc_tower,latitude,longitude,brand
19828,LEONARD M THOMPSON INTL,PU,MARSH HARBOUR,BAHAMAS,NONE,MYAM,7/16/2020,8.0,MIAMI,MIAMI,MYAM,MIAMI,,N,26.51012777773246,-77.08511666690545,US Airports
19748,COMOX,PR,COMOX,"B.C., CANADA",SEA,CYQQ,7/16/2020,84.0,SEATTLE,VANCOUVER,CYQQ,KAMLOOPS FIC,,Y,49.71083333275737,-124.88666666664308,US Airports
19812,WINDSOR,PU,WINDSOR,"ONTARIO, CANADA",NONE,CYQG,7/16/2020,622.0,,CLEVELAND,CYQG,LONDON FIC,,N,42.27586419409519,-82.95764852760186,US Airports
2815,HORSESHOE LANDINGS,PR,KEENESBURG,WELD,DEN,CO60,7/16/2020,4800.0,CHEYENNE,DENVER,,DENVER,,N,40.10831555601567,-104.4310672224387,US Airports
10725,AUSK STRIP,PR,CHAFFEE,CASS,DMA,8ND5,7/16/2020,1020.0,TWIN CITIES,MINNEAPOLIS,,GRAND FORKS,,N,46.76386333328385,-97.40537083336345,US Airports
9489,LAKE VILLAGE,PR,PARIS,MONROE,NONE,MU40,7/16/2020,750.0,KANSAS CITY,KANSAS CITY,,SAINT LOUIS,,N,39.460594444271585,-92.01044833308654,US Airports
12050,GAUTIERI,PR,BATAVIA,GENESEE,NYC,21NY,7/16/2020,915.0,DETROIT,CLEVELAND,,BUFFALO,,N,42.99339333286789,-78.17834944431728,US Airports
8430,SCOTT AIRSTRIP,PR,LAKE,CLARE,DET,07MI,7/16/2020,1065.0,CHICAGO,MINNEAPOLIS,,LANSING,,N,43.86418916672663,-85.02391888925087,US Airports
15632,TELFORD OVERLOOK FERGUSON FIELD,PR,TELFORD,WASHINGTON,NONE,TN02,7/16/2020,1680.0,,MEMPHIS,,NASHVILLE,5.0,N,36.20873333307094,-82.5395666672884,US Airports
16755,OLIVER,PR,KNOX CITY,KNOX,TEX,4TX7,7/16/2020,1500.0,DALLAS-FT WORTH,FORT WORTH,,FORT WORTH,,N,33.41953888907938,-99.86564833327229,US Airports
8242,MYERS,PR,BRIDGMAN,BERRIEN,DET,MI25,7/16/2020,670.0,CHICAGO,CHICAGO,,LANSING,4.0,N,41.922265278157454,-86.54557638869602,US Airports
19830,LYNDEN PINDLING INTL,PU,NASSAU,BAHAMAS,NONE,MYNN,7/16/2020,16.0,MIAMI,MIAMI,MYNN,MIAMI,,Y,25.03911444393619,-77.46636769399483,US Airports
19783,SAINT JOHN,PU,SAINT JOHN,"NEW BRUNSWICK, CANADA",NONE,CYSJ,7/16/2020,357.0,,TORONTO,CYSJ,HALIFAX FIC,,N,45.316111111133246,-65.89027777823078,US Airports
19740,BELLA BELLA/CAMPBELL ISLAND,PR,BELLA BELLA,"B.C., CANADA",NONE,CBBC,7/16/2020,141.0,,VANCOUVER,CBBC,KAMLOOPS FIC,,N,52.18500000015256,-128.15666666669694,US Airports
19815,CLAYTON J LLOYD INTL,PU,THE VALLEY,ANGUILLA,NONE,TQPF,7/16/2020,127.0,,SAN JUAN,TQPF,SAN JUAN,,Y,18.2048000002342,-63.05385277799104,US Airports
10402,CAMP DAVIS MCOLF,MN,HOLLY RIDGE,JONES,MEM,14NC,7/16/2020,60.0,CHARLOTTE,WASHINGTON,,RALEIGH,,N,34.51666666734002,-77.54999999983501,US Airports
10713,GRIEVE,PR,BUFFALO,CASS,DMA,ND59,7/16/2020,1208.0,TWIN CITIES,MINNEAPOLIS,,GRAND FORKS,,N,46.98747666671303,-97.52953638875273,US Airports
11006,LOSEKE AIRSTRIP,PR,COLUMBUS,PLATTE,NONE,NE37,7/16/2020,1490.0,OMAHA,MINNEAPOLIS,,COLUMBUS,,N,41.47251055621044,-97.2714272221077,US Airports
12153,OAK RIDGE,PR,EAST PALMYRA,WAYNE,NYC,NY16,7/16/2020,540.0,NEW YORK,CLEVELAND,,BUFFALO,,N,43.098396666821934,-77.18192361080365,US Airports
12918,NESTA,PR,LOUDENVILLE,HOLMES,DET,9OI6,7/16/2020,950.0,DETROIT,CLEVELAND,,CLEVELAND,,N,40.6328380560916,-82.17682249991712,US Airports
16215,KEYES RANCH,PR,DRIPPING SPRINGS,HAYS,TEX,14TX,7/16/2020,1150.0,SAN ANTONIO,HOUSTON,,SAN ANGELO,,N,30.289368333048035,-98.17390388889885,US Airports
16316,SHORTHORN AUX LANDING STRIP,MR,FORT HOOD/KILLEEN/,BELL,TEX,23XS,7/16/2020,720.0,SAN ANTONIO,FORT WORTH,,SAN ANGELO,,N,31.358500832742628,-97.67113027844516,US Airports
17486,LITTLE PEACH,PR,TEMPLE,BELL,TEX,TS92,7/16/2020,710.0,SAN ANTONIO,FORT WORTH,,FORT WORTH,,N,31.214618610849655,-97.42667638895931,US Airports
17886,MANN,PR,BOYKINS,SOUTHAMPTON,DCA,VG28,7/16/2020,35.0,WASHINGTON,WASHINGTON,,LEESBURG,,N,36.549040555650855,-77.19135611083142,US Airports
3400,ROSE RANCH,PR,EUSTIS,LAKE,ORL,6FD6,7/16/2020,167.0,JACKSONVILLE,JACKSONVILLE,,GAINESVILLE,,N,28.904988610906987,-81.43312333268199,US Airports
1074,J5 MIKE,PR,WOODVILLE,JACKSON,JAN,4AL5,7/16/2020,680.0,ATLANTA,MEMPHIS,,ANNISTON,,N,34.666347222025315,-86.22228611092396,US Airports
19714,ENEWETAK AUX AF,PR,ENEWETAK,MARSHALL ISLANDS,HNL,PKMA,7/16/2020,13.0,,HONOLULU CONTROL FACILITY,,HONOLULU,,N,11.34083333277517,162.3278333329556,US Airports
2164,DOUBLE CREEK AIRPARK,PR,MANTON,SHASTA,SFO,CN42,7/16/2020,2030.0,KLAMATH FALLS,OAKLAND,,RANCHO MURIETA,360.0,N,40.445711944155335,-121.88221277796065,US Airports
646,NIKOLAI CREEK,PU,TYONEK,KENAI-COOK INLET,NONE,9AK3,7/16/2020,30.0,ANCHORAGE,ANCHORAGE,,KENAI,10.0,N,61.013884443962084,-151.4489102776125,US Airports
893,HIGHFALLS STAGEFIELD AHP,MR,FORT RUCKER/HARTFORD,GENEVA,JAN,15AL,7/16/2020,220.0,NEW ORLEANS,JACKSONVILLE,,ANNISTON,,N,31.09361111118011,-85.78794444393063,US Airports
70,MARION,PR,BIG LAKE,ALEUTIAN ISLANDS,NONE,85AK,7/16/2020,150.0,ANCHORAGE,ANCHORAGE,,KENAI,,N,61.50916666685487,-149.9086111109695,US Airports
5386,FAIRFIELD MUNI,PU,FAIRFIELD,WAYNE,CHI,FWC,7/16/2020,434.3999939,ST LOUIS,KANSAS CITY,KFWC,SAINT LOUIS,173.0,N,38.37863305612795,-88.41265222167817,US Airports
5811,OSF CENTER FOR HEALTH - STREATOR,PR,STREATOR,LA SALLE,CHI,IS29,7/16/2020,639.0,CHICAGO,CHICAGO,,KANKAKEE,,N,41.11337222185545,-88.83522222235626,US Airports
5660,WILCO,PR,OREGON,OGLE,CHI,31LL,7/16/2020,805.0,CHICAGO,CHICAGO,,KANKAKEE,,N,41.934166667128196,-89.36499999963266,US Airports
2200,LOMA LINDA UNIV MED CTR-MURRIETA,PR,MURRIETA,RIVERSIDE,LAX,40CN,7/16/2020,1576.0,LOS ANGELES,LOS ANGELES,,RIVERSIDE,,N,33.614694443827155,-117.16995277783047,US Airports
3022,TINIAN DYNASTY,PR,SAN JOSE TINIAN,NORTHERN MARIANA IS,HNL,HI64,7/16/2020,175.0,GNC 7,HONOLULU CONTROL FACILITY,,HONOLULU,,N,14.962500000297457,145.63027777773104,US Airports
5438,EDWARD GETZELMAN,PR,HAMPSHIRE,KANE,CHI,7IL7,7/16/2020,870.0,CHICAGO,CHICAGO,,KANKAKEE,,N,42.12669111073581,-88.53342055617375,US Airports
1323,FIVE RIVERS MEDICAL CENTER,PR,POCAHONTAS,RANDOLPH,AOK,AR53,7/16/2020,433.0,ST LOUIS,MEMPHIS,,JONESBORO,,N,36.28925000011347,-90.99631944428621,US Airports
1666,GRAND CANYON BAR TEN AIRSTRIP,PR,WHITMORE,MOHAVE,PHX,1Z1,7/16/2020,4100.0,LAS VEGAS,LOS ANGELES,,PRESCOTT,100.0,N,36.25649999991267,-113.2308888890609,US Airports
5510,NORTHWESTERN LAKE FOREST HOSPITAL,PR,LAKE FOREST,LAKE,CHI,45IL,7/16/2020,680.0,CHICAGO,CHICAGO,,KANKAKEE,,N,42.25414999992416,-87.86352499998146,US Airports
5687,GENERAL DOWNING - PEORIA INTL,PU,PEORIA,PEORIA,CHI,PIA,7/16/2020,660.70001221,CHICAGO,CHICAGO,KPIA,KANKAKEE,3800.0,Y,40.66419444390202,-89.69325000005583,US Airports
1037,LOWER DELTA,PR,SPANISH FORT,BALDWIN,JAN,AL58,7/16/2020,0.0,NEW ORLEANS,HOUSTON,,ANNISTON,11.0,N,30.675475832690978,-87.95987111083389,US Airports
2823,WECKER FARMS,PR,KIOWA,ELBERT,DEN,0CO5,7/16/2020,6565.0,DENVER,DENVER,,DENVER,42.0,N,39.30321666728325,-104.41403333298693,US Airports
2631,TEZAK,PR,CANON CITY,FREMONT,DEN,CO19,7/16/2020,6280.0,DENVER,DENVER,,DENVER,,N,38.41083055580487,-105.60388916736167,US Airports
6086,HOLT FIELD,PR,HOAGLAND,ADAMS,CHI,8II5,7/16/2020,790.0,CHICAGO,CHICAGO,,TERRE HAUTE,3.0,N,40.89949194386123,-84.99996777807526,US Airports
3874,BAY SEAPLANES,PR,PANAMA CITY,BAY,ORL,4FD4,7/16/2020,0.0,NEW ORLEANS,JACKSONVILLE,,GAINESVILLE,,N,30.184923888738954,-85.7499308331079,US Airports
4189,DAWSON FIELD,PR,CAVE SPRING,FLOYD,ATL,53GA,7/16/2020,675.0,ATLANTA,ATLANTA,,MACON,25.0,N,34.16777777833824,-85.258611110836,US Airports
1587,GRAPEVINE AIRSTRIP,PU,ROOSEVELT,GILA,PHX,88AZ,7/16/2020,2329.0,PHOENIX,ALBUQUERQUE,,PRESCOTT,,N,33.64090833333705,-111.05691666662759,US Airports
1502,PEARCE FERRY,PU,MEADVIEW,MOHAVE,PHX,L25,7/16/2020,2941.0,LAS VEGAS,LOS ANGELES,,PRESCOTT,8.0,N,36.09322222217267,-114.04672222204529,US Airports
4202,BRIAR PATCH,PR,CLYO,EFFINGHAM,ATL,9GA1,7/16/2020,100.0,ATLANTA,JACKSONVILLE,,MACON,45.0,N,32.44888888886366,-81.33694444411802,US Airports
2453,ST JOSEPH'S MEDICAL CENTER,PR,STOCKTON,SAN JOAQUIN,SFO,CN48,7/16/2020,47.0,SAN FRANCISCO,OAKLAND,,RANCHO MURIETA,,N,37.970197221736186,-121.28786111116342,US Airports
810,BUTLER-CHOCTAW COUNTY,PU,BUTLER,CHOCTAW,JAN,09A,7/16/2020,133.69999695,MEMPHIS,ATLANTA,,ANNISTON,80.0,N,32.11930555635632,-88.12747222243657,US Airports
4561,HONOKAA AIRSTRIP,PR,HONOKAA,HAWAII,HNL,HI05,7/16/2020,1440.0,HAWAIIAN ISLANDS,HONOLULU CONTROL FACILITY,,HONOLULU,,N,20.083603333379514,-155.50222222222,US Airports
4448,HODGES AIRPARK,PR,SAVANNAH,CHATHAM,ATL,GA39,7/16/2020,10.0,JACKSONVILLE,JACKSONVILLE,,MACON,60.0,N,31.98437472188954,-81.24622222172883,US Airports
3963,SARASOTA/BRADENTON INTL,PU,SARASOTA/BRADENTON,SARASOTA,ORL,SRQ,7/16/2020,29.89999962,MIAMI,MIAMI,KSRQ,SAINT PETERSBURG,1102.0,Y,27.395444443899507,-82.5543888892393,US Airports
1880,DOS PALOS,PR,DOS PALOS,MERCED,SFO,28CA,7/16/2020,118.0,SAN FRANCISCO,OAKLAND,,RANCHO MURIETA,40.0,N,36.96244722202946,-120.63018277758248,US Airports
5423,GATEWAY RGNL MEDICAL CENTER,PR,GRANITE CITY,MADISON,CHI,38LL,7/16/2020,425.0,KANSAS CITY,KANSAS CITY,,SAINT LOUIS,,N,38.699966667321824,-90.14331944380707,US Airports
1338,SALEM,PU,SALEM,FULTON,AOK,7M9,7/16/2020,786.70001221,KANSAS CITY,MEMPHIS,,JONESBORO,127.0,N,36.3559080557973,-91.83095472188143,US Airports
1719,CATALINA,PR,AVALON,LOS ANGELES,LAX,AVX,7/16/2020,1602.0,LOS ANGELES,LOS ANGELES,KAVX,HAWTHORNE,25.0,N,33.4049972220707,-118.4157694440021,US Airports
2095,VAN NUYS COUNTY COURT,PU,LOS ANGELES,LOS ANGELES,LAX,43L,7/16/2020,850.0,LOS ANGELES,LOS ANGELES,,HAWTHORNE,,N,34.18333333281083,-118.44666666672109,US Airports
5470,HOOPESTON COMMUNITY MEMORIAL HOSPITAL,PR,HOOPESTON,VERMILION,CHI,01IL,7/16/2020,583.0,CHICAGO,CHICAGO,,SAINT LOUIS,,N,40.45789722210801,-87.65811111120917,US Airports
3945,ALBERT WHITTED,PU,ST PETERSBURG,PINELLAS,ORL,SPG,7/16/2020,6.69999981,MIAMI,MIAMI,KSPG,SAINT PETERSBURG,119.0,Y,27.76511388927724,-82.6269738888869,US Airports
1412,HORSESHOE DAM,PR,CAREFREE,MARICOPA,PHX,AZ52,7/16/2020,2020.0,PHOENIX,ALBUQUERQUE,,PRESCOTT,,N,33.98198305573601,-111.71653305614521,US Airports
5366,ST ANTHONY MEMORIAL HOSPITAL,PR,EFFINGHAM,EFFINGHAM,CHI,11IS,7/16/2020,593.0,ST LOUIS,KANSAS CITY,,SAINT LOUIS,,N,39.124663888912856,-88.55024999984664,US Airports
630,TOKSOOK BAY,PU,TOKSOOK BAY,BETHEL,NONE,OOK,7/16/2020,72.19999695,BETHEL,ANCHORAGE,PAOO,KENAI,82.0,N,60.54133333298123,-165.08719444403394,US Airports
3884,MEMORIAL HOSPITAL WEST HELISTOP,PR,PEMBROKE PINES,BROWARD,ORL,FA21,7/16/2020,12.0,MIAMI,MIAMI,,GAINESVILLE,,N,26.013102777598075,-80.3111611110622,US Airports
5117,FLYING H RANCH,PR,PRIEST RIVER,BONNER,HLN,96ID,7/16/2020,2230.0,GREAT FALLS,SEATTLE,,BOISE,4.0,N,48.235566667245706,-116.87526666701348,US Airports
5562,AEROGRANGE,PR,MARENGO,MC HENRY,CHI,66IL,7/16/2020,824.0,CHICAGO,CHICAGO,,KANKAKEE,10.0,N,42.26873888891798,-88.57129583273094,US Airports
2613,OVERLOOK ATHLETIC CLUB,PR,BRECKENRIDGE,SUMMIT,DEN,CO75,7/16/2020,10085.0,DENVER,DENVER,,DENVER,,N,39.4730416670505,-106.0325166670024,US Airports
4095,BACON COUNTY,PU,ALMA,BACON,ATL,AMG,7/16/2020,199.80000305,JACKSONVILLE,JACKSONVILLE,KAMG,MACON,232.0,N,31.53605555606385,-82.506553332662,US Airports
6168,HULL,PR,LIGONIER,NOBLE,CHI,II51,7/16/2020,930.0,CHICAGO,CHICAGO,,TERRE HAUTE,,N,41.4847713888599,-85.5930405556233,US Airports
1025,LOGAN FIELD,PU,SAMSON,GENEVA,JAN,1A4,7/16/2020,200.0,NEW ORLEANS,JACKSONVILLE,,ANNISTON,,N,31.103702778357498,-86.06259999959408,US Airports
5919,GRAY,PR,BOGGSTOWN,SHELBY,CHI,07IN,7/16/2020,750.0,ST LOUIS,INDIANAPOLIS,,TERRE HAUTE,,N,39.57365888920588,-85.91387055624129,US Airports
1470,WHETSTONE,PR,HUACHUCA CITY,COCHISE,PHX,11AZ,7/16/2020,4250.0,PHOENIX,ALBUQUERQUE,,PRESCOTT,,N,31.68370194421322,-110.29007750044306,US Airports
366,ALITAK,PR,LAZY BAY,KODIAK ISLAND,NONE,ALZ,7/16/2020,0.0,KODIAK,ANCHORAGE,,KENAI,,N,56.89948722218852,-154.2478466667361,US Airports
5089,NEW MEADOWS,PU,NEW MEADOWS,ADAMS,HLN,1U4,7/16/2020,3908.0,GREAT FALLS,SALT LAKE CITY,,BOISE,24.0,N,44.97799999980011,-116.28391666683922,US Airports
2745,YANKEE FIELD,PR,FORT COLLINS,LARIMER,DEN,CO53,7/16/2020,5050.0,CHEYENNE,DENVER,,DENVER,40.0,N,40.634704444096755,-104.99108555575799,US Airports
1370,AIR EVAC LIFETEAM 30,PR,VILONIA,FAULKNER,AOK,44AR,7/16/2020,470.0,MEMPHIS,MEMPHIS,,JONESBORO,,N,35.083416667230026,-92.20032222174142,US Airports
4836,HILLTOP,PR,SIDNEY,FREMONT,NONE,29IA,7/16/2020,1120.0,OMAHA,MINNEAPOLIS,,FORT DODGE,,N,40.756265277911325,-95.62348055622982,US Airports
139,COLD BAY,PU,COLD BAY,ALEUTIANS EAST,NONE,CDB,7/16/2020,99.5,COLD BAY,ANCHORAGE,PACD,COLD BAY,2213.0,N,55.20591666722781,-162.72625000000957,US Airports
6356,SONGER,PR,VEEDERSBURG,FOUNTAIN,CHI,IN55,7/16/2020,652.0,CHICAGO,CHICAGO,,TERRE HAUTE,,N,40.07920611090447,-87.26112111076019,US Airports
2890,HOPKINS FIELD,PU,NUCLA,MONTROSE,DEN,AIB,7/16/2020,5939.60009766,DENVER,DENVER,KAIB,DENVER,760.0,N,38.238750000279204,-108.56327777803888,US Airports
1824,ST HELENA HOSPITAL CLEARLAKE,PR,CLEARLAKE,LAKE,SFO,CL53,7/16/2020,1434.0,SAN FRANCISCO,OAKLAND,,OAKLAND,,N,38.934569443848225,-122.61937777768556,US Airports
1191,CHEROKEE STRIP,PR,GENTRY,BENTON,AOK,1AR5,7/16/2020,1194.0,KANSAS CITY,MEMPHIS,,JONESBORO,,N,36.29944444391528,-94.5847222222132,US Airports
1169,EUREKA SPRINGS HOSPITAL,PR,EUREKA SPRINGS,CARROLL,AOK,0AR9,7/16/2020,1540.0,MEMPHIS,MEMPHIS,,JONESBORO,,N,36.400136111053236,-93.74367777767954,US Airports
2296,MERCY MEDICAL CENTER,PR,REDDING,SHASTA,SFO,7CA3,7/16/2020,715.0,KLAMATH FALLS,OAKLAND,,RANCHO MURIETA,,N,40.57222222167263,-122.39666666731907,US Airports
2307,SCE RIDGECREST SERVICE CENTER,PR,RIDGECREST,KERN,LAX,CL15,7/16/2020,2288.0,LOS ANGELES,LOS ANGELES,,RIVERSIDE,,N,35.61463888935969,-117.66822222197486,US Airports
4572,WAIMEA-KOHALA,PU,KAMUELA,HAWAII,HNL,MUE,7/16/2020,2671.10009766,HAWAIIAN ISLANDS,HONOLULU CONTROL FACILITY,PHMU,HONOLULU,90.0,N,20.001326944143642,-155.66810722194833,US Airports
3054,DEVILS HOPYARD FIELD,PR,EAST HADDAM,MIDDLESEX,NONE,CT11,7/16/2020,125.0,NEW YORK,BOSTON,,BRIDGEPORT,,N,41.443987222247564,-72.3389719438654,US Airports
4102,JORDANS,PR,ARLINGTON,CALHOUN,ATL,GA22,7/16/2020,250.0,JACKSONVILLE,JACKSONVILLE,,MACON,3.0,N,31.43850861123127,-84.7082513888914,US Airports
4451,SHANNON FLIGHT STRIP,PR,SHANNON,FLOYD,ATL,2GA8,7/16/2020,677.0,ATLANTA,ATLANTA,,MACON,,N,34.34981305626358,-85.07689166659631,US Airports
3346,JIM FINLAY FARM,PR,CRESENT CITY,PUTNAM,ORL,28FL,7/16/2020,40.0,JACKSONVILLE,JACKSONVILLE,,GAINESVILLE,,N,29.44191694370615,-81.58313138860282,US Airports
761,YANKEE CREEK 2,PR,YANKEE CREEK,KUSKOKWIM,NONE,A77,7/16/2020,1120.0,MC GRATH,ANCHORAGE,,KENAI,,N,63.001868055818335,-156.3673602776828,US Airports
4006,PETER O KNIGHT,PU,TAMPA,HILLSBOROUGH,ORL,TPF,7/16/2020,7.4000001,MIAMI,MIAMI,KTPF,SAINT PETERSBURG,107.0,N,27.915444444263255,-82.44938888864007,US Airports
2922,SIMONSON FIELD,PR,PUEBLO,PUEBLO,DEN,80CO,7/16/2020,5130.0,,DENVER,,DENVER,40.0,N,38.15141111100702,-104.70111111130115,US Airports
5858,VISTA MEDICAL CENTER-EAST,PR,WAUKEGAN,LAKE,CHI,7LL2,7/16/2020,624.0,CHICAGO,CHICAGO,,KANKAKEE,,N,42.37769999983447,-87.83340277811267,US Airports
4465,HIA,PR,STATESBORO,BULLOCH,NONE,03GA,7/16/2020,238.0,ATLANTA,JACKSONVILLE,,MACON,85.0,N,32.56230555562535,-81.85769444384316,US Airports
2342,CALAVERAS CO-MAURY RASMUSSEN FIELD,PU,SAN ANDREAS,CALAVERAS,SFO,CPU,7/16/2020,1327.90002441,SAN FRANCISCO,OAKLAND,KCPU,RANCHO MURIETA,93.0,N,38.14611111124895,-120.64816666688824,US Airports
102,CANDLE 2,PR,CANDLE,UNORGANIZED,NONE,AK75,7/16/2020,15.0,NOME,ANCHORAGE,,KOTZEBUE,,N,65.90765805616135,-161.92630583331044,US Airports
2337,NAPA COUNTY FIRE DEPT,PU,ST HELENA,NAPA,SFO,CL39,7/16/2020,308.0,SAN FRANCISCO,OAKLAND,,OAKLAND,,N,38.54849999989077,-122.51073055594735,US Airports
3009,TRANQUILA,PR,YODER,EL PASO,DEN,88CO,7/16/2020,6320.0,DENVER,DENVER,,DENVER,200.0,N,38.88610361065327,-104.24885000014052,US Airports
2110,BANK OF AMERICA DATA CENTER,PR,LOS ANGELES,LOS ANGELES,LAX,62CA,7/16/2020,440.0,LOS ANGELES,LOS ANGELES,,HAWTHORNE,,N,34.061422221858926,-118.25158611123838,US Airports
4825,HEGG MEMORIAL HOSPITAL,PR,ROCK VALLEY,SIOUX,NONE,8IA1,7/16/2020,1268.0,OMAHA,MINNEAPOLIS,,FORT DODGE,,N,43.20121944384277,-96.28355000028121,US Airports
5594,QUAD CITY INTL,PU,MOLINE,ROCK ISLAND,CHI,MLI,7/16/2020,589.59997559,CHICAGO,CHICAGO,KMLI,KANKAKEE,2021.0,Y,41.4482777780484,-90.50752777795488,US Airports
2132,WESTSIDE TOWERS,PR,LOS ANGELES,LOS ANGELES,LAX,CL54,7/16/2020,325.0,LOS ANGELES,LOS ANGELES,,HAWTHORNE,,N,34.03310277796744,-118.45128888872671,US Airports
1455,SAN CARLOS APACHE,PU,GLOBE,GILA,PHX,P13,7/16/2020,3260.80004883,PHOENIX,ALBUQUERQUE,,PRESCOTT,185.0,N,33.35313888873796,-110.66736111089358,US Airports
4910,BURLEY MUNI,PU,BURLEY,CASSIA,HLN,BYI,7/16/2020,4153.5,SALT LAKE CITY,SALT LAKE CITY,KBYI,BOISE,220.0,N,42.54261111117713,-113.7715277778227,US Airports
2032,KERN VALLEY,PU,KERNVILLE,KERN,LAX,L05,7/16/2020,2614.0,LOS ANGELES,LOS ANGELES,,RANCHO MURIETA,270.0,N,35.72822222220909,-118.4197222216951,US Airports
5137,40 ACRE AIRSTRIP,PR,SALMON,LEMHI,NONE,ID52,7/16/2020,4303.0,GREAT FALLS,SALT LAKE CITY,,BOISE,,N,45.15710138877841,-113.80202638930396,US Airports
5897,DICK'S STRIP,PR,ARCOLA,ALLEN,CHI,3II9,7/16/2020,850.0,CHICAGO,CHICAGO,,TERRE HAUTE,5.0,N,41.09726999966495,-85.24219527757106,US Airports
1634,CROSS CUT,PR,TEMPE,MARICOPA,PHX,AZ59,7/16/2020,1180.0,PHOENIX,ALBUQUERQUE,,PRESCOTT,,N,33.441711389370234,-111.95014388938462,US Airports
6232,DIAMOND P FIELD,PR,MUNCIE,DELAWARE,CHI,02IN,7/16/2020,904.0,ST LOUIS,INDIANAPOLIS,,TERRE HAUTE,,N,40.208888889178006,-85.54083333334277,US Airports
2779,GREELEY-WELD COUNTY,PU,GREELEY,WELD,DEN,GXY,7/16/2020,4696.79980469,CHEYENNE,DENVER,KGXY,DENVER,1198.0,N,40.43741666701101,-104.63322222188792,US Airports
2073,LODI MEMORIAL HOSPITAL,PR,LODI,SAN JOAQUIN,SFO,8CL7,7/16/2020,40.0,SAN FRANCISCO,OAKLAND,,RANCHO MURIETA,,N,38.12241666696881,-121.28671944406547,US Airports
5261,CARY FIRE DEPT,PU,CARY,MC HENRY,CHI,6IS1,7/16/2020,830.0,CHICAGO,CHICAGO,,KANKAKEE,4.0,N,42.212523888940375,-88.25230499970651,US Airports
4263,HEART OF GEORGIA RGNL,PU,EASTMAN,DODGE,ATL,EZM,7/16/2020,303.3999939,ATLANTA,JACKSONVILLE,KEZM,MACON,451.0,Y,32.216388888832604,-83.12866666705197,US Airports
5330,DECATUR MEMORIAL HOSPITAL,PR,DECATUR,MACON,CHI,8IS6,7/16/2020,750.0,ST LOUIS,KANSAS CITY,,SAINT LOUIS,,N,39.866941667072936,-88.96146944375344,US Airports
3662,BUCKNER,PR,MC ALPIN,SUWANNEE,ORL,8FD1,7/16/2020,90.0,JACKSONVILLE,JACKSONVILLE,,GAINESVILLE,6.0,N,30.09883833327817,-82.92762833278974,US Airports
4063,WILLISTON MEMORIAL HOSPITAL,PR,WILLISTON,LEVY,ORL,73FL,7/16/2020,45.0,JACKSONVILLE,JACKSONVILLE,,GAINESVILLE,,N,29.38302555582247,-82.45482611078049,US Airports
1768,BURNEY SHERIFF'S STATION,PR,BURNEY,SHASTA,SFO,CA01,7/16/2020,3127.0,SAN FRANCISCO,OAKLAND,,RANCHO MURIETA,,N,40.885125000209825,-121.66941944382664,US Airports
1996,HOLLISTER MUNI,PU,HOLLISTER,SAN BENITO,SFO,CVH,7/16/2020,230.6000061,SAN FRANCISCO,OAKLAND,KCVH,OAKLAND,343.0,N,36.893347500321795,-121.41027361056398,US Airports
2264,SWANSBORO COUNTRY,PR,PLACERVILLE,EL DORADO,SFO,01CL,7/16/2020,2594.0,SAN FRANCISCO,OAKLAND,,RANCHO MURIETA,9.0,N,38.79990222172416,-120.73437555566066,US Airports
3931,ROCKLEDGE,PR,ROCKLEDGE,BREVARD,ORL,21FA,7/16/2020,27.0,JACKSONVILLE,JACKSONVILLE,,SAINT PETERSBURG,21.0,N,28.299086110947613,-80.720780555735,US Airports
4170,CAIRO-GRADY COUNTY,PU,CAIRO,GRADY,ATL,70J,7/16/2020,263.70001221,JACKSONVILLE,JACKSONVILLE,,MACON,251.0,N,30.887972221706196,-84.15472222197823,US Airports
480,ALASKA HELIWORX,PR,PALMER,MATANUSKA-SUSITNA,NONE,AA08,7/16/2020,250.0,ANCHORAGE,ANCHORAGE,,KENAI,,N,61.59472222216371,-149.15388888935945,US Airports
4900,PEACEFUL COVE,PR,BOISE,ADA,HLN,14ID,7/16/2020,2920.0,SALT LAKE CITY,SALT LAKE CITY,,BOISE,10.0,N,43.67065277828676,-116.21123055641651,US Airports
3799,LYKES BRIGHTON,PR,OKEECHOBEE,GLADES,ORL,8FD5,7/16/2020,30.0,MIAMI,MIAMI,,MIAMI,,N,27.188936666823942,-81.0870111107751,US Airports
1560,ABACUS TOWER,PR,PHOENIX,MARICOPA,PHX,AZ41,7/16/2020,1850.0,PHOENIX,ALBUQUERQUE,,PRESCOTT,,N,33.48337611063987,-112.07014833339349,US Airports
1106,TAYLOR,PR,BRICKEYS,LEE,AOK,15AR,7/16/2020,220.0,MEMPHIS,MEMPHIS,,JONESBORO,,N,34.82586111106625,-90.5433333334025,US Airports
348,KOKHANOK,PU,KOKHANOK,LAKE AND PENINSULA,NONE,9K2,7/16/2020,114.69999695,KODIAK,ANCHORAGE,PFKK,ILIAMNA,111.0,N,59.4332861112008,-154.80259166655537,US Airports
3667,BLUE SPRINGS,PR,MADISON,MADISON,ORL,38FA,7/16/2020,95.0,JACKSONVILLE,JACKSONVILLE,,GAINESVILLE,5.0,N,30.483546111375265,-83.24986527839899,US Airports
4730,PICAYUNE,PR,IOWA CITY,JOHNSON,NONE,IA16,7/16/2020,800.0,CHICAGO,CHICAGO,,FORT DODGE,,N,41.70834916689579,-91.50016888880226,US Airports
4291,FORT MCPHERSON,MR,FORT MCPHERSON,FULTON,ATL,GA96,7/16/2020,1052.0,ATLANTA,ATLANTA,,MACON,,N,33.712500000291186,-84.43055555611575,US Airports
4023,UMATILLA MUNI,PU,UMATILLA,LAKE,ORL,X23,7/16/2020,107.0,JACKSONVILLE,JACKSONVILLE,,SAINT PETERSBURG,65.0,N,28.924220832714088,-81.65181249957016,US Airports
1730,BALCH CAMP,PR,BALCH CAMP,FRESNO,SFO,7CA5,7/16/2020,1603.0,SAN FRANCISCO,OAKLAND,,RANCHO MURIETA,,N,36.90658333277899,-119.12847222169749,US Airports
5951,OAKES FIELD,PR,CHARLOTTESVILLE,HANCOCK,CHI,66IN,7/16/2020,935.0,ST LOUIS,INDIANAPOLIS,,TERRE HAUTE,953.0,N,39.787499999754715,-85.63694444401852,US Airports
3435,SOUTHEASTERN,PR,FORT PIERCE,ST LUCIE,ORL,FD30,7/16/2020,23.0,MIAMI,MIAMI,,MIAMI,10.0,N,27.41142888869186,-80.52616583332103,US Airports
3168,FULL THROTTLE FARM,PR,CLAYTON,NEW CASTLE,DCA,23DE,7/16/2020,81.0,WASHINGTON,WASHINGTON,,MILLVILLE,,N,39.31256666729837,-75.72898333280362,US Airports
2413,SANTA ROSA MEMORIAL HOSPITAL,PR,SANTA ROSA,SONOMA,SFO,CL51,7/16/2020,208.0,SAN FRANCISCO,OAKLAND,,OAKLAND,,N,38.443580555697004,-122.70126388886914,US Airports
2877,MOUNTAIN VIEW RANCH,PR,MONUMENT,EL PASO,DEN,52CO,7/16/2020,7500.0,DENVER,DENVER,,DENVER,330.0,N,39.10971111096341,-104.653861110762,US Airports
1238,CULLEN,PR,JONESBORO,ARKANSAS,NONE,7AR9,7/16/2020,255.0,MEMPHIS,MEMPHIS,,FORT DODGE,,N,35.95638055579676,-90.81298333257241,US Airports
847,BARBER MARINA,PR,ELBERTA,BALDWIN,NONE,1AL9,7/16/2020,14.0,NEW ORLEANS,JACKSONVILLE,,ANNISTON,6.0,N,30.31545000023529,-87.57237777797175,US Airports
5321,RAYMOND CLASSEN MEMORIAL,PR,DANFORTH,IROQUOIS,CHI,8IS5,7/16/2020,650.0,CHICAGO,CHICAGO,,KANKAKEE,,N,40.81670083292458,-87.99170722214505,US Airports
6284,SEIB,PR,POSEYVILLE,POSEY,CHI,88IN,7/16/2020,428.0,ST LOUIS,INDIANAPOLIS,,TERRE HAUTE,0.0,N,38.13313888886557,-87.78576388880217,US Airports
4184,FLYING W FARMS,PR,CARROLLTON,CARROLL,ATL,6GA8,7/16/2020,1010.0,ATLANTA,ATLANTA,,MACON,7.0,N,33.507777778254805,-85.18555555567629,US Airports
910,MAC CRENSHAW MEMORIAL,PU,GREENVILLE,BUTLER,JAN,PRN,7/16/2020,451.3999939,NEW ORLEANS,ATLANTA,KPRN,ANNISTON,89.0,N,31.84569444366462,-86.61074999978874,US Airports
3478,KENNEDY,PR,GROVELAND,LAKE,ORL,FD78,7/16/2020,94.0,JACKSONVILLE,JACKSONVILLE,,SAINT PETERSBURG,,N,28.603052778080347,-81.8495222217685,US Airports
3699,BAPTIST HOSPITAL,PR,MIAMI,DADE,ORL,9FA8,7/16/2020,9.0,MIAMI,MIAMI,,MIAMI,1.0,N,25.686075000195025,-80.33847777841606,US Airports
334,KING COVE,PU,KING COVE,ALEUTIANS EAST,NONE,KVC,7/16/2020,155.0,COLD BAY,ANCHORAGE,PAVC,COLD BAY,146.0,N,55.11634722182394,-162.2662472221035,US Airports
629,TOKEEN,PR,TOKEEN,PRINCE OF WALES,NONE,57A,7/16/2020,0.0,KETCHIKAN,ANCHORAGE,,KETCHIKAN,,N,55.9371333329855,-133.3267213893581,US Airports
3980,NESHAMA,PR,STUART,MARTIN,NONE,FD73,7/16/2020,22.0,MIAMI,MIAMI,,MIAMI,0.0,N,27.210900000095055,-80.20962222223464,US Airports
1032,GRIMES FIELD,PR,SEMMES,MOBILE,JAN,AL74,7/16/2020,215.0,NEW ORLEANS,HOUSTON,,ANNISTON,80.0,N,30.764355000382153,-88.30584138904436,US Airports
250,HEALY RIVER,PU,HEALY,DENALI,NONE,HRR,7/16/2020,1275.0,ANCHORAGE,ANCHORAGE,PAHV,FAIRBANKS,1294.0,N,63.86758333316208,-148.9688333330216,US Airports
5391,ENOCH,PR,FINDLAY,SHELBY,CHI,35IS,7/16/2020,676.0,ST LOUIS,KANSAS CITY,,SAINT LOUIS,,N,39.52837055578189,-88.76395972157165,US Airports
6286,COOPER FIELD,PR,REELSVILLE,PUTNAM,CHI,99II,7/16/2020,880.0,ST LOUIS,INDIANAPOLIS,,TERRE HAUTE,,N,39.58349999965542,-86.95252777768617,US Airports
2464,BANNER LASSEN MEDICAL CENTER,PR,SUSANVILLE,LASSEN,SFO,99CN,7/16/2020,4419.0,SAN FRANCISCO,OAKLAND,,RENO,,N,40.43749444366461,-120.62872222203336,US Airports
3398,CORKSCREW TRACE AIRPARK,PR,ESTERO,LEE,ORL,1FD4,7/16/2020,29.0,MIAMI,MIAMI,,MIAMI,200.0,N,26.445356667139414,-81.6073030559436,US Airports
1900,PACIFIC BELL-2300 IMPERIAL HWY,PR,EL SEGUNDO,LOS ANGELES,LAX,32CN,7/16/2020,209.0,LOS ANGELES,LOS ANGELES,,HAWTHORNE,,N,33.93043333324922,-118.38254166714434,US Airports
894,HOOPER STAGEFIELD AHP,MR,FORT RUCKER/OZARK,DALE,JAN,16AL,7/16/2020,365.0,NEW ORLEANS,JACKSONVILLE,,ANNISTON,,N,31.408411110843332,-85.6892444443016,US Airports
1841,BOSWELL,PR,CORCORAN,KINGS,SFO,24CL,7/16/2020,205.19999695,SAN FRANCISCO,OAKLAND,,RANCHO MURIETA,31.0,N,36.08867222168897,-119.54162777758671,US Airports
3582,OSCEOLA SHERIFF'S OFC - BRONSON HWY,PR,KISSIMMEE,OSCEOLA,ORL,19FD,7/16/2020,66.0,JACKSONVILLE,JACKSONVILLE,,SAINT PETERSBURG,,N,28.275099999675163,-81.33649999993627,US Airports
4853,TOLEDO MUNI,PU,TOLEDO,TAMA,NONE,8C5,7/16/2020,960.0,CHICAGO,CHICAGO,,FORT DODGE,10.0,N,41.98823161080194,-92.54798613867283,US Airports
1316,ARKANSAS METHODIST HOSPITAL,PR,PARAGOULD,GREENE,AOK,AR95,7/16/2020,326.0,ST LOUIS,MEMPHIS,,JONESBORO,,N,36.05090222170715,-90.49816194370095,US Airports
3864,FLAGLER EXECUTIVE,PU,PALM COAST,FLAGLER,ORL,FIN,7/16/2020,33.09999847,JACKSONVILLE,JACKSONVILLE,KFIN,GAINESVILLE,1430.0,Y,29.465151111376713,-81.20764888861886,US Airports
3831,ARNOLD PALMER HOSPITAL,PR,ORLANDO,ORANGE,ORL,3FD5,7/16/2020,150.0,JACKSONVILLE,JACKSONVILLE,,SAINT PETERSBURG,1.0,N,28.523122221944945,-81.38019166673548,US Airports
2788,AIR-SPRAYERS NR 2,PR,HARTMAN,PROWERS,DEN,CO73,7/16/2020,3610.0,WICHITA,DENVER,,DENVER,85.0,N,38.10000999987412,-102.21713277804137,US Airports
5655,ST ELIZABETH'S HOSPITAL,PR,O'FALLON,ST CLAIR,NONE,09IL,7/16/2020,546.0,ST LOUIS,KANSAS CITY,,SAINT LOUIS,,N,38.58327777826874,-89.93419444391616,US Airports
5677,PECATONICA FIRE PROTECTION DISTRICT,PR,PECATONICA,WINNEBAGO,CHI,IS58,7/16/2020,774.0,CHICAGO,CHICAGO,,KANKAKEE,,N,42.307222222135735,-89.36249999987504,US Airports
2596,SKYWAGON RANCH,PR,BERTHOUD,LARIMER,NONE,6CO6,7/16/2020,5187.0,CHEYENNE,DENVER,,DENVER,20.0,N,40.31188611115765,-105.14583333332367,US Airports
6318,SHELBYVILLE MUNI,PU,SHELBYVILLE,SHELBY,CHI,GEZ,7/16/2020,802.5,ST LOUIS,INDIANAPOLIS,KGEZ,TERRE HAUTE,550.0,N,39.58313888906856,-85.80480555591222,US Airports
519,RAMPART,PU,RAMPART,YUKON-KOYUKUK,NONE,RMP,7/16/2020,306.70001221,FAIRBANKS,ANCHORAGE,,FAIRBANKS,,N,65.50790000006796,-150.14083333293428,US Airports
1851,FLYING N RANCH,PR,COTTONWOOD,TEHAMA,SFO,CA04,7/16/2020,530.0,KLAMATH FALLS,OAKLAND,,RANCHO MURIETA,,N,40.34626416674804,-122.33889277836066,US Airports
2500,DICK DALE SKYRANCH,PR,TWENTYNINE PALMS,SAN BERNARDINO,LAX,43CL,7/16/2020,1793.0,PHOENIX,LOS ANGELES,,RIVERSIDE,80.0,N,34.20611138871287,-115.99777777801557,US Airports
2428,SHAFTER-MINTER FIELD,PU,SHAFTER,KERN,LAX,MIT,7/16/2020,425.29998779,LOS ANGELES,LOS ANGELES,KMIT,RANCHO MURIETA,1206.0,N,35.50747538909412,-119.19213433288304,US Airports
2481,ASH MOUNTAIN,PR,THREE RIVERS,TULARE,SFO,2CA0,7/16/2020,1690.0,SAN FRANCISCO,OAKLAND,,RANCHO MURIETA,,N,36.486952777754524,-118.84000555632589,US Airports
3970,LAKE JOSEPHINE,PR,SEBRING,HIGHLANDS,ORL,9FL3,7/16/2020,85.0,MIAMI,MIAMI,,SAINT PETERSBURG,,N,27.396944443841573,-81.42666666732283,US Airports
1084,AUGUSTA,PU,AUGUSTA,WOODRUFF,AOK,AR76,7/16/2020,212.0,MEMPHIS,MEMPHIS,,JONESBORO,,N,35.288696667059256,-91.35846166675526,US Airports
963,PRATT LANDING,PR,MADRID,HOUSTON,ORL,7AL7,7/16/2020,184.0,NEW ORLEANS,JACKSONVILLE,,ANNISTON,20.0,N,31.064499999733886,-85.4393888888926,US Airports
1983,JACK NORTHROP FIELD/HAWTHORNE MUNI,PU,HAWTHORNE,LOS ANGELES,LAX,HHR,7/16/2020,65.90000153,LOS ANGELES,LOS ANGELES,KHHR,HAWTHORNE,80.0,Y,33.922861111138374,-118.33508333291776,US Airports
469,MARTIN,PR,PALMER,MATANUSKA-SUSITNA,NONE,AK92,7/16/2020,820.0,ANCHORAGE,ANCHORAGE,,PALMER,,N,61.63801111079329,-149.02891111142623,US Airports
2560,SUTTER COUNTY,PU,YUBA CITY,SUTTER,SFO,O52,7/16/2020,59.59999847,SAN FRANCISCO,OAKLAND,,RANCHO MURIETA,175.0,N,39.12366666722547,-121.60536111092209,US Airports
5206,AERO ESTATES,PR,BELLEVILLE,ST CLAIR,CHI,7IS2,7/16/2020,565.0,ST LOUIS,KANSAS CITY,,SAINT LOUIS,8.0,N,38.52449499999938,-90.05694444396221,US Airports
6122,HOOD FIELD,PR,JAMESTOWN,BOONE,CHI,IN25,7/16/2020,930.0,ST LOUIS,INDIANAPOLIS,,TERRE HAUTE,,N,39.99805555583976,-86.57722222155867,US Airports
5793,RICHARDSON FIELD,PR,SPRING GROVE,MC HENRY,CHI,3LL5,7/16/2020,860.0,CHICAGO,CHICAGO,,KANKAKEE,,N,42.46446361086283,-88.23425555584289,US Airports
3450,AIRREP,PR,FREEPORT,WALTON,NONE,82FA,7/16/2020,14.0,NEW ORLEANS,JACKSONVILLE,,GAINESVILLE,0.0,N,30.4886100000666,-86.1916677782698,US Airports
6173,HAFFNER,PR,LIZTON,HENDRICKS,CHI,II52,7/16/2020,960.0,ST LOUIS,INDIANAPOLIS,,TERRE HAUTE,,N,39.87754416707772,-86.52777833297476,US Airports
4016,NASA SHUTTLE LANDING FACILITY,PU,TITUSVILLE,BREVARD,ORL,TTS,7/16/2020,8.5,JACKSONVILLE,MIAMI,KTTS,SAINT PETERSBURG,500.0,Y,28.614888888684412,-80.69436111131391,US Airports
6075,LAUTZENHISER AIRPARK,PR,HAMILTON,DE KALB,CHI,IN83,7/16/2020,928.0,CHICAGO,CLEVELAND,,TERRE HAUTE,,N,41.50227250020038,-84.93024027802396,US Airports
235,GOODNEWS,PU,GOODNEWS,BETHEL,NONE,GNU,7/16/2020,18.10000038,KODIAK,ANCHORAGE,,KENAI,,N,59.11786111104431,-161.5736666672465,US Airports
2545,INLAND VALLEY MEDICAL CENTER,PR,WILDOMAR,RIVERSIDE,LAX,2CL8,7/16/2020,1327.0,LOS ANGELES,LOS ANGELES,,RIVERSIDE,,N,33.592555555777366,-117.237166666851,US Airports
6000,FRANCISCAN HEALTH DYER,PR,DYER,LAKE,CHI,72II,7/16/2020,727.0,CHICAGO,CHICAGO,,TERRE HAUTE,,N,41.49333333322328,-87.52361111131422,US Airports
5779,HILDRETH AIR PARK,PR,SIDELL,EDGAR,CHI,96IS,7/16/2020,734.0,ST LOUIS,INDIANAPOLIS,,SAINT LOUIS,,N,39.87258472211504,-87.84417500040233,US Airports
942,MILTON,PR,HUNTSVILLE,MORGAN,JAN,4AL8,7/16/2020,639.0,ATLANTA,MEMPHIS,,ANNISTON,,N,34.49054166723297,-86.67343333269184,US Airports
1,ADAK,PU,ADAK ISLAND,ALEUTIANS WEST,NONE,ADK,7/16/2020,19.5,W ALEUTIAN ISLS,ANCHORAGE,PADK,COLD BAY,,N,51.88358205584249,-176.64247991680693,US Airports
3928,RIVER RANCH RESORT,PR,RIVER RANCH,POLK,ORL,2RR,7/16/2020,55.0,MIAMI,MIAMI,,SAINT PETERSBURG,89.0,N,27.779333333228887,-81.20391666709108,US Airports
1180,THUNDER RIDGE RANCH,PR,FLIPPIN,MARION,AOK,45AR,7/16/2020,789.0,KANSAS CITY,MEMPHIS,,JONESBORO,,N,36.367250000310996,-92.64022222174177,US Airports
6015,SHURE,PR,FARMERSBURG,VIGO,CHI,IN57,7/16/2020,550.0,ST LOUIS,INDIANAPOLIS,,TERRE HAUTE,,N,39.261428610905206,-87.4208533326136,US Airports
6043,FRENCH LICK MUNI,PU,FRENCH LICK,ORANGE,CHI,FRH,7/16/2020,792.20001221,ST LOUIS,INDIANAPOLIS,KFRH,TERRE HAUTE,422.0,N,38.50622222189323,-86.63694444407895,US Airports
2332,LAKE PARK HELISTOP,PR,SACRAMENTO,SACRAMENTO,SFO,1CL6,7/16/2020,45.0,SAN FRANCISCO,OAKLAND,,RANCHO MURIETA,2.0,N,38.547666666879685,-121.37718333343685,US Airports
4683,FINLEY HOSPITAL,PR,DUBUQUE,DUBUQUE,NONE,2IA1,7/16/2020,900.0,CHICAGO,CHICAGO,,FORT DODGE,,N,42.49691111080743,-90.68601388904298,US Airports
5734,SWEDISH AMERICAN,PR,ROCKFORD,WINNEBAGO,CHI,09IS,7/16/2020,874.0,CHICAGO,CHICAGO,,KANKAKEE,,N,42.2658638886683,-89.073558333229,US Airports
6264,INDIANA UNIVERSITY HEALTH PAOLI INC,PR,PAOLI,ORANGE,CHI,64IG,7/16/2020,645.0,ST LOUIS,INDIANAPOLIS,,TERRE HAUTE,1.0,N,38.56833333302828,-86.47611111136771,US Airports
778,CLAY COUNTY HOSPITAL,PU,ASHLAND,CLAY,JAN,0AL2,7/16/2020,1040.0,ATLANTA,ATLANTA,,ANNISTON,,N,33.27721666734596,-85.824819443724,US Airports
3567,RLM FARMS,PR,KENANSVILLE,INDIAN RIVER,ORL,FD09,7/16/2020,75.0,MIAMI,MIAMI,,SAINT PETERSBURG,,N,27.81002666696925,-80.85894916655415,US Airports
556,DUFFYS TAVERN,PR,SLANA,VALDEZ-CHITNA-WHITIE,NONE,DDT,7/16/2020,2420.0,ANCHORAGE,ANCHORAGE,,KENAI,,N,62.724611944058836,-143.92051444389173,US Airports
5029,EVERETT II,PR,KETCHUM,BLAINE,HLN,ID30,7/16/2020,6165.0,SALT LAKE CITY,SALT LAKE CITY,,BOISE,1.0,N,43.77212972204481,-114.40643694419008,US Airports
4729,IOWA CITY MUNI,PU,IOWA CITY,JOHNSON,NONE,IOW,7/16/2020,683.59997559,CHICAGO,CHICAGO,KIOW,FORT DODGE,450.0,N,41.63977777823017,-91.54813888904162,US Airports
667,PIPER LANDING,PR,WASILLA,MATANUSKA-SUSITNA,NONE,AK25,7/16/2020,350.0,ANCHORAGE,ANCHORAGE,,KENAI,8.0,N,61.61749999989428,-149.61473888907128,US Airports
4878,ASHLEY,PR,MERIDIAN,ADA,NONE,77ID,7/16/2020,2713.0,SALT LAKE CITY,SALT LAKE CITY,,BOISE,,N,43.52444444402459,-116.4069444439374,US Airports
1819,RECREATION AND CONFERENCE CENTER,PR,CITY OF INDUSTRY,LOS ANGELES,LAX,9CA3,7/16/2020,701.0,LOS ANGELES,LOS ANGELES,,RIVERSIDE,,N,34.020511110724655,-117.92738888896561,US Airports
1296,MOUNT MORIAH FIELD,PR,MURFREESBORO,PIKE,AOK,02AR,7/16/2020,400.0,MEMPHIS,FORT WORTH,,JONESBORO,,N,34.11694444367235,-93.69649999989258,US Airports
1957,DREAMWORKS HELISTOP GLENDALE,PR,GLENDALE,LOS ANGELES,LAX,5CA0,7/16/2020,513.0,LOS ANGELES,LOS ANGELES,,HAWTHORNE,,N,34.158369443969825,-118.28581944425892,US Airports
5583,MAAKS,PR,MIDDLETOWN,LOGAN,CHI,3IL4,7/16/2020,527.0,CHICAGO,CHICAGO,,SAINT LOUIS,,N,40.131399999922465,-89.59319444356139,US Airports
1951,MILLER'S MOTHER LODE,PR,GEORGETOWN,EL DORADO,SFO,29CN,7/16/2020,2400.0,SAN FRANCISCO,OAKLAND,,RANCHO MURIETA,,N,38.84990083303716,-120.83437944375491,US Airports
4993,SIMPSON,PR,GRACE,CARIBOU,HLN,ID62,7/16/2020,5598.0,SALT LAKE CITY,SALT LAKE CITY,,BOISE,36.0,N,42.60825333290868,-111.72856194426228,US Airports
5132,BENEWAH COMMUNITY HOSPITAL,PU,ST MARIES,BENEWAH,HLN,ID14,7/16/2020,2235.0,GREAT FALLS,SEATTLE,,BOISE,,N,47.314497221825555,-116.56776666718355,US Airports
89,BROWN'S HOMESTEAD,PR,BIG LAKE,MATANUSKA-SUSITNA,NONE,95AK,7/16/2020,140.0,ANCHORAGE,ANCHORAGE,,KENAI,,N,61.47261944403663,-149.98246944378624,US Airports
1550,BANNER UNIV MED CENTER,PR,PHOENIX,MARICOPA,PHX,AZ48,7/16/2020,1148.0,PHOENIX,ALBUQUERQUE,,PRESCOTT,,N,33.465043332741004,-112.05792555560046,US Airports
2281,GANSNER FIELD,PU,QUINCY,PLUMAS,SFO,2O1,7/16/2020,3418.60009766,SAN FRANCISCO,OAKLAND,,RANCHO MURIETA,88.0,N,39.943916667097355,-120.94538888883895,US Airports
1555,JOHN C LINCOLN HELISTOP,PR,PHOENIX,MARICOPA,PHX,AZ98,7/16/2020,1285.0,PHOENIX,ALBUQUERQUE,,PRESCOTT,,N,33.568652221909865,-112.07098305604033,US Airports
4905,RED BARON AIRPARK,PR,BOISE,ELMORE,HLN,1ID4,7/16/2020,3259.0,SALT LAKE CITY,SALT LAKE CITY,,BOISE,3.0,N,43.31055555625901,-115.90250000029295,US Airports
1111,CYPRESS CREEK,PR,CABOT,LONOKE,AOK,3AR3,7/16/2020,280.0,MEMPHIS,MEMPHIS,,JONESBORO,,N,35.05958055619655,-92.0820138886171,US Airports
3173,DELAWARE STATE POLICE,PU,DOVER,KENT,HAR,DE02,7/16/2020,50.0,WASHINGTON,WASHINGTON,,MILLVILLE,,N,39.20011194400426,-75.53297972243391,US Airports
1687,VINCENT SUBSTATION,PR,ACTON,LOS ANGELES,LAX,26CN,7/16/2020,3244.0,LOS ANGELES,LOS ANGELES,,RIVERSIDE,,N,34.48674999991007,-118.11589722160765,US Airports
482,PEDRO BAY,PU,PEDRO BAY,LAKE AND PENINSULA,NONE,4K0,7/16/2020,83.90000153,KODIAK,ANCHORAGE,,ILIAMNA,118.0,N,59.796944443942124,-154.12997222169065,US Airports
4167,BUTLER MUNI,PU,BUTLER,TAYLOR,ATL,6A1,7/16/2020,667.0,ATLANTA,ATLANTA,,MACON,183.0,N,32.56823583311409,-84.24668749981993,US Airports
353,KOYUK ALFRED ADAMS,PU,KOYUK,NOME,NONE,KKA,7/16/2020,161.5,NOME,ANCHORAGE,PAKK,NOME,132.0,N,64.93952777798638,-161.1542777779576,US Airports
2251,MESA,PU,PASADENA,LOS ANGELES,LAX,24CA,7/16/2020,1520.0,LOS ANGELES,LOS ANGELES,,HAWTHORNE,,N,34.2056888890307,-118.1737083331582,US Airports
2364,SAN DIEGO INTL,PU,SAN DIEGO,SAN DIEGO,LAX,SAN,7/16/2020,16.79999924,LOS ANGELES,LOS ANGELES,KSAN,SAN DIEGO,663.0,Y,32.73355555580745,-117.18966666696492,US Airports
1856,VOSBURGH AIRFIELD,PR,CUYAMA,SAN LUIS OBISPO,LAX,5CN4,7/16/2020,2200.0,LOS ANGELES,LOS ANGELES,,RANCHO MURIETA,40.0,N,34.92363333308101,-119.57150000010859,US Airports
3681,HURLBURT FIELD,MA,MARY ESTHER,OKALOOSA,ORL,HRT,7/16/2020,38.0,NEW ORLEANS,JACKSONVILLE,KHRT,GAINESVILLE,,Y,30.42891805625012,-86.68880111139626,US Airports
1201,DAVID STANLEY MEMORIAL,PR,GREGORY,WOODRUFF,AOK,36AR,7/16/2020,200.0,MEMPHIS,MEMPHIS,,JONESBORO,,N,35.20638888888577,-91.31888888872145,US Airports
5445,ADKINS RLA,PR,HARVARD,MC HENRY,CHI,8IL0,7/16/2020,855.0,CHICAGO,CHICAGO,,KANKAKEE,,N,42.353140278066526,-88.63740555572335,US Airports
2078,VANDENBERG AFB,MA,LOMPOC,SANTA BARBARA,LAX,VBG,7/16/2020,368.0,LOS ANGELES,LOS ANGELES,KVBG,HAWTHORNE,,Y,34.73733666714518,-120.58431255608208,US Airports
4044,NITV,PR,WELLINGTON,PALM BEACH,ORL,FA59,7/16/2020,18.0,MIAMI,MIAMI,,MIAMI,,N,26.633969443762467,-80.22421111128209,US Airports
3535,BAPTIST MEDICAL CENTER,PR,JACKSONVILLE,DUVAL,ORL,7FD4,7/16/2020,65.0,JACKSONVILLE,JACKSONVILLE,,GAINESVILLE,,N,30.31579500023283,-81.66231750001228,US Airports
6143,PURDUE UNIVERSITY,PU,LAFAYETTE,TIPPECANOE,CHI,LAF,7/16/2020,605.90002441,CHICAGO,CHICAGO,KLAF,TERRE HAUTE,527.0,Y,40.4123055559885,-86.93688888922561,US Airports
4932,COUGAR RANCH,PR,CHALLIS,CUSTER,NONE,D47,7/16/2020,4277.0,GREAT FALLS,SALT LAKE CITY,,BOISE,,N,44.74115277779648,-114.91860833298915,US Airports
5455,LITTLE SISTER,PR,HENNEPIN,PUTNAM,CHI,8IL9,7/16/2020,450.0,CHICAGO,CHICAGO,,KANKAKEE,,N,41.20003638903355,-89.35008888938441,US Airports
6058,OWENS FIELD,PR,GREENCASTLE,PUTNAM,CHI,II29,7/16/2020,840.0,ST LOUIS,INDIANAPOLIS,,TERRE HAUTE,,N,39.61087972186789,-86.75611777756676,US Airports
1751,CLAYTON,PR,BLYTHE,RIVERSIDE,LAX,20CA,7/16/2020,261.0,PHOENIX,LOS ANGELES,,RIVERSIDE,18.0,N,33.60365833273292,-114.64456111104623,US Airports
3186,MCKEOWN,PR,MIDDLETOWN,KENT,HAR,1DE5,7/16/2020,60.0,WASHINGTON,WASHINGTON,,MILLVILLE,16.0,N,39.495555555827124,-75.73333333293881,US Airports
409,DOG FISH BAY,PR,NANWALEK,ANCHORAGE,NONE,AK07,7/16/2020,10.0,KODIAK,ANCHORAGE,,HOMER,9.0,N,59.24099916696992,-151.87711527801554,US Airports
978,MAXWELL AFB,MA,MONTGOMERY,MONTGOMERY,JAN,MXF,7/16/2020,170.80000305,ATLANTA,ATLANTA,KMXF,ANNISTON,,Y,32.38294444385296,-86.36577777789236,US Airports
171,WINGSONG ESTATES,PR,DELTA JUNCTION,FAIRBANKS NORTH STAR,NONE,AK09,7/16/2020,1100.0,FAIRBANKS,ANCHORAGE,,FAIRBANKS,10.0,N,64.04960666688784,-145.50232416692577,US Airports
5899,RILEY FLD,PR,ATTICA,FOUNTAIN,CHI,4IN7,7/16/2020,608.0,CHICAGO,CHICAGO,,TERRE HAUTE,65.0,N,40.300870278128755,-87.22917638863957,US Airports
6023,ST JOSEPH MEDICAL CENTER,PR,FORT WAYNE,ALLEN,CHI,13II,7/16/2020,845.0,CHICAGO,CHICAGO,,TERRE HAUTE,,N,41.078738888803585,-85.14918333306596,US Airports
3682,GRASS ROOTS AIRPARK,PR,MASCOTTE,LAKE,ORL,06FD,7/16/2020,105.0,JACKSONVILLE,JACKSONVILLE,,GAINESVILLE,104.0,N,28.641666666934718,-81.88499999993526,US Airports
1212,SKARDA/TOLLVILLE,PR,HAZEN,PRAIRIE,AOK,21AR,7/16/2020,218.0,MEMPHIS,MEMPHIS,,JONESBORO,,N,34.71759166725533,-91.53901944380554,US Airports
3991,BANNERMAN,PR,TALLAHASSEE,ALACHUA,ORL,82FL,7/16/2020,219.0,JACKSONVILLE,JACKSONVILLE,,GAINESVILLE,0.0,N,30.562422222111433,-84.22129166680044,US Airports
6064,HANCOCK MEMORIAL HOSPITAL,PR,GREENFIELD,HANCOCK,CHI,8IN4,7/16/2020,902.0,ST LOUIS,INDIANAPOLIS,,TERRE HAUTE,,N,39.79562222227349,-85.76726388939706,US Airports
4715,KOCH FIELD,PR,HUDSON,BLACK HAWK,NONE,11IA,7/16/2020,988.0,CHICAGO,CHICAGO,,FORT DODGE,,N,42.349872222301705,-92.51339166673844,US Airports
524,KAKO,PR,RUSSIAN MISSION,KUSILVAK,NONE,9AK2,7/16/2020,300.0,MC GRATH,ANCHORAGE,,KENAI,,N,61.89900000016505,-161.4397222223542,US Airports
4038,MIKE'S AG AIR,PR,WALNUT HILL,ESCAMBIA,ORL,49FL,7/16/2020,210.0,NEW ORLEANS,JACKSONVILLE,,GAINESVILLE,3.0,N,30.977126944088617,-87.49498138908598,US Airports
1159,BILLY FREE MUNI,PU,DUMAS,DESHA,AOK,0M0,7/16/2020,164.19999695,MEMPHIS,MEMPHIS,,JONESBORO,73.0,N,33.88452777774142,-91.53427777820646,US Airports
2310,RIO VISTA MUNI,PU,RIO VISTA,SOLANO,SFO,O88,7/16/2020,22.60000038,SAN FRANCISCO,OAKLAND,,RANCHO MURIETA,273.0,N,38.193388888966844,-121.70363888889287,US Airports
2513,BLACKINTON,PR,VALLEY CENTER,SAN DIEGO,LAX,2CA4,7/16/2020,1156.0,LOS ANGELES,LOS ANGELES,,SAN DIEGO,,N,33.25892388883094,-117.09225333330048,US Airports
583,STONY RIVER 2,PU,STONY RIVER,BETHEL,NONE,SRV,7/16/2020,230.0,MC GRATH,ANCHORAGE,,KENAI,8.0,N,61.789749999961046,-156.58852777786225,US Airports
2977,NORTH SUBURBAN MEDICAL CENTER,PR,THORNTON,ADAMS,DEN,CD22,7/16/2020,5333.0,DENVER,DENVER,,DENVER,26.0,N,39.86331388929227,-104.98649166661643,US Airports
763,COAL CREEK,PU,YUKON CHARLEY RIVERS,UPPER YUKON,NONE,L20,7/16/2020,867.0,DAWSON,ANCHORAGE,,FAIRBANKS,,N,65.31152083300582,-143.13411944355374,US Airports
4377,KENNESTONE,PR,MARIETTA,COBB,ATL,56GA,7/16/2020,1215.0,ATLANTA,ATLANTA,,MACON,,N,33.967608333090055,-84.55140277796463,US Airports
3073,GROTON-NEW LONDON,PU,GROTON (NEW LONDON),NEW LONDON,NONE,GON,7/16/2020,9.10000038,NEW YORK,BOSTON,KGON,BRIDGEPORT,489.0,Y,41.33005555598543,-72.04513888941187,US Airports
1925,SILVER CREEK RANCH,PR,FOREST GLEN,TRINITY,SFO,41CA,7/16/2020,2511.0,KLAMATH FALLS,OAKLAND,,RANCHO MURIETA,,N,40.31764666731225,-123.25391361140738,US Airports
1006,ST CLAIR COUNTY,PU,PELL CITY,ST CLAIR,JAN,PLR,7/16/2020,485.0,ATLANTA,ATLANTA,KPLR,ANNISTON,200.0,N,33.558833332708495,-86.24905555604776,US Airports
2211,SOUTHEAST SUPERIOR COURT,PU,NORWALK,LOS ANGELES,LAX,83L,7/16/2020,235.0,LOS ANGELES,LOS ANGELES,,HAWTHORNE,,N,33.914527777716366,-118.07166666714755,US Airports
2118,GARLAND CENTER,PR,LOS ANGELES,LOS ANGELES,LAX,CL32,7/16/2020,430.0,LOS ANGELES,LOS ANGELES,,HAWTHORNE,,N,34.05096388869479,-118.2656333332375,US Airports
6178,LOWELL,PR,LOWELL,LAKE,CHI,C97,7/16/2020,675.0,CHICAGO,CHICAGO,,TERRE HAUTE,19.0,N,41.23013888915294,-87.50769444400491,US Airports
2941,VANTAGE VIEW,PR,RUSH,EL PASO,DEN,7CO6,7/16/2020,5780.0,DENVER,DENVER,,DENVER,,N,38.760277777825785,-104.10138888903569,US Airports
1597,SAN MANUEL,PU,SAN MANUEL,PINAL,PHX,E77,7/16/2020,3271.80004883,PHOENIX,ALBUQUERQUE,,PRESCOTT,54.0,N,32.636440277792886,-110.6472876665751,US Airports
5142,RAPOPORT RANCH,PR,SANDPOINT,BONNER,HLN,68ID,7/16/2020,2170.0,GREAT FALLS,SEATTLE,,BOISE,21.0,N,48.25000000023824,-116.46666666735602,US Airports
1407,MONTEZUMA,PR,CAMP VERDE,YAVAPAI,PHX,19AZ,7/16/2020,3370.0,PHOENIX,ALBUQUERQUE,,PRESCOTT,,N,34.60502361121677,-111.86515166715488,US Airports
116,CHATHAM,PR,CHATHAM,SITKA,NONE,05AA,7/16/2020,0.0,JUNEAU,ANCHORAGE,,SITKA,,N,57.51493833310068,-134.9462150001831,US Airports
2105,CITY NATIONAL PLAZA,PR,LOS ANGELES,LOS ANGELES,LAX,87CL,7/16/2020,980.0,LOS ANGELES,LOS ANGELES,,HAWTHORNE,,N,34.051469443944065,-118.25704999986803,US Airports
5226,NOLAND FARMS RLA,PR,BLUE MOUND,CHRISTIAN,CHI,3IS3,7/16/2020,602.0,ST LOUIS,KANSAS CITY,,SAINT LOUIS,,N,39.73914444383473,-89.14717361067592,US Airports
3318,HARTZOG FIELD,PR,CHIPLEY,WASHINGTON,ORL,FD94,7/16/2020,125.0,NEW ORLEANS,JACKSONVILLE,,GAINESVILLE,,N,30.71888888931402,-85.60666666718015,US Airports
5169,THE LAST RESORT,PR,WEIPPE,CLEARWATER,HLN,3ID2,7/16/2020,3155.0,SEATTLE,SEATTLE,,BOISE,,N,46.35067500009173,-115.97699999971714,US Airports
4227,PETTY FARMS,PR,CRANDALL,MURRAY,ATL,2GE7,7/16/2020,760.0,ATLANTA,ATLANTA,,MACON,,N,34.958055556066,-84.77916666656421,US Airports
4501,STONEWALL,PU,UNION CITY,FULTON,ATL,3GA4,7/16/2020,1020.0,ATLANTA,ATLANTA,,MACON,,N,33.60094416714746,-84.54909694366582,US Airports
5821,LIANNIMAL'S LANDING,PR,THOMASBORO,CHAMPAIGN,CHI,56IS,7/16/2020,690.0,ST LOUIS,CHICAGO,,SAINT LOUIS,,N,40.2430897217554,-88.08281861088501,US Airports
4340,READDICK FIELD,PR,KINGSLAND,CAMDEN,ATL,GA36,7/16/2020,20.0,JACKSONVILLE,JACKSONVILLE,,MACON,,N,30.766890277930123,-81.71665277820028,US Airports
5719,BLESSING HOSPITAL,PR,QUINCY,ADAMS,CHI,0IS8,7/16/2020,625.0,KANSAS CITY,KANSAS CITY,,SAINT LOUIS,,N,39.93602499992569,-91.39863333272439,US Airports
684,ST JOHN HOMESTEAD,PR,WASILLA,MATANUSKA-SUSITNA,NONE,4AK2,7/16/2020,250.0,ANCHORAGE,ANCHORAGE,,KENAI,,N,61.55798888911037,-149.42407777798687,US Airports
731,WILLOW SPB,PU,WILLOW,MATANUSKA-SUSITNA,NONE,2X2,7/16/2020,200.0,ANCHORAGE,ANCHORAGE,,KENAI,,N,61.74344444388103,-150.05969444399727,US Airports
4076,JACK BROWNS,PR,WINTER HAVEN,POLK,ORL,F57,7/16/2020,140.0,JACKSONVILLE,MIAMI,,SAINT PETERSBURG,8.0,N,28.05750000000534,-81.76280555579017,US Airports
1291,BAXTER COUNTY SHERIFFS,PU,MOUNTAIN HOME,BAXTER,AOK,42AR,7/16/2020,773.0,KANSAS CITY,MEMPHIS,,JONESBORO,2.0,N,36.334222221940145,-92.38622222229417,US Airports
1883,DUNSMUIR MUNI-MOTT,PU,DUNSMUIR,SISKIYOU,SFO,1O6,7/16/2020,3261.39990234,KLAMATH FALLS,OAKLAND,,RANCHO MURIETA,126.0,N,41.262919444191674,-122.2720375003948,US Airports
218,TIN CREEK,PU,FAREWELL LAKE,KUSKOKWIM,NONE,TNW,7/16/2020,1185.0,MC GRATH,ANCHORAGE,PAFL,KENAI,12.0,N,62.53212222197651,-153.6127888893763,US Airports
277,MORVRO LAKE,PR,HOUSTON,MATANUSKA-SUSITNA,NONE,80AK,7/16/2020,300.0,ANCHORAGE,ANCHORAGE,,KENAI,,N,61.60196944399346,-149.78418055616467,US Airports
2232,LAKE OROVILLE LANDING AREA,PU,OROVILLE,BUTTE,SFO,O06,7/16/2020,900.0,SAN FRANCISCO,OAKLAND,,RANCHO MURIETA,8000.0,N,39.566552778234424,-121.46774583267359,US Airports
2623,SKY HAVEN,PR,BYERS,ARAPAHOE,DEN,CO17,7/16/2020,5215.0,DENVER,DENVER,,DENVER,,N,39.713592778005776,-104.19384638885586,US Airports
6163,REINOEHL FIELD,PR,LENA,PARKE,CHI,49II,7/16/2020,800.0,ST LOUIS,INDIANAPOLIS,,TERRE HAUTE,,N,39.609765556129126,-87.01529055579638,US Airports
1069,EMERALD MOUNTAIN,PR,WETUMPKA,ELMORE,JAN,2AL3,7/16/2020,365.0,ATLANTA,ATLANTA,,ANNISTON,,N,32.45541416737815,-86.1191666668967,US Airports
3859,COLUMBIA PUTNAM COMMUNITY HOSPITAL,PR,PALATKA,PUTNAM,ORL,30FL,7/16/2020,59.0,JACKSONVILLE,JACKSONVILLE,,GAINESVILLE,,N,29.643538888830797,-81.6929055558481,US Airports
4312,BEAVERBROOK AERODROME,PR,GRIFFIN,SPALDING,ATL,10GA,7/16/2020,910.0,ATLANTA,ATLANTA,,MACON,90.0,N,33.32511388913553,-84.29825666672045,US Airports
2809,INDIAN HILLS/FIRE DEPARTMENT,PU,INDIAN HILLS,JEFFERSON,DEN,9CO4,7/16/2020,7310.0,DENVER,DENVER,,DENVER,,N,39.63668611122423,-105.26718611084478,US Airports
3906,FLANDERS FIELD,PR,POLK CITY,POLK,ORL,4FD7,7/16/2020,131.0,JACKSONVILLE,JACKSONVILLE,,SAINT PETERSBURG,10.0,N,28.206402500277687,-81.82785611116368,US Airports
1523,PALOMA RANCH,PR,PALOMA,MARICOPA,PHX,29AZ,7/16/2020,737.0,PHOENIX,ALBUQUERQUE,,PRESCOTT,125.0,N,32.905603333312364,-112.90016944417621,US Airports
6107,EAGLE CREEK AIRPARK,PU,INDIANAPOLIS,MARION,CHI,EYE,7/16/2020,822.5,ST LOUIS,INDIANAPOLIS,KEYE,TERRE HAUTE,315.0,N,39.83071741715134,-86.29438574992524,US Airports
5697,READ,PR,PIPER CITY,FORD,CHI,LL46,7/16/2020,663.0,CHICAGO,CHICAGO,,COLUMBIA,,N,40.83531194403225,-88.15282416736453,US Airports
3763,MASSEY RANCH AIRPARK,PR,NEW SMYRNA BEACH,VOLUSIA,ORL,X50,7/16/2020,10.60000038,JACKSONVILLE,JACKSONVILLE,,SAINT PETERSBURG,12.0,N,28.978916666808843,-80.92477777794808,US Airports
2645,WINDY PLAINS,PR,CHEYENNE WELLS,CHEYENNE,DEN,5CO0,7/16/2020,4184.0,DENVER,DENVER,,DENVER,80.0,N,38.82972222232025,-102.29888888863033,US Airports
4516,WARNER ROBINS AIR PARK,PR,WARNER ROBINS,HOUSTON,ATL,5A2,7/16/2020,409.0,ATLANTA,ATLANTA,,MACON,39.0,N,32.560638889150496,-83.67674999967612,US Airports
3814,MANATEE,PR,OLD TOWN,DIXIE,ORL,FD80,7/16/2020,7.0,JACKSONVILLE,JACKSONVILLE,,GAINESVILLE,60.0,N,29.505833333029933,-82.98388888927785,US Airports
2496,TURLOCK AIRPARK,PR,TURLOCK,STANISLAUS,SFO,9CL0,7/16/2020,100.0,SAN FRANCISCO,OAKLAND,,RANCHO MURIETA,62.0,N,37.47076833308329,-120.84409388901777,US Airports
3231,FLYING TEN,PR,ARCHER,ALACHUA,ORL,0J8,7/16/2020,90.0,JACKSONVILLE,JACKSONVILLE,,GAINESVILLE,55.0,N,29.618916667096922,-82.50877777779945,US Airports
2382,REGIONAL MEDICAL CENTER SAN JOSE H2,PR,SAN JOSE,SANTA CLARA,SFO,88CA,7/16/2020,120.0,SAN FRANCISCO,OAKLAND,,OAKLAND,,N,37.361447222141024,-121.84844444437222,US Airports
5293,CHICAGO EXECUTIVE,PU,CHICAGO/PROSPECT HEIGHTS/WHEELING,COOK,CHI,PWK,7/16/2020,646.79998779,CHICAGO,CHICAGO,KPWK,KANKAKEE,411.0,Y,42.1142777778576,-87.9015277780202,US Airports
5070,KING MOUNTAIN GLIDER PARK,PR,MOORE,BUTTE,HLN,ID36,7/16/2020,5500.0,SALT LAKE CITY,SEATTLE,,BOISE,19.0,N,43.76305555574254,-113.34388888942348,US Airports
5645,MAAS AIRSTRIP,PR,NEW BOSTON,MERCER,CHI,69LL,7/16/2020,534.0,CHICAGO,CHICAGO,,KANKAKEE,,N,41.286974443907184,-91.04875805641426,US Airports
2396,ORANGE COUNTY GLOBAL MEDICAL CENTER,PR,SANTA ANA,ORANGE,LAX,1CN1,7/16/2020,178.0,LOS ANGELES,LOS ANGELES,,RIVERSIDE,,N,33.75491666694891,-117.83275000025954,US Airports
2909,BRAUN,PR,PENROSE,FREMONT,DEN,32CO,7/16/2020,5543.0,DENVER,DENVER,,DENVER,80.0,N,38.45527666674059,-105.08387416740537,US Airports
5843,HOLZWARTH FLYING SERVICE,PR,VIRDEN,MACOUPIN,CHI,25IL,7/16/2020,681.0,ST LOUIS,KANSAS CITY,,SAINT LOUIS,,N,39.51644583312782,-89.86967361069263,US Airports
2063,LINCOLN RGNL/KARL HARDER FIELD,PU,LINCOLN,PLACER,SFO,LHM,7/16/2020,121.40000153,SAN FRANCISCO,OAKLAND,KLHM,RANCHO MURIETA,725.0,N,38.9091666666994,-121.35133333287096,US Airports
3550,HAMILTON HELISTOP,PU,JASPER,HAMILTON,ORL,FA15,7/16/2020,152.0,JACKSONVILLE,JACKSONVILLE,,GAINESVILLE,,N,30.52327222197802,-82.956523611389,US Airports
1444,REGENERATION,PR,FORT THOMAS,GRAHAM,PHX,5AZ9,7/16/2020,2750.0,PHOENIX,ALBUQUERQUE,,PRESCOTT,,N,33.03277777791631,-109.98749999977383,US Airports
5001,MAGIC RESERVOIR,PU,HAILEY,CAMAS,HLN,U93,7/16/2020,4844.0,SALT LAKE CITY,SALT LAKE CITY,,BOISE,20.0,N,43.280666666916524,-114.39638888888521,US Airports
2777,ST MARY'S HOSPITAL & MEDICAL CENTER,PR,GRAND JUNCTION,MESA,DEN,29CO,7/16/2020,4830.0,DENVER,DENVER,,DENVER,4830.0,N,39.089866667309,-108.56278333273009,US Airports
1809,BODAD,PR,CHILCOOT,PLUMAS,SFO,CA11,7/16/2020,5909.0,SAN FRANCISCO,OAKLAND,,RENO,,N,39.997213888964964,-120.21685694423454,US Airports
2660,MCHD,PU,CORTEZ,MONTEZUMA,DEN,1CO9,7/16/2020,6145.0,DENVER,DENVER,,DENVER,30.0,N,37.363002833075576,-108.57457099983715,US Airports
3418,VILLA CHAR MAR,PR,FORT MEADE,POLK,ORL,1FA9,7/16/2020,134.0,MIAMI,MIAMI,,SAINT PETERSBURG,40.0,N,27.785000000380958,-81.65111111116602,US Airports
6220,LEWIS,PR,MOUNT VERNON,POSEY,CHI,22II,7/16/2020,370.0,ST LOUIS,INDIANAPOLIS,,TERRE HAUTE,,N,37.91698666724423,-87.76113249963159,US Airports
3510,MOTORSPORTS COMPLEX VIP,PR,HOMESTEAD,DADE,ORL,FD17,7/16/2020,6.0,MIAMI,MIAMI,,MIAMI,3.0,N,25.448308333027455,-80.41009166690218,US Airports
5243,HUNTER RAFFETY ELEVATORS INC,PR,CAIRO,ALEXANDER,CHI,92IL,7/16/2020,323.0,ST LOUIS,MEMPHIS,,COLUMBIA,,N,37.038939167173346,-89.32091027765291,US Airports
1619,TRI-ROTOR AG SERVICES,PR,SOMERTON,YUMA,NONE,AZ25,7/16/2020,126.0,,LOS ANGELES,,PRESCOTT,20.0,N,32.55705000036747,-114.67894722234375,US Airports
3286,BRIGHTON HELIPAD,PR,BRIGHTON,OKEECHOBEE,NONE,0FA3,7/16/2020,23.5,MIAMI,MIAMI,,MIAMI,,N,27.075833332950126,-81.07116666711629,US Airports
6200,SHAFFER,PR,MERRIAM,NOBLE,CHI,9II0,7/16/2020,940.0,CHICAGO,CHICAGO,,TERRE HAUTE,3.0,N,41.282547222322144,-85.43859055609961,US Airports
3378,ADVENT HEALTH DELAND,PU,DE LAND,VOLUSIA,ORL,2FD9,7/16/2020,78.0,MIAMI,JACKSONVILLE,,SAINT PETERSBURG,,N,29.04463055578944,-81.3178388887041,US Airports
995,ST VINCENT'S BLT,PR,ONEONTA,BLOUNT,JAN,4AL2,7/16/2020,810.0,ATLANTA,ATLANTA,,ANNISTON,0.0,N,33.929722222028765,-86.49472222237115,US Airports
2528,JOHN MUIR WALNUT CREEK MEDICAL CENTER,PR,WALNUT CREEK,CONTRA COSTA,SFO,CA63,7/16/2020,284.0,SAN FRANCISCO,OAKLAND,,OAKLAND,,N,37.91277777830052,-122.04166666670476,US Airports
3041,ULTIMATE,PR,BRISTOL,HARTFORD,NONE,CT60,7/16/2020,253.0,NEW YORK,BOSTON,,BRIDGEPORT,,N,41.67515833308218,-72.89108888908335,US Airports
4392,BECKER,PR,MONROE,WALTON,ATL,6GA2,7/16/2020,735.0,ATLANTA,ATLANTA,,MACON,9.0,N,33.76638888878439,-83.76305555615629,US Airports
3154,US PARK POLICE EAGLE'S NEST,PU,WASHINGTON,WASHINGTON,DCA,DC03,7/16/2020,14.0,WASHINGTON,WASHINGTON,,LEESBURG,,N,38.8665011107103,-76.99275333298493,US Airports
2954,CHAPMAN FIELD,PR,SOUTH FORK,RIO GRANDE,DEN,CD10,7/16/2020,8100.0,DENVER,DENVER,,DENVER,90.0,N,37.67500333300627,-106.55615222160847,US Airports
2591,HARRINGTON RANCH,PR,BENNET,ARAPAHOE,DEN,CO02,7/16/2020,5975.0,DENVER,DENVER,,DENVER,,N,39.62970833305993,-104.51857666692665,US Airports
5298,ADVOCATE CHRIST MEDICAL CENTER,PR,CHICAGO/OAK LAWN/,COOK,CHI,IL77,7/16/2020,669.0,CHICAGO,CHICAGO,,KANKAKEE,,N,41.723158333286825,-87.73280555636649,US Airports
1402,WESTERN ARIZONA RGNL MEDICAL CENTER,PR,BULLHEAD CITY,MOHAVE,PHX,22AZ,7/16/2020,925.0,PHOENIX,LOS ANGELES,,PRESCOTT,,N,35.11135833319353,-114.554291667408,US Airports
3461,SHANDS HELISTOP,PR,GAINESVILLE,ALACHUA,ORL,FA12,7/16/2020,334.0,JACKSONVILLE,JACKSONVILLE,,GAINESVILLE,,N,29.63913416737038,-82.34538222172581,US Airports
1423,DOUBLE CIRCLE RANCH,PR,CLIFTON,GREENLEE,NONE,AZ66,7/16/2020,4863.0,PHOENIX,ALBUQUERQUE,,PRESCOTT,,N,33.34054722204875,-109.49446527774188,US Airports
309,KASILOF,PU,KASILOF,KENAI PENINSULA,NONE,5KS,7/16/2020,125.0,ANCHORAGE,ANCHORAGE,,KENAI,160.0,N,60.3505208329011,-151.26285638936338,US Airports
2948,SALIDA HOSPITAL,PR,SALIDA,CHAFFEE,DEN,6CO9,7/16/2020,7050.0,DENVER,DENVER,,DENVER,,N,38.54384166672234,-106.00908333307848,US Airports
1570,FLYING J RANCH,PR,PIMA,GRAHAM,PHX,E37,7/16/2020,3114.0,PHOENIX,ALBUQUERQUE,,PRESCOTT,280.0,N,32.84784333323921,-109.88174805628118,US Airports
1940,FRESNO CHANDLER EXECUTIVE,PU,FRESNO,FRESNO,SFO,FCH,7/16/2020,279.79998779,SAN FRANCISCO,OAKLAND,KFCH,RANCHO MURIETA,200.0,N,36.732124167308285,-119.82033250017314,US Airports
4698,FORT DODGE RGNL,PU,FORT DODGE,WEBSTER,NONE,FOD,7/16/2020,1156.30004883,OMAHA,MINNEAPOLIS,KFOD,FORT DODGE,967.0,N,42.55119444419064,-94.19183333287017,US Airports
3960,SCHWARTZ FARMS INC,PR,SARASOTA,SARASOTA,ORL,4FL8,7/16/2020,53.0,MIAMI,MIAMI,,SAINT PETERSBURG,,N,27.343656388801787,-82.31731444421682,US Airports
2249,PARADISE SKYPARK,PR,PARADISE,BUTTE,SFO,CA92,7/16/2020,1300.0,SAN FRANCISCO,OAKLAND,,RANCHO MURIETA,35.0,N,39.71055555594636,-121.61650000035792,US Airports
4808,MIDDLEKOOP,PR,PACKWOOD,JEFFERSON,NONE,04IA,7/16/2020,801.0,CHICAGO,CHICAGO,,FORT DODGE,6.0,N,41.08835027828189,-92.05462027786422,US Airports
5879,FINNEY'S AIRPARK,PR,ALBANY,DELAWARE,CHI,II77,7/16/2020,965.0,CHICAGO,INDIANAPOLIS,,TERRE HAUTE,,N,40.259486943780544,-85.26052555635206,US Airports
3913,ST JOSEPH HOSPITAL,PR,PORT CHARLOTTE,CHARLOTTE,ORL,FA01,7/16/2020,13.0,MIAMI,MIAMI,,SAINT PETERSBURG,,N,26.993680556247003,-82.09521388910457,US Airports
3099,RONDO,PR,NANGATUCK,NEW HAVEN,NONE,5CT1,7/16/2020,530.0,NEW YORK,NEW YORK,,BRIDGEPORT,,N,41.50842999976809,-73.0373294439403,US Airports
742,LONG LAKE,PR,WILLOW,MATANUSKA-SUSITNA,NONE,AK57,7/16/2020,180.0,ANCHORAGE,ANCHORAGE,,KENAI,,N,61.725650000139986,-150.09121111080017,US Airports
5626,MAYHALL,PR,MURDOCK,DOUGLAS,CHI,5LL3,7/16/2020,643.0,ST LOUIS,INDIANAPOLIS,,SAINT LOUIS,7.0,N,39.76947777775124,-88.0953169441965,US Airports
2672,LA GARITA CREEK RANCH,PR,LA GARITA,SAGUACHE,NONE,5CO6,7/16/2020,8050.0,DENVER,DENVER,,DENVER,470.0,N,37.81155277784981,-106.3152722219883,US Airports
1545,SOUTHERN COMMAND POLICE STATION,PR,PHOENIX,MARICOPA,PHX,5AZ2,7/16/2020,1085.0,PHOENIX,ALBUQUERQUE,,PRESCOTT,,N,33.40694444429351,-112.07222222178767,US Airports
2677,DELTA COUNTY MEMORIAL HOSPITAL,PR,DELTA,DELTA,DEN,0CD0,7/16/2020,5000.0,ALBUQUERQUE,DENVER,,DENVER,,N,38.74510277784071,-108.04812777787858,US Airports
2015,CAMANCHE SKYPARK,PR,IONE,AMADOR,SFO,CA19,7/16/2020,520.0,SAN FRANCISCO,OAKLAND,,RANCHO MURIETA,,N,38.26380527767743,-120.92327250039293,US Airports
3911,PORT CANAVERAL HELIPORT,PR,PORT CANAVERAL,BREVARD,NONE,FA90,7/16/2020,10.0,JACKSONVILLE,MIAMI,,SAINT PETERSBURG,4.0,N,28.40525555610297,-80.61866944366473,US Airports
5794,ST MARGARETS HOSPITAL,PR,SPRING VALLEY,BUREAU,CHI,3LL7,7/16/2020,625.0,CHICAGO,CHICAGO,,KANKAKEE,,N,41.32975555577996,-89.19121944366582,US Airports
5174,REED RANCH,PU,YELLOW PINE,VALLEY,HLN,I92,7/16/2020,4157.0,GREAT FALLS,SALT LAKE CITY,,BOISE,,N,44.89166666693179,-115.71305555575121,US Airports
4961,CRAIGMONT MUNI,PU,CRAIGMONT,LEWIS,HLN,S89,7/16/2020,3805.0,GREAT FALLS,SEATTLE,,BOISE,80.0,N,46.24772222199988,-116.47936111097887,US Airports
6324,SHERIDAN,PR,SHERIDAN,HAMILTON,CHI,5I4,7/16/2020,936.0,CHICAGO,CHICAGO,,TERRE HAUTE,126.0,N,40.17815555629439,-86.21706944405044,US Airports
6,AKUTAN,PU,AKUTAN,ALEUTIANS EAST,NONE,KQA,7/16/2020,0.0,DUTCH HARBOR,ANCHORAGE,,COLD BAY,,N,54.1339000001289,-165.77838333334432,US Airports
1729,PARADISE LAKES,PR,BAKERSFIELD,KERN,LAX,7CA2,7/16/2020,340.0,LOS ANGELES,LOS ANGELES,,RANCHO MURIETA,,N,35.17666666728596,-118.92722222189643,US Airports
3109,NORDEN SYSTEMS,PR,NORWALK,FAIRFIELD,NONE,1CT0,7/16/2020,60.0,NEW YORK,NEW YORK,,BRIDGEPORT,,N,41.11287444396225,-73.38817388925428,US Airports
6339,LAKE WAWASEE,PU,SYRACUSE,KOSCIUSKO,CHI,01D,7/16/2020,859.0,CHICAGO,CHICAGO,,TERRE HAUTE,,N,41.403611111211035,-85.70611111056661,US Airports
4712,HAMPTON MUNI,PU,HAMPTON,FRANKLIN,NONE,HPT,7/16/2020,1176.30004883,OMAHA,MINNEAPOLIS,KHPT,FORT DODGE,78.0,N,42.72369444369171,-93.2263333334173,US Airports
4604,ALLISON MUNI,PU,ALLISON,BUTLER,NONE,K98,7/16/2020,1053.0,CHICAGO,CHICAGO,,FORT DODGE,19.0,N,42.76386527782435,-92.80436111125512,US Airports
5983,VAN DE MARK,PR,CULVER,STARKE,CHI,1II5,7/16/2020,730.0,CHICAGO,CHICAGO,,TERRE HAUTE,,N,41.24726416721134,-86.50306500038229,US Airports
874,BARIN NOLF,MN,FOLEY,BALDWIN,JAN,NBJ,7/16/2020,50.79999924,NEW ORLEANS,JACKSONVILLE,KNBJ,ANNISTON,,N,30.390313861144655,-87.63156008336186,US Airports
3013,YUMA DISTRICT HOSPITAL,PR,YUMA,YUMA,NONE,8CD0,7/16/2020,4153.0,CHEYENNE,DENVER,,DENVER,,N,40.12117777817585,-102.73761388864578,US Airports
1206,HAMPTON MUNI,PU,HAMPTON,CALHOUN,AOK,0R6,7/16/2020,178.0,MEMPHIS,MEMPHIS,,JONESBORO,34.0,N,33.522611110663426,-92.4602777784349,US Airports
450,OUZINKIE,PU,OUZINKIE,KODIAK ISLAND,NONE,4K5,7/16/2020,99.80000305,KODIAK,ANCHORAGE,,KENAI,170.0,N,57.94215516701317,-152.46499305605468,US Airports
121,CASTLE MOUNTAIN AIRSTRIP,PR,CHICKALOON,MATANUSKA-SUSITNA,NONE,48AK,7/16/2020,1010.0,ANCHORAGE,ANCHORAGE,,KENAI,,N,61.793088889101206,-148.4924961110119,US Airports
2100,CALIFORNIA MART,PR,LOS ANGELES,LOS ANGELES,LAX,9CA5,7/16/2020,434.0,LOS ANGELES,LOS ANGELES,,HAWTHORNE,,N,34.04026944374758,-118.2559805564206,US Airports
5225,MC COY,PR,BLUE MOUND,CHRISTIAN,CHI,3IS1,7/16/2020,615.0,ST LOUIS,KANSAS CITY,,SAINT LOUIS,,N,39.70004222217113,-89.2089705561253,US Airports
2283,PLUMAS DISTRICT HOSPITAL,PU,QUINCY,PLUMAS,SFO,CL94,7/16/2020,3425.0,SAN FRANCISCO,OAKLAND,,RANCHO MURIETA,,N,39.94024999987931,-120.96199999967699,US Airports
248,UPPER HANNUM CREEK,PR,HANNUM CREEK,KOBUK,NONE,AK74,7/16/2020,1300.0,NOME,ANCHORAGE,,NOME,,N,65.90485805601189,-163.32909249975313,US Airports
1592,ST JOHNS INDUSTRIAL AIR PARK,PU,ST JOHNS,APACHE,PHX,SJN,7/16/2020,5736.5,PHOENIX,ALBUQUERQUE,KSJN,PRESCOTT,112.0,N,34.51855555571332,-109.37874999995715,US Airports
5670,HOLMES SOUTHEAST,PR,PAWNEE,SANGAMON,CHI,3IS5,7/16/2020,590.0,ST LOUIS,KANSAS CITY,,SAINT LOUIS,10.0,N,39.68449527794811,-89.59870722210202,US Airports
2115,ENGINE CO NR 109,PU,LOS ANGELES/VAN NUYS,LOS ANGELES,LAX,61L,7/16/2020,1375.0,LOS ANGELES,LOS ANGELES,,HAWTHORNE,,N,34.13078055601848,-118.49052222216073,US Airports
5406,OSF ST MARY MEDICAL CENTER - GALESBURG,PR,GALESBURG,KNOX,CHI,IL89,7/16/2020,790.0,CHICAGO,CHICAGO,,KANKAKEE,,N,40.98666666666358,-90.3613888890319,US Airports
2838,CUCHARA VALLEY AT LA VETA,PU,LA VETA,HUERFANO,DEN,07V,7/16/2020,7152.5,DENVER,DENVER,,DENVER,97.0,N,37.52382444426225,-105.00926861144372,US Airports
1143,WALLS,PR,COY,LONOKE,AOK,1AR1,7/16/2020,215.0,MEMPHIS,MEMPHIS,,JONESBORO,,N,34.52717777821227,-91.8726638885953,US Airports
380,NIXON FORK MINE,PR,MCGRATH,KUSKOKWIM,NONE,AK40,7/16/2020,1510.0,MC GRATH,ANCHORAGE,,KENAI,32.0,N,63.229180555803,-154.76033611124802,US Airports
1270,WOODBRIDGE FIELD,PR,MARKED TREE,POINSETT,AOK,34AR,7/16/2020,215.0,MEMPHIS,MEMPHIS,,JONESBORO,,N,35.58111111086616,-90.38527777839934,US Airports
879,DEKALB RGNL MEDICAL CENTER,PR,FORT PAYNE,DE KALB,JAN,0AL4,7/16/2020,810.0,ATLANTA,ATLANTA,,ANNISTON,,N,34.44220277800466,-85.75581944430554,US Airports
4327,M K FIELD,PR,HOGANSVILLE,MERIWETHER,ATL,6GE4,7/16/2020,866.0,ATLANTA,ATLANTA,,MACON,20.0,N,33.16869444378612,-84.83036111112544,US Airports
5266,TOUCHETTE RGNL HOSPITAL,PR,CENTREVILLE,ST CLAIR,CHI,LL59,7/16/2020,416.0,ST LOUIS,KANSAS CITY,,SAINT LOUIS,,N,38.56955000024883,-90.10950277816143,US Airports
441,CD-3 AIRSTRIP,PR,NUIQSUT,NORTH SLOPE,NONE,AK20,7/16/2020,7.0,POINT BARROW,ANCHORAGE,,DEADHORSE,,N,70.42062222189003,-150.88666666731578,US Airports
656,ROBE LAKE,PU,VALDEZ,ALEUTIAN ISLANDS,NONE,L93,7/16/2020,39.0,ANCHORAGE,ANCHORAGE,,JUNEAU,,N,61.087122222134354,-146.1440083328429,US Airports
3499,HILLIARD AIRPARK,PU,HILLIARD,NASSAU,ORL,01J,7/16/2020,59.0,JACKSONVILLE,JACKSONVILLE,,GAINESVILLE,30.0,N,30.685966667056274,-81.90634305570266,US Airports
512,PROSPECT CREEK,PU,PROSPECT CREEK,YUKON-KOYUKUK,NONE,PPC,7/16/2020,1094.69995117,FAIRBANKS,ANCHORAGE,PAPR,FAIRBANKS,,N,66.81405555609743,-150.6436111106726,US Airports
4216,TRICO,PR,CONLEY,DE KALB,ATL,9GA4,7/16/2020,950.0,ATLANTA,ATLANTA,,MACON,,N,33.664275000019074,-84.33909111060451,US Airports
2381,COUNTY MEDICAL CENTER,PU,SAN JOSE,SANTA CLARA,SFO,CA33,7/16/2020,148.0,SAN FRANCISCO,OAKLAND,,OAKLAND,208.0,N,37.3132555562652,-121.934355556001,US Airports
1972,HERMITAGE,PR,GROVELAND,TUOLUMNE,SFO,45CN,7/16/2020,2700.0,SAN FRANCISCO,OAKLAND,,RANCHO MURIETA,120.0,N,37.88020388920235,-120.19352138923433,US Airports
5692,PINCKNEYVILLE COMMUNITY HOSPITAL,PR,PINCKNEYVILLE,PERRY,NONE,IL10,7/16/2020,420.0,ST LOUIS,KANSAS CITY,,COLUMBIA,,N,38.084722222222815,-89.34827777797376,US Airports
1794,GOODYEAR BLIMP BASE,PR,CARSON,LOS ANGELES,LAX,64CL,7/16/2020,21.0,LOS ANGELES,LOS ANGELES,,HAWTHORNE,33.0,N,33.855000000316366,-118.276166667442,US Airports
4615,BEDFORD MUNI,PU,BEDFORD,TAYLOR,NONE,Y46,7/16/2020,1201.0,OMAHA,MINNEAPOLIS,,FORT DODGE,83.0,N,40.63776555604017,-94.72941333322369,US Airports
3403,RELUCTANT GREMLIN,PR,FAIRFIELD,MARION,ORL,FA09,7/16/2020,200.0,JACKSONVILLE,JACKSONVILLE,,GAINESVILLE,45.0,N,29.340805555936132,-82.26370833303652,US Airports
2855,MC KEE MEDICAL CENTER,PR,LOVELAND,LARIMER,DEN,5CO2,7/16/2020,4872.0,DENVER,DENVER,,DENVER,,N,40.41226944407466,-105.0511722220941,US Airports
1534,GRAND CANYON WEST-1,PR,PEACH SPRINGS,MOHAVE,PHX,AZ36,7/16/2020,4790.0,LAS VEGAS,LOS ANGELES,,PRESCOTT,350.0,N,36.02609833305083,-113.82800611108847,US Airports
5238,WEIDNER,PR,BUNKER HILL,MACOUPIN,CHI,4IS9,7/16/2020,667.0,ST LOUIS,KANSAS CITY,,SAINT LOUIS,,N,39.08586111128091,-89.95887499967886,US Airports
615,TAZLINA,PU,TAZLINA,VALDEZ-CORDOVA,NONE,Z14,7/16/2020,2450.0,ANCHORAGE,ANCHORAGE,,KENAI,,N,62.06478861090627,-146.46052194379203,US Airports
1693,AGUA CALIENTE SPRINGS,PU,AGUA CALIENTE SPRINGS,SAN DIEGO,LAX,L54,7/16/2020,1220.0,LOS ANGELES,LOS ANGELES,,SAN DIEGO,20.0,N,32.95569444417619,-116.29472222201586,US Airports
4624,BOONE COUNTY HOSPITAL,PR,BOONE,BOONE,NONE,02IA,7/16/2020,1160.0,,MINNEAPOLIS,,FORT DODGE,,N,42.05628333300147,-93.87647500029217,US Airports
4409,NEWNAN COWETA COUNTY,PU,ATLANTA,COWETA,ATL,CCO,7/16/2020,970.20001221,ATLANTA,ATLANTA,KCCO,MACON,270.0,N,33.311565555666675,-84.76975541708279,US Airports
6032,CULP,PR,FRANCESVILLE,PULASKI,CHI,IN27,7/16/2020,700.0,CHICAGO,CHICAGO,,KANKAKEE,0.0,N,40.99979999974286,-86.91314999964604,US Airports
5530,LOGAN COUNTY,PU,LINCOLN,LOGAN,CHI,AAA,7/16/2020,594.29998779,CHICAGO,CHICAGO,KAAA,SAINT LOUIS,218.0,N,40.158694443760396,-89.33502777755166,US Airports
4974,ELK RIVER,PR,ELK RIVER,CLEARWATER,HLN,ID85,7/16/2020,2827.0,GREAT FALLS,SEATTLE,,BOISE,18.0,N,46.78740305606137,-116.16765000043814,US Airports
270,HOPE,PU,HOPE,KENAI PENINSULA,NONE,5HO,7/16/2020,193.8999939,ANCHORAGE,ANCHORAGE,,KENAI,62.0,N,60.90725277778719,-149.6228111106885,US Airports
678,GATTIS STRIP,PR,WASILLA,ALEUTIAN ISLANDS,NONE,16AK,7/16/2020,320.0,ANCHORAGE,ANCHORAGE,,KENAI,15.0,N,61.599166666959654,-149.34694444366403,US Airports
5349,ADVOCATE GOOD SAMARITAN HOSPITAL,PR,DOWNERS GROVE,DU PAGE,CHI,0IL4,7/16/2020,772.0,CHICAGO,CHICAGO,,KANKAKEE,,N,41.818888888722576,-88.00777777804906,US Airports
5384,FICKLIN-AIRTECH,PR,FAIRBURY,LIVINGSTON,CHI,26IS,7/16/2020,672.0,CHICAGO,CHICAGO,,KANKAKEE,,N,40.766700833037184,-88.50561194442086,US Airports
6018,FARM STRIP,PR,FINLY,SHELBY,CHI,IN98,7/16/2020,825.0,ST LOUIS,INDIANAPOLIS,,TERRE HAUTE,,N,39.68305555593598,-85.84416666661062,US Airports
1306,ST VINCENT NORTH HOSPITAL,PR,NORTH LITTLE ROCK,PULASKI,NONE,1AR8,7/16/2020,260.5,MEMPHIS,MEMPHIS,,JONESBORO,,N,34.81355277815541,-92.20737222165074,US Airports
203,HARDROCK FIELD,PR,FAIRBANKS,FAIRBANKS NORTH STAR,NONE,32AK,7/16/2020,664.0,FAIRBANKS,ANCHORAGE,,FAIRBANKS,30.0,N,64.90928611107198,-147.91396111106656,US Airports
598,MONTANA CREEK,PR,TALKEETNA,MATANUSKA-SUSITNA,NONE,21AK,7/16/2020,250.0,ANCHORAGE,ANCHORAGE,,TALKEETNA,,N,62.082611110986434,-150.06693055596884,US Airports
5615,WABASH GENERAL HOSPITAL,PR,MOUNT CARMEL,WABASH,CHI,67IS,7/16/2020,469.0,CHICAGO,INDIANAPOLIS,,COLUMBIA,,N,38.421311111255605,-87.7699083329833,US Airports
4748,LAMONI MUNI,PU,LAMONI,DECATUR,NONE,LWD,7/16/2020,1131.0,CHICAGO,MINNEAPOLIS,KLWD,FORT DODGE,60.0,N,40.63333305625918,-93.90217027772846,US Airports
1438,ELOY MUNI,PU,ELOY,PINAL,PHX,E60,7/16/2020,1511.19995117,PHOENIX,ALBUQUERQUE,,PRESCOTT,371.0,N,32.806721806330195,-111.5866262779436,US Airports
4488,AYRESOUTH,PR,TEMPLE,HARALSON,ATL,0GA3,7/16/2020,1287.0,ATLANTA,ATLANTA,,MACON,,N,33.77010583305669,-85.06077916655502,US Airports
4593,HAIKU AIRSTRIP,PR,PUHI,KAUAI,HNL,HI33,7/16/2020,385.0,HAWAIIAN ISLANDS,HONOLULU CONTROL FACILITY,,HONOLULU,,N,21.94242138926141,-159.44026055563367,US Airports
6215,JOSEPHS FIELD,PR,MOORES HILL,DEARBORN,CHI,IG07,7/16/2020,860.0,ST LOUIS,INDIANAPOLIS,,TERRE HAUTE,,N,39.05694444428583,-85.03555555584687,US Airports
1042,BONNER FIELD,PR,SUMMERDALE,BALDWIN,JAN,4AL6,7/16/2020,105.0,NEW ORLEANS,JACKSONVILLE,,ANNISTON,7.0,N,30.46686249961436,-87.6833197218487,US Airports
862,LEON'S LANDING,PR,FLAT ROCK,JACKSON,JAN,4AL7,7/16/2020,1430.0,ATLANTA,ATLANTA,,ANNISTON,,N,34.74472222231062,-85.68983333308947,US Airports
3383,ANTIQUERS AERODROME,PR,DELRAY BEACH,PALM BEACH,ORL,FD08,7/16/2020,23.0,MIAMI,MIAMI,,MIAMI,6.0,N,26.4653513890638,-80.14976666726831,US Airports
4480,EMANUEL COUNTY HOSPITAL,PU,SWAINSBORO,EMANUEL,ATL,93GA,7/16/2020,328.0,ATLANTA,ATLANTA,,MACON,1.0,N,32.592877778067304,-82.34802777820384,US Airports
6195,TWIN LAKES,PR,MARYSVILLE,CLARK,CHI,IN07,7/16/2020,663.0,ST LOUIS,INDIANAPOLIS,,TERRE HAUTE,0.0,N,38.51852222226479,-85.58758333339142,US Airports
1174,DRAKE FIELD,PU,FAYETTEVILLE,WASHINGTON,AOK,FYV,7/16/2020,1252.0,KANSAS CITY,MEMPHIS,KFYV,JONESBORO,631.0,Y,36.00508333321049,-94.17005555628565,US Airports
1487,SILVER BELL AHP,MR,MARANA,PINAL,NONE,02AZ,7/16/2020,1868.59997559,PHOENIX,ALBUQUERQUE,,PRESCOTT,726.0,N,32.52086944378815,-111.33579444426361,US Airports
4533,MCINTOSH FIELD,PR,WHITESBURG,CARROLL,ATL,95GA,7/16/2020,771.0,ATLANTA,ATLANTA,,MACON,50.0,N,33.45594694421257,-84.94299527797843,US Airports
6296,KILSOQUAH FARM,PR,ROANOKE,HUNTINGTON,CHI,8IS2,7/16/2020,840.0,CHICAGO,CHICAGO,,TERRE HAUTE,,N,40.9977777777615,-85.3888888887584,US Airports
5502,BAKER,PR,KILBOURNE,MASON,CHI,32IS,7/16/2020,485.0,KANSAS CITY,KANSAS CITY,,KANKAKEE,,N,40.13532416668695,-91.0095797223335,US Airports
4106,ATHENS/BEN EPPS,PU,ATHENS,CLARKE,ATL,AHN,7/16/2020,812.5,ATLANTA,ATLANTA,KAHN,MACON,425.0,Y,33.94863888898305,-83.32591666742054,US Airports
3849,ORMOND BEACH MUNI,PU,ORMOND BEACH,VOLUSIA,ORL,OMN,7/16/2020,27.89999962,JACKSONVILLE,JACKSONVILLE,KOMN,SAINT PETERSBURG,1128.0,Y,29.301138889175185,-81.11380555601326,US Airports
1498,MILLAR,PR,MARICOPA,PINAL,PHX,2AZ4,7/16/2020,1215.0,PHOENIX,ALBUQUERQUE,,PRESCOTT,80.0,N,33.05366055591393,-112.1457005555611,US Airports
11,ALEKNAGIK /NEW,PU,ALEKNAGIK,DILLINGHAM,NONE,5A8,7/16/2020,63.0,KODIAK,ANCHORAGE,,DILLINGHAM,51.0,N,59.28255555590935,-158.61786666712754,US Airports
2196,MOFFETT FEDERAL AFLD,PU,MOUNTAIN VIEW,SANTA CLARA,SFO,NUQ,7/16/2020,36.59999847,SAN FRANCISCO,OAKLAND,KNUQ,OAKLAND,,Y,37.416142222050674,-122.0491310558614,US Airports
1706,MOTHER LODE SERVICE CENTER,PR,ANGELS CAMP,CALAVERAS,SFO,16CL,7/16/2020,1560.0,SAN FRANCISCO,OAKLAND,,RANCHO MURIETA,,N,38.08458333289394,-120.53797222193896,US Airports
3018,CORAL OCEAN POINT PRO-SHOP,PR,KOBLERVILLE,NORTHERN MARIANA IS,HNL,HI63,7/16/2020,125.0,GNC 7,HONOLULU CONTROL FACILITY,,HONOLULU,,N,15.11444444386403,145.70194444403668,US Airports
4544,THE FARM,PR,WRIGHTSVILLE,JOHNSON,ATL,01GE,7/16/2020,375.0,ATLANTA,ATLANTA,,MACON,,N,32.674444444049875,-82.77111111126959,US Airports
5968,TERRY'S,PR,COLUMBIA CITY,ADAMS,CHI,3IG3,7/16/2020,850.0,CHICAGO,CHICAGO,,TERRE HAUTE,,N,41.17018333292367,-85.4216444437292,US Airports
5426,CAMPBELL,PR,GRAYSLAKE,LAKE,CHI,C81,7/16/2020,788.0,CHICAGO,CHICAGO,,KANKAKEE,243.0,N,42.32461111078203,-88.07408805621688,US Airports
5551,REYNOLDS AERIAL SERVICE,PR,MANSFIELD,PIATT,CHI,6IL3,7/16/2020,711.0,CHICAGO,CHICAGO,,SAINT LOUIS,,N,40.186799999807086,-88.50398333294672,US Airports
1079,WINFIELD AIRPARK,PR,ALTUS,FRANKLIN,AOK,54AR,7/16/2020,390.0,DALLAS-FT WORTH,MEMPHIS,,JONESBORO,,N,35.392855555988056,-93.758705555727,US Airports
1789,MC CLELLAN-PALOMAR,PU,CARLSBAD,SAN DIEGO,LAX,CRQ,7/16/2020,330.5,LOS ANGELES,LOS ANGELES,KCRQ,SAN DIEGO,466.0,Y,33.12825000031907,-117.28008333280012,US Airports
5121,RIGBY,PU,RIGBY,JEFFERSON,HLN,U56,7/16/2020,4845.0,SALT LAKE CITY,SALT LAKE CITY,,BOISE,59.0,N,43.64272500012182,-111.92916249984216,US Airports
1427,SARITA,PR,COOLIDGE,PINAL,PHX,37AZ,7/16/2020,1464.0,PHOENIX,ALBUQUERQUE,,PRESCOTT,5.0,N,32.9356177777614,-111.48456666718684,US Airports
3218,GEORGE E WEEMS MEML HOSPITAL,PR,APALACHICOLA,FRANKLIN,ORL,FL65,7/16/2020,16.0,NEW ORLEANS,JACKSONVILLE,,GAINESVILLE,2.0,N,29.723988889274082,-84.99220277759026,US Airports
3531,MAYO CLINIC,PR,JACKSONVILLE,DUVAL,NONE,6FL1,7/16/2020,15.0,JACKSONVILLE,JACKSONVILLE,,GAINESVILLE,,N,30.26497222227489,-81.44086111062059,US Airports
6279,PLYMOUTH MUNI,PU,PLYMOUTH,MARSHALL,CHI,C65,7/16/2020,800.0,CHICAGO,CHICAGO,,TERRE HAUTE,225.0,N,41.36513074999235,-86.30025744404944,US Airports
5815,WILLADAE FARMS,PR,SYCAMORE,DE KALB,CHI,4LL7,7/16/2020,850.0,CHICAGO,CHICAGO,,KANKAKEE,,N,42.000028055977026,-88.66675361127696,US Airports
4235,PINETREE,PR,CUMMING,FORSYTH,ATL,8GA0,7/16/2020,1060.0,ATLANTA,ATLANTA,,MACON,,N,34.14583333286591,-84.22972222189293,US Airports
1672,AMMON,PR,WILLCOX,COCHISE,PHX,AZ14,7/16/2020,4520.0,PHOENIX,ALBUQUERQUE,,PRESCOTT,160.0,N,32.02472222188877,-109.95972222179476,US Airports
5038,LANDMARK USFS,PU,LANDMARK,VALLEY,HLN,0U0,7/16/2020,6662.0,GREAT FALLS,SALT LAKE CITY,,BOISE,19.0,N,44.64211111089691,-115.53338888859818,US Airports
3795,OKEECHOBEE COUNTY,PU,OKEECHOBEE,OKEECHOBEE,ORL,OBE,7/16/2020,33.40000153,MIAMI,MIAMI,KOBE,SAINT PETERSBURG,864.0,N,27.26658333313614,-80.85038888934474,US Airports
1609,SELLS,PU,SELLS,PIMA,PHX,E78,7/16/2020,2409.0,PHOENIX,ALBUQUERQUE,,PRESCOTT,20.0,N,31.932583332736243,-111.89425000004267,US Airports
4634,ST LUKES HOSPITAL EMERGENCY,PR,CEDAR RAPIDS,LINN,NONE,IA73,7/16/2020,759.0,CHICAGO,CHICAGO,,FORT DODGE,,N,41.98507777809089,-91.66156111106248,US Airports
4404,BRANTLEY COUNTY,PU,NAHUNTA,BRANTLEY,ATL,4J1,7/16/2020,84.80000305,JACKSONVILLE,JACKSONVILLE,,MACON,174.0,N,31.206083333269206,-81.90599999987545,US Airports
3440,BAGGETT,PR,FORT PIERCE,ST LUCIE,ORL,FD57,7/16/2020,18.0,MIAMI,MIAMI,,MIAMI,10.0,N,27.469759999871048,-80.41644111114562,US Airports
386,MANOKOTAK,PU,MANOKOTAK,DILLINGHAM,NONE,MBA,7/16/2020,106.59999847,KODIAK,ANCHORAGE,PAMB,DILLINGHAM,330.0,N,58.93205555607544,-158.90188888888488,US Airports
385,MANLEY HOT SPRINGS,PU,MANLEY HOT SPRINGS,YUKON-KOYUKUK,NONE,MLY,7/16/2020,275.29998779,FAIRBANKS,ANCHORAGE,PAML,FAIRBANKS,300.0,N,64.98794444413005,-150.64758333329823,US Airports
57,BARTER ISLAND,PU,BARTER ISLAND,UPPER YUKON,NONE,BTI,7/16/2020,55.09999847,POINT BARROW,ANCHORAGE,PABA,DEADHORSE,,N,70.11311111101396,-143.65361111107666,US Airports
4091,COOK COUNTY,PU,ADEL,COOK,ATL,15J,7/16/2020,236.0,JACKSONVILLE,JACKSONVILLE,,MACON,368.0,N,31.137121444234154,-83.45382186082858,US Airports
2687,GENERAL MAIL FACILITY,PU,DENVER,DENVER,DEN,CO01,7/16/2020,5223.0,DENVER,DENVER,,DENVER,,N,39.792630555765506,-104.89911666668885,US Airports
1656,TUCSON INTL,PU,TUCSON,PIMA,PHX,TUS,7/16/2020,2643.0,PHOENIX,ALBUQUERQUE,KTUS,PRESCOTT,7938.0,Y,32.11606916668756,-110.94101388888349,US Airports
5362,YOUNGLOVE/OTTERBACH,PR,EARLVILLE,ADAMS,NONE,IL55,7/16/2020,694.0,CHICAGO,CHICAGO,,KANKAKEE,,N,41.53555555592639,-88.99861111113387,US Airports
3121,SHARON HOSPITAL,PR,SHARON,LITCHFIELD,NONE,0CT0,7/16/2020,640.0,NEW YORK,NEW YORK,,BRIDGEPORT,,N,41.88121944413599,-73.48097777765136,US Airports
3430,SOUTHWEST FLORIDA INTL,PU,FORT MYERS,LEE,ORL,RSW,7/16/2020,29.70000076,MIAMI,MIAMI,KRSW,MIAMI,13555.0,Y,26.536166666979653,-81.75516666709295,US Airports
5566,HERSCHEL HUNTER,PR,MARISSA,ST CLAIR,CHI,3LL1,7/16/2020,470.0,ST LOUIS,KANSAS CITY,,SAINT LOUIS,,N,38.222270833005005,-89.70426416739761,US Airports
3050,BUELL FARM,PR,EASTFORD,WINDHAM,NONE,5CT6,7/16/2020,670.0,NEW YORK,BOSTON,,BRIDGEPORT,,N,41.919527778097034,-72.11841666711163,US Airports
3746,LAND SOUTH,PR,MULBERRY,POLK,ORL,9FL6,7/16/2020,136.0,MIAMI,MIAMI,,SAINT PETERSBURG,,N,27.866388889317328,-81.96944444387776,US Airports
4419,PERRY-HOUSTON COUNTY,PU,PERRY,HOUSTON,ATL,PXE,7/16/2020,418.1000061,ATLANTA,ATLANTA,KPXE,MACON,,N,32.510583332684966,-83.76733333264093,US Airports
4740,KAH,PR,KEOKUK,LEE,NONE,3IA8,7/16/2020,617.0,KANSAS CITY,KANSAS CITY,,FORT DODGE,,N,40.40719444370142,-91.38795833330128,US Airports
1138,CANTRELL FARMS,PR,CONWAY,FAULKNER,AOK,AR06,7/16/2020,325.0,MEMPHIS,MEMPHIS,,JONESBORO,,N,35.23249999974557,-92.34333333315193,US Airports
5590,WILSON,PR,MINOOKA,KENDALL,CHI,44IL,7/16/2020,595.0,CHICAGO,CHICAGO,,KANKAKEE,,N,41.53924999981574,-88.3248611113312,US Airports
2608,LEMONS PRIVATE STRIP,PR,BOULDER,BOULDER,DEN,CO10,7/16/2020,5230.0,DENVER,DENVER,,DENVER,,N,39.994707499795,-105.22387694399856,US Airports
6360,ROBERTS,PR,VEVAY,SWITZERLAND,CHI,32II,7/16/2020,820.0,CINCINNATI,INDIANAPOLIS,,TERRE HAUTE,,N,38.816449444105615,-85.10634111140277,US Airports
1757,BORREGO AIR RANCH,PR,BORREGO SPRINGS,SAN DIEGO,LAX,58CL,7/16/2020,576.0,LOS ANGELES,LOS ANGELES,,SAN DIEGO,,N,33.191927777723386,-116.28010277767235,US Airports
4576,MOLOKAI,PU,KAUNAKAKAI,MAUI,HNL,MKK,7/16/2020,453.8999939,HAWAIIAN ISLANDS,HONOLULU CONTROL FACILITY,PHMK,HONOLULU,288.0,Y,21.15288583291286,-157.09625611094418,US Airports
5907,BATESVILLE,PR,BATESVILLE,FRANKLIN,CHI,HLB,7/16/2020,975.0,ST LOUIS,INDIANAPOLIS,KHLB,TERRE HAUTE,,N,39.34311111116554,-85.2584166668995,US Airports
1311,ETNA,PR,OZARK,FRANKLIN,AOK,2AR1,7/16/2020,536.0,MEMPHIS,MEMPHIS,,JONESBORO,,N,35.369847222227456,-93.84306111137214,US Airports
534,SCAMMON BAY,PU,SCAMMON BAY,KUSILVAK,NONE,SCM,7/16/2020,22.0,BETHEL,ANCHORAGE,PACM,KENAI,103.0,N,61.84454166689362,-165.57374999970554,US Airports
3005,NORTHFIELD,PR,WOODLAND PARK,TELLER,DEN,CD79,7/16/2020,9200.0,DENVER,DENVER,,DENVER,,N,38.98526972177896,-104.91720361072404,US Airports
2036,ROUND MOUNTAIN RANCH,PR,KLAMATH RIVER,SISKIYOU,SFO,CA09,7/16/2020,3500.0,KLAMATH FALLS,SEATTLE,,RANCHO MURIETA,,N,41.8862450002358,-122.84447833304593,US Airports
4840,SIOUX CENTER HEALTH,PR,SIOUX CENTER,SIOUX,NONE,IA06,7/16/2020,1397.0,KANSAS CITY,MINNEAPOLIS,,FORT DODGE,,N,43.06877222201908,-96.15925833310413,US Airports
3333,MC DANIEL RANCH INC,PR,CLEWISTON,HENDRY,ORL,0FL9,7/16/2020,18.0,MIAMI,MIAMI,,MIAMI,15.0,N,26.39388888898617,-81.02305555591886,US Airports
4648,IOWA SPECIALITY HOSPITAL,PR,CLARION,WRIGHT,NONE,4IA5,7/16/2020,1162.0,OMAHA,MINNEAPOLIS,,FORT DODGE,,N,42.72112777776315,-93.73442222240652,US Airports
6247,HIMSEL AAF,MR,NINEVEH,BARTHOLOMEW,CHI,HBE,7/16/2020,710.0,ST LOUIS,INDIANAPOLIS,KHBE,TERRE HAUTE,500.0,Y,39.341717222131855,-86.0305483330389,US Airports
3368,SMOKEY'S,PR,DAYTONA BEACH,VOLUSIA,ORL,FL44,7/16/2020,10.0,JACKSONVILLE,JACKSONVILLE,,SAINT PETERSBURG,,N,29.23081416690453,-81.02811055568563,US Airports
5756,ROUTH,PR,ST JOSEPH,CHAMPAIGN,CHI,9IL2,7/16/2020,668.0,ST LOUIS,CHICAGO,,SAINT LOUIS,10.0,N,40.065033889165164,-88.02642583316688,US Airports
3649,SUWANNEE COUNTY,PU,LIVE OAK,SUWANNEE,ORL,24J,7/16/2020,103.30000305,JACKSONVILLE,JACKSONVILLE,,GAINESVILLE,183.0,N,30.300388889324786,-83.02438888858497,US Airports
3136,BRISTOL-MYERS SQUIBB COMPANY,PR,WALLINGFORD,NEW HAVEN,NONE,0CT1,7/16/2020,350.0,NEW YORK,BOSTON,,BRIDGEPORT,,N,41.48481972192765,-72.75620833318966,US Airports
4098,AIR EVAC BASE 86,PR,AMERICUS,SUMTER,ATL,GA07,7/16/2020,411.0,ATLANTA,ATLANTA,,MACON,0.0,N,32.06687222170336,-84.25303333283593,US Airports
3943,GENTRY,PR,ST CLOUD,OSCEOLA,ORL,FD37,7/16/2020,80.0,JACKSONVILLE,MIAMI,,SAINT PETERSBURG,8.0,N,28.13723805572735,-81.26340222216157,US Airports
4012,FLORIDA HOSPITAL WATERMAN,PR,TAVARES,ALACHUA,NONE,32FL,7/16/2020,95.0,JACKSONVILLE,JACKSONVILLE,,SAINT PETERSBURG,0.0,N,28.82440833279972,-81.71052777803058,US Airports
551,SITKA,PU,SITKA,SITKA,NONE,A29,7/16/2020,0.0,JUNEAU,ANCHORAGE,,SITKA,,N,57.05213777780056,-135.34620861120933,US Airports
3650,WINGS N SUNSETS LLC,PR,LIVE OAK,SUWANNEE,ORL,FL07,7/16/2020,130.0,JACKSONVILLE,JACKSONVILLE,,GAINESVILLE,17.0,N,30.250225556362153,-82.92401805576516,US Airports
4885,HACKNEY AIRPARK,PR,ATHOL,KOOTENAI,HLN,ID05,7/16/2020,2445.0,GREAT FALLS,SEATTLE,,BOISE,60.0,N,47.95684805578248,-116.67741916660675,US Airports
3366,SPRUCE CREEK,PR,DAYTONA BEACH,VOLUSIA,ORL,7FL6,7/16/2020,24.60000038,JACKSONVILLE,JACKSONVILLE,,SAINT PETERSBURG,117.0,N,29.080195193944608,-81.04662672195006,US Airports
143,COLORADO CREEK,PR,COLORADO CREEK,KUSKOKWIM,NONE,KCR,7/16/2020,860.0,MC GRATH,ANCHORAGE,,KENAI,,N,63.567723056080524,-155.98904361094372,US Airports
4871,GEORGE L SCOTT MUNI,PU,WEST UNION,FAYETTE,NONE,3Y2,7/16/2020,1231.80004883,CHICAGO,MINNEAPOLIS,,FORT DODGE,59.0,N,42.985222222134716,-91.79063888888561,US Airports
2741,BANNER FORT COLLINS MEDICAL CENTER,PR,FORT COLLINS,LARIMER,DEN,57CO,7/16/2020,4910.0,CHEYENNE,DENVER,,DENVER,,N,40.522222222044896,-105.00833333318062,US Airports
3454,GODDARD SEADROME,PR,FROSTPROOF,POLK,ORL,FD46,7/16/2020,78.0,MIAMI,MIAMI,,SAINT PETERSBURG,3000.0,N,27.75530638863843,-81.51396416689592,US Airports
2919,THE FLYING Z,PR,PUEBLO,PUEBLO,DEN,87CD,7/16/2020,5440.0,DENVER,DENVER,,DENVER,47.0,N,37.9900000003214,-104.76111111087357,US Airports
4027,"DUKE FIELD,(EGLIN AF AUX NR 3)",MA,CRESTVIEW,OKALOOSA,ORL,EGI,7/16/2020,195.30000305,NEW ORLEANS,JACKSONVILLE,KEGI,GAINESVILLE,,Y,30.648586943816124,-86.52195936097458,US Airports
3045,HECKLER FIELD,PR,COVENTRY,TOLLAND,NONE,CT09,7/16/2020,793.0,NEW YORK,BOSTON,,BRIDGEPORT,5.0,N,41.80287611087053,-72.39174916695664,US Airports
5289,TINLEY PARK HELISTOP,PU,CHICAGO/TINLEY PARK,COOK,CHI,TF8,7/16/2020,760.0,CHICAGO,CHICAGO,,KANKAKEE,1.0,N,41.55916666707826,-87.80583333292269,US Airports
1736,BARSTOW SERVICE CENTER,PR,BARSTOW,SAN BERNARDINO,LAX,9CA1,7/16/2020,2240.0,LOS ANGELES,LOS ANGELES,,RIVERSIDE,,N,34.87515833301888,-116.99597222184713,US Airports
6128,KENTLAND MUNI,PU,KENTLAND,NEWTON,CHI,50I,7/16/2020,699.0,CHICAGO,CHICAGO,,TERRE HAUTE,65.0,N,40.758742332905854,-87.42912530631236,US Airports
4111,BRIDGE BUILDING,PR,ATLANTA,FULTON,ATL,GA66,7/16/2020,939.0,ATLANTA,ATLANTA,,MACON,,N,33.809669444011824,-84.3951499998029,US Airports
1868,POM WONDERFUL AIRSTRIP,PR,DEL REY,FRESNO,SFO,0CA0,7/16/2020,340.6000061,SAN FRANCISCO,OAKLAND,,RANCHO MURIETA,6.0,N,36.652744443819905,-119.58711388935309,US Airports
501,PORT ALICE,PR,PORT ALICE,PRINCE OF WALES,NONE,16K,7/16/2020,0.0,KETCHIKAN,ANCHORAGE,,KETCHIKAN,,N,55.78490527796357,-133.59422361100678,US Airports
4221,CRISP COUNTY-CORDELE,PU,CORDELE,CRISP,ATL,CKF,7/16/2020,309.6000061,JACKSONVILLE,JACKSONVILLE,KCKF,MACON,619.0,N,31.988833332875988,-83.77391666674332,US Airports
4529,ERLEN,PR,WHITESBURG,CARROLL,ATL,3GA6,7/16/2020,1044.0,ATLANTA,ATLANTA,,MACON,8.0,N,33.57055555586933,-84.898333332756,US Airports
2185,MODESTO CITY-CO-HARRY SHAM FLD,PU,MODESTO,STANISLAUS,SFO,MOD,7/16/2020,99.19999695,SAN FRANCISCO,OAKLAND,KMOD,RANCHO MURIETA,435.0,Y,37.625833333154944,-120.95441666728853,US Airports
3176,DELDOT HELISTOP,PU,DOVER,KENT,HAR,0N5,7/16/2020,30.0,WASHINGTON,WASHINGTON,,MILLVILLE,17.0,N,39.14955666709664,-75.50492305618664,US Airports
1165,SOUTH ARKANSAS RGNL AT GOODWIN FIELD,PU,EL DORADO,UNION,AOK,ELD,7/16/2020,276.79998779,MEMPHIS,FORT WORTH,KELD,JONESBORO,1540.0,N,33.2212378061883,-92.81174888938939,US Airports
2000,HOLTVILLE,PU,HOLTVILLE,IMPERIAL,LAX,L04,7/16/2020,59.0,PHOENIX,LOS ANGELES,,SAN DIEGO,1100.0,N,32.84494444398006,-115.26849999995999,US Airports
798,ST VINCENTS EAST,PR,BIRMINGHAM,JEFFERSON,JAN,AL65,7/16/2020,1070.0,ATLANTA,ATLANTA,,ANNISTON,,N,33.59697222193506,-86.66780833301264,US Airports
2317,RIVERSIDE COMMUNITY HOSPITAL,PR,RIVERSIDE,RIVERSIDE,LAX,54CA,7/16/2020,853.0,LOS ANGELES,LOS ANGELES,,RIVERSIDE,,N,33.97741666686415,-117.3816944443799,US Airports
3447,BRADLEY,PR,FORT WHITE,COLUMBIA,ORL,FD31,7/16/2020,20.0,JACKSONVILLE,JACKSONVILLE,,GAINESVILLE,10.0,N,29.92801305593881,-82.70123222173673,US Airports
716,SUNSET STRIP,PR,WASILLA,MATANUSKA-SUSITNA,NONE,AK16,7/16/2020,303.0,ANCHORAGE,ANCHORAGE,,KENAI,,N,61.52341944401675,-149.71486111133962,US Airports
2449,STOCKTON METROPOLITAN,PU,STOCKTON,SAN JOAQUIN,SFO,SCK,7/16/2020,33.20000076,SAN FRANCISCO,OAKLAND,KSCK,RANCHO MURIETA,1552.0,Y,37.89441027766947,-121.2387399998375,US Airports
6090,WEBSTER,PR,HOMER,RUSH,CHI,1II0,7/16/2020,910.0,ST LOUIS,INDIANAPOLIS,,TERRE HAUTE,,N,39.57671361109549,-85.58775166689588,US Airports
3339,CAPE CANAVERAL AFS SKID STRIP,MA,COCOA BEACH,BREVARD,ORL,XMR,7/16/2020,10.0,JACKSONVILLE,MIAMI,KXMR,SAINT PETERSBURG,,Y,28.467586110963413,-80.56661527813893,US Airports
2934,DBS AIR,PR,RIFLE,GARFIELD,DEN,CO87,7/16/2020,5548.0,DENVER,DENVER,,DENVER,2.0,N,39.52777777782685,-107.71888888863442,US Airports
1276,MC GEHEE MUNI,PU,MC GEHEE,DESHA,AOK,7M1,7/16/2020,141.0,MEMPHIS,MEMPHIS,,JONESBORO,82.0,N,33.62022111108578,-91.3648405559771,US Airports
2142,TRIZEC 5670 WILSHIRE LLC,PR,LOS ANGELES,LOS ANGELES,LAX,3CA6,7/16/2020,559.0,LOS ANGELES,LOS ANGELES,,HAWTHORNE,,N,34.061933332654526,-118.35189444377234,US Airports
5317,CRYSTAL LAKE HOLIDAY INN,PR,CRYSTAL LAKE,MC HENRY,CHI,IL18,7/16/2020,909.0,CHICAGO,CHICAGO,,KANKAKEE,,N,42.22057916690546,-88.28480611136466,US Airports
5258,MEMORIAL HOSPITAL,PR,CARTHAGE,HANCOCK,CHI,IL50,7/16/2020,653.0,CHICAGO,KANSAS CITY,,SAINT LOUIS,,N,40.408333333124446,-91.1124999999808,US Airports
4639,MERCY MEDICAL CENTER - CENTERVILLE,PR,CENTERVILLE,APPANOOSE,NONE,IA25,7/16/2020,957.0,CHICAGO,CHICAGO,,FORT DODGE,,N,40.75642499990889,-92.85684444421295,US Airports
2435,SIMI VALLEY HOSPITAL,PR,SIMI VALLEY,VENTURA,LAX,CA75,7/16/2020,1045.0,LOS ANGELES,LOS ANGELES,,HAWTHORNE,,N,34.28918888892463,-118.74600833332899,US Airports
5147,BLACK BUTTE RANCH,PR,SHOSHONE,LINCOLN,HLN,0ID4,7/16/2020,4020.0,SALT LAKE CITY,SALT LAKE CITY,,BOISE,6.0,N,43.047683332695385,-114.47032499963589,US Airports
1873,LANDELLS,PR,DESERT HOT SPRINGS,RIVERSIDE,LAX,29CA,7/16/2020,940.0,LOS ANGELES,LOS ANGELES,,RIVERSIDE,,N,33.92163888933695,-116.45346944385514,US Airports
2713,AMBROSICH FIELD,PR,ELBERT,DOUGLAS,DEN,4CO7,7/16/2020,7028.0,DENVER,DENVER,,DENVER,80.0,N,39.217768056247735,-104.6802516671602,US Airports
473,FINGER LAKE,PU,PALMER,MATANUSKA-SUSITNA,NONE,99Z,7/16/2020,337.0,ANCHORAGE,ANCHORAGE,,PALMER,,N,61.60923611081191,-149.26354166726037,US Airports
5702,CLARK,PR,PLYMOUTH,MC DONOUGH,CHI,23IS,7/16/2020,570.0,CHICAGO,KANSAS CITY,,KANKAKEE,5.0,N,40.325876666688664,-90.82763222189429,US Airports
3617,LAKELAND LINDER INTL,PU,LAKELAND,POLK,ORL,LAL,7/16/2020,142.0,MIAMI,MIAMI,KLAL,SAINT PETERSBURG,1710.0,Y,27.987636110798704,-82.01899305626087,US Airports
1234,NEA BAPTIST HOSPITAL,PR,JONESBORO,CRAIGHEAD,AOK,AR60,7/16/2020,260.0,MEMPHIS,MEMPHIS,,JONESBORO,,N,35.807600000109296,-90.66646666703816,US Airports
4280,FITZGERALD MUNI,PU,FITZGERALD,BEN HILL,ATL,FZG,7/16/2020,364.79998779,JACKSONVILLE,JACKSONVILLE,KFZG,MACON,271.0,N,31.683904610667724,-83.27090363909674,US Airports
3782,FLYING DUTCHMAN RANCH,PR,OCALA,MARION,ORL,FD29,7/16/2020,75.0,JACKSONVILLE,JACKSONVILLE,,GAINESVILLE,50.0,N,29.130811110632536,-82.11925555585069,US Airports
4857,RICH FIELD,PR,WALFORD,IOWA,NONE,06IA,7/16/2020,880.0,CHICAGO,CHICAGO,,FORT DODGE,5.0,N,41.84139444398524,-91.83434444363913,US Airports
4441,ROSWELL ANIMAL HOSPITAL,PR,ROSWELL,FULTON,ATL,GA57,7/16/2020,1100.0,ATLANTA,ATLANTA,,MACON,,N,34.030932777945345,-84.35603666691777,US Airports
815,CENTRE-PIEDMONT-CHEROKEE COUNTY RGNL,PU,CENTRE,CHEROKEE,JAN,PYP,7/16/2020,594.59997559,ATLANTA,ATLANTA,KPYP,ANNISTON,308.0,N,34.089916667043106,-85.6100833330065,US Airports
1328,HEAD AIRFIELD,PR,PRESCOTT,HEMPSTEAD,AOK,2AR7,7/16/2020,441.0,MEMPHIS,FORT WORTH,,JONESBORO,20.0,N,33.84911111092735,-93.47913888884571,US Airports
3694,MELROSE LANDING,PR,MELROSE,PUTNAM,ORL,FD22,7/16/2020,159.0,JACKSONVILLE,JACKSONVILLE,,GAINESVILLE,22.0,N,29.666912221993215,-81.95509416713274,US Airports
4565,THE QUEEN'S MEDICAL CENTER,PR,HONOLULU,HONOLULU,HNL,HI38,7/16/2020,102.0,HAWAIIAN ISLANDS,HONOLULU CONTROL FACILITY,,HONOLULU,,N,21.30817500023468,-157.8536250002483,US Airports
6079,FRANCISCAN HEALTH HAMMOND,PR,HAMMOND,LAKE,CHI,7IN4,7/16/2020,624.0,CHICAGO,CHICAGO,,TERRE HAUTE,,N,41.61420555598594,-87.52409444356464,US Airports
4651,STANGL,PR,COON RAPIDS,CARROLL,NONE,16IA,7/16/2020,1230.0,OMAHA,MINNEAPOLIS,,FORT DODGE,,N,41.880819443897316,-94.77722777759519,US Airports
5714,PERRY MEMORIAL HOSPITAL,PU,PRINCETON,BUREAU,CHI,IS67,7/16/2020,735.0,CHICAGO,CHICAGO,,KANKAKEE,,N,41.36681666725334,-89.45615833343105,US Airports
2477,THE SEA RANCH,PR,THE SEA RANCH,SONOMA,SFO,CA51,7/16/2020,360.0,SAN FRANCISCO,OAKLAND,,OAKLAND,30.0,N,38.704634167160734,-123.43250861088433,US Airports
2581,CHILDREN'S HOSPITAL COLORADO,PR,AURORA,ADAMS,DEN,2CD8,7/16/2020,5557.0,DENVER,DENVER,,DENVER,,N,39.74250000009054,-104.83568333304999,US Airports
5164,JOSLIN FIELD - MAGIC VALLEY RGNL,PU,TWIN FALLS,TWIN FALLS,HLN,TWF,7/16/2020,4153.60009766,SALT LAKE CITY,SALT LAKE CITY,KTWF,BOISE,1468.0,Y,42.48180555605921,-114.487750000291,US Airports
2628,AERO BEAR FIELD,PR,CALHAN,ELBERT,DEN,CD23,7/16/2020,6300.0,DENVER,DENVER,,DENVER,80.0,N,39.19833333296108,-104.32916666738618,US Airports
2169,JOHN C FREEMONT HOSPITAL,PR,MARIPOSA,MARIPOSA,SFO,CA10,7/16/2020,2225.0,SAN FRANCISCO,OAKLAND,,RANCHO MURIETA,,N,37.499747222325055,-119.9778361114011,US Airports
1261,RALPH C WEISER FIELD,PU,MAGNOLIA,COLUMBIA,AOK,AGO,7/16/2020,319.3999939,MEMPHIS,FORT WORTH,KAGO,JONESBORO,272.0,N,33.227472222339244,-93.21700000021038,US Airports
699,KALMBACH LAKE,PR,WASILLA,MATANUSKA-SUSITNA,NONE,54AK,7/16/2020,400.0,ANCHORAGE,ANCHORAGE,,KENAI,,N,61.60706111108208,-149.5738500000945,US Airports
4059,PALM BEACH COUNTY JUDICIAL CENTER,PR,WEST PALM BEACH,PALM BEACH,ORL,5FL5,7/16/2020,297.0,MIAMI,MIAMI,,MIAMI,,N,26.71540833293534,-80.05440000034999,US Airports
5675,BLOCK,PR,PEARL CITY,CARROLL,CHI,88LL,7/16/2020,917.0,CHICAGO,CHICAGO,,KANKAKEE,,N,42.19168805612866,-89.83817555608411,US Airports
1920,MERCEY HOT SPRINGS,PR,FIREBAUGH,FRESNO,SFO,CN22,7/16/2020,1170.0,SAN FRANCISCO,OAKLAND,,RANCHO MURIETA,160.0,N,36.7065208327692,-120.86003472190654,US Airports
3254,LAKESIDE MEDICAL CENTER,PR,BELLE GLADE,PALM BEACH,ORL,9FA2,7/16/2020,11.0,MIAMI,MIAMI,,MIAMI,,N,26.723724999838797,-80.6719694440305,US Airports
1989,ERNST FIELD,PR,HEMET,RIVERSIDE,LAX,86CL,7/16/2020,2850.0,LOS ANGELES,LOS ANGELES,,RIVERSIDE,,N,33.597405556114154,-116.88349444360024,US Airports
3827,ORLANDO RGNL MEDICAL CENTER,PR,ORLANDO,ORANGE,ORL,FD28,7/16/2020,157.0,JACKSONVILLE,JACKSONVILLE,,SAINT PETERSBURG,,N,28.525280277829168,-81.37701416657376,US Airports
2460,MACHADO DUSTERS,PR,STRATFORD,KINGS,SFO,CA05,7/16/2020,192.0,SAN FRANCISCO,OAKLAND,,RANCHO MURIETA,,N,36.16022888916519,-119.81346472172255,US Airports
6242,CASAD INDUSTRIAL PARK,PU,NEW HAVEN,ALLEN,CHI,56IN,7/16/2020,766.0,DETROIT,CHICAGO,,TERRE HAUTE,,N,41.07921527825559,-84.94274361135831,US Airports
3415,FORT LAUDERDALE EXECUTIVE,PU,FORT LAUDERDALE,BROWARD,ORL,FXE,7/16/2020,13.39999962,MIAMI,MIAMI,KFXE,MIAMI,1050.0,Y,26.197279361283027,-80.17070627796352,US Airports
1762,MONO COUNTY MEDICAL,PU,BRIDGEPORT,MONO,SFO,CN10,7/16/2020,6450.0,SAN FRANCISCO,OAKLAND,,RIVERSIDE,1.0,N,38.252361110836574,-119.23019444409815,US Airports
1343,HONEY HILL,PR,SEARCY,WHITE,AOK,AR33,7/16/2020,340.0,MEMPHIS,MEMPHIS,,JONESBORO,,N,35.23341833323119,-91.78736111068702,US Airports
3122,ITT,PR,SHELTON,FAIRFIELD,NONE,CT89,7/16/2020,327.0,NEW YORK,NEW YORK,,BRIDGEPORT,,N,41.27509638908347,-73.13288777810259,US Airports
5162,JOSEPHINE RANCH,PR,TRIANGLE,OWYHEE,HLN,2ID3,7/16/2020,5100.0,GREAT FALLS,SALT LAKE CITY,,BOISE,,N,42.75183333290694,-116.67733333258136,US Airports
4295,PEACHTREE LANDINGS,PR,FORT VALLEY,PEACH,ATL,5GE1,7/16/2020,447.0,ATLANTA,ATLANTA,,MACON,,N,32.57027777782834,-83.72194444374111,US Airports
748,WILLOW,PU,WILLOW,MATANUSKA-SUSITNA,NONE,UUO,7/16/2020,215.30000305,ANCHORAGE,ANCHORAGE,PAUO,KENAI,610.0,N,61.754188889000474,-150.05173888928093,US Airports
914,GULF STATE PARK,PR,GULF SHORES,BALDWIN,JAN,AL75,7/16/2020,0.0,NEW ORLEANS,JACKSONVILLE,,ANNISTON,,N,30.26327777778084,-87.63688888872893,US Airports
3482,GORE,PR,HAINES CITY,POLK,ORL,4FL9,7/16/2020,135.0,JACKSONVILLE,MIAMI,,SAINT PETERSBURG,,N,28.143349721913438,-81.64702027768523,US Airports
4248,YOUNG FIELD,PR,DAWSON,TERRELL,ATL,9GA3,7/16/2020,401.0,JACKSONVILLE,JACKSONVILLE,,MACON,,N,31.83960916717336,-84.48158277838853,US Airports
5006,CORRAL CREEK,PR,HELMER,LATAH,NONE,0ID9,7/16/2020,2895.0,GREAT FALLS,SALT LAKE CITY,,BOISE,,N,46.78527777779881,-116.47113055590292,US Airports
3563,TAILWINDS,PR,JUPITER,MARTIN,ORL,FD15,7/16/2020,19.0,MIAMI,MIAMI,,MIAMI,20.0,N,26.979500000138056,-80.21865666708192,US Airports
1641,MAULDIN AIRSTRIP,PR,TONOPAH,MARICOPA,PHX,56AZ,7/16/2020,1193.0,PHOENIX,ALBUQUERQUE,,PRESCOTT,,N,33.48198333302494,-113.00212750039009,US Airports
2902,NORTH FORK VALLEY,PU,PAONIA,DELTA,DEN,7V2,7/16/2020,5798.0,DENVER,DENVER,,DENVER,168.0,N,38.83130555618801,-107.64586111117991,US Airports
946,BENEDICK,PR,JACK,COFFEE,JAN,AL37,7/16/2020,335.0,NEW ORLEANS,MEMPHIS,,ANNISTON,32.0,N,31.555027778083442,-85.97727777765151,US Airports
3314,NEAL FIELD,PR,CHIEFLAND,LEVY,ORL,79FL,7/16/2020,45.0,JACKSONVILLE,JACKSONVILLE,,GAINESVILLE,,N,29.55273805568803,-82.868732221666,US Airports
5783,WALNUT CREEK,PR,SOMONAUK,LA SALLE,CHI,49IL,7/16/2020,666.0,CHICAGO,CHICAGO,,KANKAKEE,,N,41.59333333326261,-88.69166666720487,US Airports
6337,ROBERTS FIELD,PR,SULPHUR SPRINGS,HENRY,CHI,39IN,7/16/2020,1085.0,ST LOUIS,INDIANAPOLIS,,TERRE HAUTE,,N,40.00226833266825,-85.42886111076814,US Airports
5179,WOLFORD'S,PR,ABINGDON,KNOX,CHI,IL01,7/16/2020,720.0,CHICAGO,CHICAGO,,KANKAKEE,,N,40.79253888927209,-90.43818500028861,US Airports
6118,METHODIST HOSPITAL NR 2,PR,INDIANAPOLIS,MARION,CHI,54IN,7/16/2020,815.0,ST LOUIS,INDIANAPOLIS,,TERRE HAUTE,,N,39.78880555615332,-86.16175555556494,US Airports
1064,EAMC-LANIER,PR,VALLEY,CHAMBERS,JAN,AL07,7/16/2020,570.0,ATLANTA,ATLANTA,,ANNISTON,,N,32.8295419999956,-85.16872300023925,US Airports
5709,ADAMS RLA NUMBER 2,PR,PONTIAC,LIVINGSTON,CHI,2LL7,7/16/2020,630.0,CHICAGO,CHICAGO,,KANKAKEE,,N,40.93472222181545,-88.73755555569687,US Airports
1955,BANK OF AMERICA GLENDALE,PR,GLENDALE,LOS ANGELES,LAX,CL19,7/16/2020,560.0,LOS ANGELES,LOS ANGELES,,HAWTHORNE,,N,34.155377777960474,-118.25699999963932,US Airports
5637,CUSHING FIELD LTD,PR,NEWARK,LA SALLE,CHI,0C8,7/16/2020,640.0,CHICAGO,CHICAGO,,KANKAKEE,20.0,N,41.519475000161165,-88.60562888862944,US Airports
2845,MANOR HOUSE,PR,LITTLETON,JEFFERSON,DEN,2CO6,7/16/2020,6220.0,DENVER,DENVER,,DENVER,,N,39.586933333210105,-105.16943333258055,US Airports
341,KLAWOCK,PU,KLAWOCK,PRINCE OF WALES,NONE,AQC,7/16/2020,0.0,KETCHIKAN,ANCHORAGE,PAQC,KETCHIKAN,,N,55.55465750011801,-133.10169277827222,US Airports
4436,RICHARD B RUSSELL REGIONAL - J H TOWERS FIELD,PU,ROME,FLOYD,ATL,RMG,7/16/2020,644.09997559,ATLANTA,ATLANTA,KRMG,MACON,985.0,N,34.3507777779859,-85.15866666695905,US Airports
3578,GRAND CYPRESS RESORT,PR,KISSIMMEE,ORANGE,ORL,FD41,7/16/2020,105.0,MIAMI,JACKSONVILLE,,SAINT PETERSBURG,,N,28.380952778015633,-81.5085416672447,US Airports
2043,M H 15 HEAPS PEAK USFS,PU,LAKE ARROWHEAD,SAN BERNARDINO,LAX,13CA,7/16/2020,6266.0,LOS ANGELES,LOS ANGELES,,RIVERSIDE,,N,34.235213889295586,-117.15478888884778,US Airports
539,SEWARD,PU,SEWARD,KENAI PENINSULA,NONE,SWD,7/16/2020,27.70000076,SEWARD,ANCHORAGE,PAWD,KENAI,302.0,N,60.12988586095697,-149.41662944441924,US Airports
1355,SMH,PR,SPRINGDALE,WASHINGTON,AOK,0AR0,7/16/2020,1352.0,KANSAS CITY,MEMPHIS,,JONESBORO,,N,36.18146638879633,-94.13714749971895,US Airports
154,CROOKED CREEK,PU,CROOKED CREEK,BETHEL,NONE,CJX,7/16/2020,180.6000061,MC GRATH,ANCHORAGE,PACJ,KENAI,94.0,N,61.8678888891472,-158.13494444374237,US Airports
2147,MEMORIAL HOSPITAL LOS BANOS,PR,LOS BANOS,MERCED,SFO,CA80,7/16/2020,115.0,SAN FRANCISCO,OAKLAND,,RANCHO MURIETA,,N,37.064534999793565,-120.85896499998137,US Airports
4981,FAIRFIELD RANCH,PR,FAIRFIELD,CAMAS,NONE,ID70,7/16/2020,5183.0,SALT LAKE CITY,SALT LAKE CITY,,BOISE,,N,43.39446250023201,-114.82522638858822,US Airports
1508,TURF,PR,MESA,MARICOPA,PHX,AZ39,7/16/2020,1385.0,PHOENIX,ALBUQUERQUE,,PRESCOTT,4.0,N,33.46324027773814,-111.72874972180107,US Airports
1223,WADLEY RGNL MEDICAL CENTER AT HOPE,PR,HOPE,HEMPSTEAD,AOK,1AR7,7/16/2020,375.0,MEMPHIS,FORT WORTH,,JONESBORO,,N,33.64844999986552,-93.5850388890702,US Airports
931,HAZEL GREEN ACRES,PR,HAZEL GREEN,MADISON,NONE,8AL7,7/16/2020,908.0,ATLANTA,MEMPHIS,,ANNISTON,9.0,N,34.98047222207847,-86.6923055561006,US Airports
3896,PIERSON MUNI,PU,PIERSON,VOLUSIA,ORL,2J8,7/16/2020,63.0,JACKSONVILLE,JACKSONVILLE,,SAINT PETERSBURG,147.0,N,29.250027778009468,-81.45933333309794,US Airports
3718,JACKSON MEMORIAL HOSPITAL,PU,MIAMI,DADE,ORL,25FA,7/16/2020,92.0,MIAMI,MIAMI,,MIAMI,,N,25.792861111201123,-80.21146944412304,US Airports
5193,KINSEY RLA,PR,ARENZVILLE,CASS,CHI,IL12,7/16/2020,455.0,ST LOUIS,KANSAS CITY,,SAINT LOUIS,,N,39.880046944008456,-90.46512527803,US Airports
2361,SAN DIEGO POLICE HEADQUARTERS,PR,SAN DIEGO,SAN DIEGO,LAX,CA47,7/16/2020,162.0,LOS ANGELES,LOS ANGELES,,SAN DIEGO,,N,32.71533333321826,-117.15055555561348,US Airports
4763,MMSC,PR,MARSHALLTOWN,MARSHALL,NONE,6IA8,7/16/2020,920.0,CHICAGO,CHICAGO,,FORT DODGE,,N,42.049625000079665,-92.90496944426302,US Airports
1459,STEWART MOUNTAIN DAM,PR,GOLDFIELD,MARICOPA,PHX,AZ54,7/16/2020,1530.0,PHOENIX,ALBUQUERQUE,,PRESCOTT,,N,33.5522675001603,-111.5490230561702,US Airports
5413,GIBSON AREA HOSPITAL,PR,GIBSON CITY,FORD,CHI,9IS8,7/16/2020,782.0,CHICAGO,CHICAGO,,SAINT LOUIS,2.0,N,40.47965277826133,-88.36945000016485,US Airports
671,VISNAW LAKE,PU,WASILLA,MATANUSKA-SUSITNA,NONE,T66,7/16/2020,300.0,ANCHORAGE,ANCHORAGE,,KENAI,,N,61.619011111095595,-149.67856111058316,US Airports
6047,POLICE,PR,GARY,LAKE,CHI,IN78,7/16/2020,591.0,CHICAGO,CHICAGO,,TERRE HAUTE,,N,41.59114722218142,-87.33614888927843,US Airports
3277,MANATEE MEMORIAL HOSPITAL,PR,BRADENTON,MANATEE,NONE,FL45,7/16/2020,10.0,MIAMI,MIAMI,,SAINT PETERSBURG,1.0,N,27.495755556177265,-82.56255555613224,US Airports
2576,PFISTER RANCH,PR,ASPEN,PITKIN,DEN,78CO,7/16/2020,8000.0,DENVER,DENVER,,DENVER,,N,39.17720944418198,-106.85615166700673,US Airports
4942,MAGEE,PU,COEUR D'ALENE,SHOSHONE,HLN,S77,7/16/2020,3002.0,GREAT FALLS,SEATTLE,,BOISE,20.0,N,47.837415832872914,-116.2635127781418,US Airports
830,COURTLAND,PU,COURTLAND,LAWRENCE,JAN,9A4,7/16/2020,588.0,ATLANTA,MEMPHIS,,ANNISTON,350.0,N,34.658158332743376,-87.34855805581482,US Airports
3371,JOY FARMS,PR,DEFUNIAK SPRINGS,WALTON,ORL,0FD9,7/16/2020,290.0,NEW ORLEANS,JACKSONVILLE,,GAINESVILLE,5.0,N,30.652135555640534,-86.10938444374567,US Airports
175,ALL WEST,PR,DELTA JUNCTION,FAIRBANKS NORTH STAR,NONE,AK77,7/16/2020,1275.0,ANCHORAGE,ANCHORAGE,,FAIRBANKS,,N,63.94142777791127,-145.42222499977672,US Airports
1096,CARROLL COUNTY,PU,BERRYVILLE,CARROLL,AOK,4M1,7/16/2020,1205.5,KANSAS CITY,MEMPHIS,,JONESBORO,51.0,N,36.38133333326991,-93.62455555563642,US Airports
405,NAKNEK,PU,NAKNEK,BRISTOL BAY,NONE,5NK,7/16/2020,70.0,KODIAK,ANCHORAGE,,KENAI,84.0,N,58.73466286113824,-157.02521041675678,US Airports
3336,KNOBEL,PR,COCOA,BREVARD,ORL,3FL4,7/16/2020,38.0,JACKSONVILLE,MIAMI,,SAINT PETERSBURG,,N,28.24845277831048,-80.66196944410176,US Airports
1197,DIAMOND BLUFF,PR,GREERS FERRY,CLEBURNE,AOK,1AR6,7/16/2020,1000.0,MEMPHIS,MEMPHIS,,JONESBORO,,N,35.50332777804025,-92.19670833259106,US Airports
6139,KOKOMO MUNI,PU,KOKOMO,HOWARD,CHI,OKK,7/16/2020,832.29998779,CHICAGO,CHICAGO,KOKK,TERRE HAUTE,590.0,N,40.52766666723075,-86.05975000003212,US Airports
4048,CLEVELAND CLINIC FLORIDA HOSPITAL,PR,WESTON,BROWARD,ORL,FD13,7/16/2020,8.0,MIAMI,MIAMI,,MIAMI,,N,26.08888888928972,-80.36583333294024,US Airports
1747,BISHOP,PU,BISHOP,INYO,LAX,BIH,7/16/2020,4124.29980469,SAN FRANCISCO,OAKLAND,KBIH,RIVERSIDE,830.0,N,37.373111110850495,-118.36361111073431,US Airports
3104,CANDLELIGHT,PR,NEW MILFORD,LITCHFIELD,NONE,6Y2,7/16/2020,675.0,NEW YORK,NEW YORK,,BRIDGEPORT,3.0,N,41.56787194380155,-73.46067805579764,US Airports
899,STINSON STAGEFIELD AHP,MR,FORT RUCKER/NEW BROCKTON,COFFEE,JAN,22AL,7/16/2020,379.0,NEW ORLEANS,JACKSONVILLE,,ANNISTON,,N,31.36079444406909,-86.0137305557866,US Airports
186,EEK,PU,EEK,BETHEL,NONE,EEK,7/16/2020,26.5,BETHEL,ANCHORAGE,PAEE,KENAI,,N,60.21369444415769,-162.04388888913226,US Airports
6237,JERRY W HUMPHREY,PR,NEWBURGH,WARRICK,CHI,IN59,7/16/2020,342.0,ST LOUIS,INDIANAPOLIS,,TERRE HAUTE,,N,37.94504333299891,-87.42445361138908,US Airports
4793,HOLT FARMS,PR,NORTHWOOD,WORTH,NONE,IA51,7/16/2020,1274.0,OMAHA,KANSAS CITY,,FORT DODGE,,N,43.426816667215334,-93.27355138896664,US Airports
1836,COLUSA COUNTY,PU,COLUSA,COLUSA,SFO,O08,7/16/2020,49.0,SAN FRANCISCO,OAKLAND,,RANCHO MURIETA,81.0,N,39.1790000003253,-121.99333333296723,US Airports
3837,LOCKHEED MARTIN,PR,ORLANDO,ORANGE,ORL,82FD,7/16/2020,98.0,JACKSONVILLE,JACKSONVILLE,,SAINT PETERSBURG,,N,28.44680277820075,-81.45102500008807,US Airports
2217,OCEANO COUNTY,PU,OCEANO,SAN LUIS OBISPO,SFO,L52,7/16/2020,14.0,LOS ANGELES,LOS ANGELES,,HAWTHORNE,58.0,N,35.1015291669425,-120.62231527842525,US Airports
4344,GIBSON FIELD,PR,LAFAYETTE,WALKER,ATL,GE05,7/16/2020,750.0,ATLANTA,ATLANTA,,ANNISTON,18.0,N,34.615555556083635,-85.34305555567681,US Airports
3237,GARNER LANDING,PR,AUBURNDALE,POLK,ORL,1FL0,7/16/2020,147.0,JACKSONVILLE,MIAMI,,SAINT PETERSBURG,,N,28.103627777734545,-81.80591111139238,US Airports
3630,BENT WILLIES,PR,LAKE WALES,POLK,ORL,52FA,7/16/2020,73.0,MIAMI,MIAMI,,SAINT PETERSBURG,45.0,N,27.939611111323874,-81.43202777790415,US Airports
2349,SAN BERNARDINO INTL,PU,SAN BERNARDINO,SAN BERNARDINO,LAX,SBD,7/16/2020,1159.30004883,LOS ANGELES,LOS ANGELES,KSBD,RIVERSIDE,1329.0,Y,34.0953611109406,-117.23488888873514,US Airports
3351,CROSS CITY,PU,CROSS CITY,DIXIE,ORL,CTY,7/16/2020,42.09999847,JACKSONVILLE,JACKSONVILLE,KCTY,GAINESVILLE,591.0,N,29.635527778166427,-83.10474999997933,US Airports
5228,BOLINGBROOK'S CLOW INTL,PU,BOLINGBROOK,WILL,CHI,1C5,7/16/2020,674.90002441,CHICAGO,CHICAGO,,KANKAKEE,205.0,N,41.695916666705365,-88.12950000030719,US Airports
1002,DALE MEDICAL CENTER,PR,OZARK,DALE,JAN,AL87,7/16/2020,390.0,NEW ORLEANS,JACKSONVILLE,,ANNISTON,8.0,N,31.450916667261353,-85.63223055612468,US Airports
43,LOWELL FIELD,PR,ANCHOR POINT,SEWARD,NONE,00AK,7/16/2020,252.0,SEWARD,ANCHORAGE,,HOMER,200.0,N,59.94888888900805,-151.69222222242098,US Airports
5741,ST ANTHONY MEDICAL CENTER,PR,ROCKFORD,WINNEBAGO,CHI,LL84,7/16/2020,871.0,CHICAGO,CHICAGO,,KANKAKEE,,N,42.27069444369309,-89.00723888865204,US Airports
3546,WHITEHOUSE NOLF,MN,JACKSONVILLE,DUVAL,ORL,NEN,7/16/2020,97.0,JACKSONVILLE,JACKSONVILLE,KNEN,GAINESVILLE,,Y,30.349495000313954,-81.8669894441403,US Airports
2724,USAF ACADEMY BULLSEYE AUX AIRFIELD,MA,ELLICOTT,EL PASO,DEN,CO90,7/16/2020,6036.0,DENVER,DENVER,,DENVER,,N,38.75861111096463,-104.30055555555569,US Airports
2973,HELITRAX / TELLURIDE,PR,TELLURIDE,SAN MIGUEL,DEN,CO72,7/16/2020,9430.0,DENVER,DENVER,,DENVER,,N,37.93999361109524,-107.84867499973723,US Airports
3635,PALM BEACH STATE COLLEGE,PR,LAKE WORTH,PALM BEACH,ORL,42FD,7/16/2020,13.0,MIAMI,MIAMI,,MIAMI,,N,26.610216667296925,-80.08810277758393,US Airports
4143,VADA,PR,BAINBRIDGE,DECATUR,ATL,GA42,7/16/2020,140.0,JACKSONVILLE,JACKSONVILLE,,MACON,,N,31.072469443672993,-84.39337499976838,US Airports
