id,name,street,city,state,zip,latitude,longitude,phone,state_name,brand,updated
18256,7-11 Str   924 E Empire Ave,924 E EMPIRE AVE,Spokane,WA,99207-3014,47.6927878,-117.3955407,5094898132,Washington,7-11,2024-03-14
23636,7-11 Str   1425 N Maple St,1425 N MAPLE ST,Spokane,WA,99201-2769,47.670560510277,-117.436074614524,5093275342,Washington,7-11,2024-03-14
32703,7-11 Str   177 So. Division St,177 SO. DIVISION ST,Spokane,WA,99202-1550,47.6548101,-117.4103814,5098385505,Washington,7-11,2024-03-14
18043,7-11 Str   1317 S Grand Bvd,1317 S GRAND BVD,Spokane,WA,99202-1136,47.6434177,-117.4085623,5096247179,Washington,7-11,2024-03-14
18071,7-11 Str   722 N Park,722 N PARK,Spokane Valley,WA,99212-1145,47.6638345,-117.3036304,5099221755,Washington,7-11,2024-03-14
26255,7-11 Str   2828 E. 30th,2828 E. 30TH,Spokane,WA,99223-4782,47.6269537811048,-117.368885278701,5095344140,Washington,7-11,2024-03-14
20522,7-11 Str   2122 N. Pines,2122 N. PINES,Spokane Valley,WA,99206-4719,47.676777009229,-117.238996624946,5099285357,Washington,7-11,2024-03-14
23781,7-11 Str   650 N. Idaho St.,650 N. IDAHO ST.,Post Falls,ID,83854-8669,47.7140176,-116.936524,2087739103,Idaho,7-11,2024-03-14
40085,7-Eleven,771 Route 17M,MONROE,NY,10950,41.33219,-74.19206,8457830869,New York,7-11,2024-03-14
36087,7-Eleven Store,6 STATE RT 23,Hamburg,NJ,07419,41.154074,-74.57607,9732090503,New Jersey,7-11,2024-03-14
39162,7-Eleven Store,19 FRANKLIN TURNPIKE,Mahwah,NJ,07430,41.1062675771406,-74.148721396923,2015292452,New Jersey,7-11,2024-03-14
21450,7-Eleven Store,28 ROUTE 59,Suffern,NY,10901-4811,41.1131109,-74.1318801,8453574711,New York,7-11,2024-03-14
33518,7-Eleven Store,360 RIDGE RD.,Mahwah,NJ,07430-3614,41.0785588,-74.1645418,2015291075,New Jersey,7-11,2024-03-14
11456,7-Eleven Store,1130 RINGWOOD AV,Haskell,NJ,07420-1564,41.0273377073945,-74.2964708805084,9738310806,New Jersey,7-11,2024-03-14
19389,7-Eleven Store,14 COLLEGE ROAD,Monsey,NY,10952-2821,41.110777,-74.092002,8453521563,New York,7-11,2024-03-14
39042,Bcp Store,2 RIVERSIDE SQUARE,Bloomingdale,NJ,07403-1655,41.0021682582534,-74.3280807632709,9734925565,New Jersey,7-11,2024-03-14
34226,7-11 Str   1284 Route 23,1284 ROUTE 23,Butler,NJ,07405,40.9917710501155,-74.3453621864318,9738383134,New Jersey,7-11,2024-03-14
24817,7-11 Str   65 Kennedy Dr,65 KENNEDY DR,Spring Valley,NY,10977-5319,41.1071506,-74.0582348,8454259009,New York,7-11,2024-03-14
41890,7-Eleven,170 W RAILROAD AVE,Garnerville,NY,10923,41.20761,-73.997033,8002550711,New York,7-11,2024-03-14
42137,7-Eleven,212 GURNEE AVE,Haverstraw,NY,10927,41.198967,-73.982943,8002550711,New York,7-11,2024-03-14
34679,7-Eleven Store,540 ROUTE 23 N,Pompton Plains,NJ,07444,40.9685404061185,-74.2851345241069,9732483029,New Jersey,7-11,2024-03-14
36051,7-Eleven Store,85 SPARTA AVE,Sparta,NJ,07871,41.0402089,-74.6432347,9737263206,New Jersey,7-11,2024-03-14
23967,7-Eleven Store,220 WYCKOFF AVE,Waldwick,NJ,07463-1247,41.0117837165621,-74.1390067444627,2014446494,New Jersey,7-11,2024-03-14
34447,7-Eleven Store,26 N MAIN ST,New City,NY,10956,41.147985381096,-73.9886900782585,8456343836,New York,7-11,2024-03-14
38691,7-Eleven Store,13 NEWTON AVE,Branchville,NJ,07826,41.14064,-74.74589,8622737383,New Jersey,7-11,2024-03-14
11472,7-Eleven Store,33 PINE CONE LANE,Sparta,NJ,07871-2332,41.0253820148905,-74.6321600675582,9737294027,New Jersey,7-11,2024-03-14
36082,7-Eleven Store,18 WYCKOFF AVE,Waldwick,NJ,07463,41.0087223467286,-74.1201440218174,2014455014,New Jersey,7-11,2024-03-14
36442,7-Eleven Store,85 E ROUTE 59,Nanuet,NY,10954,41.0951663,-74.0077241,8456270125,New York,7-11,2024-03-14
24087,7-Eleven Store,118 GODWIN,Midland Park,NJ,07432-1961,40.9860393238672,-74.1386952996253,2016520711,New Jersey,7-11,2024-03-14
40152,Bcp Str    78 Rte 17k,78 RTE 17K,Newburgh,NY,12550,41.50509,-74.06958,8455676724,New York,7-11,2024-03-14
11462,7-11 Str   191 N Middletown Rd,191 N MIDDLETOWN RD,Pearl River,NY,10965-2032,41.0662361232289,-74.0130096673965,8457352318,New York,7-11,2024-03-14
34205,7-Eleven Store,1 N KINDERKAMACK RD,Montvale,NJ,07645,41.0406364944711,-74.0280702710151,2013911201,New Jersey,7-11,2024-03-14
39202,7-Eleven Store,1217 ROUTE 23,Wayne,NJ,07470,40.9254937131727,-74.2689835233705,9736941082,New Jersey,7-11,2024-03-14
38731,7-11 Str   1302 Palisades Center Dr,1302 PALISADES CENTER DR,West Nyack,NY,10994,41.0981,-73.9577,8453760602,New York,7-11,2024-03-14
37251,7-Eleven Store,63 WATER ST,Newton,NJ,07860,41.0604754826246,-74.751158952713,9735793005,New Jersey,7-11,2024-03-14
11439,7-Eleven Store,370 HILLSDALE AV,Hillsdale,NJ,07642-2709,41.0030872660391,-74.0387883782387,2016647449,New Jersey,7-11,2024-03-14
25906,7-Eleven Store,86-92 GOFFLE RD,Hawthorne,NJ,07506-3825,40.9372002513644,-74.1654080897569,9734234833,New Jersey,7-11,2024-03-14
39252,Bcp Store,202 RYERSON AVE,Paterson,NJ,07502,40.9222534,-74.1929232,9737900122,New Jersey,7-11,2024-03-14
39387,7-Eleven Store,67 E RIDGEWOOD AVE,Paramus,NJ,07652,40.96782852524,-74.0732708573341,2015990764,New Jersey,7-11,2024-03-14
39712,Bcp Store,639 RT 17 SOUTH,Paramus,NJ,07652,40.9622094,-74.0771735,2018572760,New Jersey,7-11,2024-03-14
34989,7-Eleven Store,12-06 RIVER RD,Fair Lawn,NJ,07410,40.9311264,-74.132209,2017913714,New Jersey,7-11,2024-03-14
37190,7-Eleven Store,262 MAIN ST,Paterson,NJ,07505,40.9161006,-74.1734444,9732786409,New Jersey,7-11,2024-03-14
37718,7-11 Str   57 E 30th St,57 E 30TH ST,Paterson,NJ,07514,40.92422308743172,-74.14291441440582,9738810270,New Jersey,7-11,2024-03-14
36470,7-Eleven Store,45 W MAIN ST,Denville,NJ,07834,40.8932636,-74.4808196,2013170701,New Jersey,7-11,2024-03-14
34249,7-Eleven Store,207 RIVERVALE RD,Westwood,NJ,07675,40.995348283445,-74.0068136198533,2016644379,New Jersey,7-11,2024-03-14
39776,Bcp Store,51 WILLOWBROOK BLVD,Wayne,NJ,07470,40.8892814,-74.2486698,9732562113,New Jersey,7-11,2024-03-14
34260,7-Eleven Store,31 N BEVERWYCK RD,Lake Hiawatha,NJ,07034,40.8785043,-74.382878,9732630349,New Jersey,7-11,2024-03-14
25773,7-11 Str   230 North Highland Avenue,230 NORTH HIGHLAND AVENUE,Ossining,NY,10562-2905,41.1745516091946,-73.8665730460116,9149419495,New York,7-11,2024-03-14
11451,7-11 Str   198 Rt 46,198 RT 46,Rockaway,NJ,07866-4021,40.8905234551439,-74.5123051554128,9736276511,New Jersey,7-11,2024-03-14
29430,7-Eleven Store,91 BROADWAY,Elmwood Park,NJ,07407-3008,40.9197157434117,-74.1246499121189,2017947111,New Jersey,7-11,2024-03-14
11441,7-Eleven Store,269 CHANGEBRIDGE RD,Pine Brook,NJ,07058,40.8703327122953,-74.3592533469201,9732273847,New Jersey,7-11,2024-03-14
39225,Bcp Store,31-28 BROADWAY,Fair Lawn,NJ,07410,40.9242504467198,-74.1043710708618,2017734503,New Jersey,7-11,2024-03-14
11435,7-Eleven Store,218 NEWARK POMPTON TPKE,Little Falls,NJ,07424-1112,40.8808779165879,-74.242240214619,9732565934,New Jersey,7-11,2024-03-14
11463,7-Eleven Store,356 RIFLE CAMP RD,West Paterson,NJ,07424-2726,40.8913807,-74.187887,9738818616,New Jersey,7-11,2024-03-14
39643,Bcp Store,260 E MIDLAND AVE,Paramus,NJ,07652,40.94497,-74.05086,2015239000,New Jersey,7-11,2024-03-14
41789,7-Eleven,265 S HIGHLAND AVE,Ossining,NY,10562,41.143377,-73.861011,8002550711,New York,7-11,2024-03-14
37280,7-11 Str   155 Salem St,155 SALEM ST,Randolph,NJ,07869,40.8792031,-74.5413081,9734428261,New Jersey,7-11,2024-03-14
15168,7-11 Str   959 State Route 53,959 STATE ROUTE 53,Morris Plains,NJ,07950-2735,40.8627161353071,-74.4691649079322,9734551788,New Jersey,7-11,2024-03-14
39018,Bcp Store,450 LIVINGSTON ST,Norwood,NJ,07648,40.9973576,-73.9549963,2017680914,New Jersey,7-11,2024-03-14
33475,7-Eleven Store,357 MARKET ST,Elmwood Park,NJ,07407,40.899844,-74.1154275,2017942086,New Jersey,7-11,2024-03-14
11432,7-11 Str   280 Main St,280 MAIN ST,New Milford,NJ,07646-1727,40.9453775,-74.0166408,2012619527,New Jersey,7-11,2024-03-14
34050,7-Eleven Store,205 ROUTE 46,Elmwood Park,NJ,07407,40.8935412088708,-74.1179439666803,2017913836,New Jersey,7-11,2024-03-14
22645,7-Eleven Store,450 ROCHELLE AVE,Rochelle Park,NJ,07662-3321,40.9103545238793,-74.0726378560066,2013680517,New Jersey,7-11,2024-03-14
36488,7-Eleven Store,584 KINDERKAMACK RD,River Edge,NJ,07661,40.9276266985901,-74.0341186523437,2012610519,New Jersey,7-11,2024-03-14
11458,7-11 Str   138 Lakeside Blvd,138 LAKESIDE BLVD,Landing,NJ,07850-1119,40.9076868859767,-74.6654087305068,9733982600,New Jersey,7-11,2024-03-14
39375,7-Eleven Store,720 RIVER DR,New Milford,NJ,07646,40.9307798728801,-74.0256187319755,2012612657,New Jersey,7-11,2024-03-14
11438,7-11 Str   576 Bloomfield Av,576 BLOOMFIELD AV,West Caldwell,NJ,07006-7503,40.8455376649433,-74.2877224329049,9732289411,New Jersey,7-11,2024-03-14
32949,7-Eleven Store,1202 MAIN AVENUE,Clifton,NJ,07011-2249,40.8773146499793,-74.1410784423351,9735460488,New Jersey,7-11,2024-03-14
11431,7-Eleven Store,206 MARKET STREET,Saddle Brook,NJ,07663,40.8958198,-74.0880463,2012508971,New Jersey,7-11,2024-03-14
40227,7-Eleven Store,3650 LEE BLVD,Jefferson Valley,NY,10535,41.33147,-73.80963,9149629891,New York,7-11,2024-03-14
39556,Bcp Str    100 W Madison Ave,100 W MADISON AVE,Dumont,NJ,07628,40.9404908195837,-73.9993038879015,2014391518,New Jersey,7-11,2024-03-14
39377,Bcp Store,85 OUTWATER LN,Garfield,NJ,07026,40.8813273182697,-74.1149932798226,9734780800,New Jersey,7-11,2024-03-14
24485,7-11 Str   1 South Broadway,1 SOUTH BROADWAY,Tarrytown,NY,10591-4001,41.0762151855603,-73.8585425913333,9146313108,New York,7-11,2024-03-14
39049,Bcp Store,849 CLIFTON AVE,Clifton,NJ,07013-1715,40.865945,-74.1585302,9737798888,New Jersey,7-11,2024-03-14
39818,Bcp Store,88 ESSEX ST,Rochelle Park,NJ,07662,40.89374919999999,-74.0750137,2019685556,New Jersey,7-11,2024-03-14
37188,7-11 Str   1080 Main St,1080 MAIN ST,River Edge,NJ,07661,40.9121759,-74.0366894,2013432815,New Jersey,7-11,2024-03-14
24447,7-Eleven Store,469 PASSAIC ST,Hackensack,NJ,07601-1518,40.8993543,-74.0569977,2014879836,New Jersey,7-11,2024-03-14
34906,7-Eleven Store,20 ROUTE 46,Lodi,NJ,07644,40.8843043,-74.0888723,9737723196,New Jersey,7-11,2024-03-14
29431,7-11 Str   434 Ridgedale Ave,434 RIDGEDALE AVE,East Hanover,NJ,07936-1403,40.8270089844104,-74.3592935800552,9738876652,New Jersey,7-11,2024-03-14
11426,7-11 Str   53 North Washington Ave,53 NORTH WASHINGTON AVE,Bergenfield,NJ,07621,40.9293967821037,-73.9952533645646,2013844274,New Jersey,7-11,2024-03-14
41739,7-Eleven,11-13 CENTRAL AVE,Passaic,NJ,07055,40.863295,-74.127824,8002550711,New Jersey,7-11,2024-03-14
38157,7-11 Str   547 Van Houten,547 VAN HOUTEN,Clifton,NJ,07013,40.85631,-74.14556,2012474850,New Jersey,7-11,2024-03-14
34157,7-Eleven Store,170 MAIN ST,Lodi,NJ,07644,40.8788891,-74.083664,9737777395,New Jersey,7-11,2024-03-14
26784,7-11 Str   1949 Commerce Street,1949 COMMERCE STREET,Yorktown Heights,NY,10598-4409,41.2750820984064,-73.7817079527395,9142450640,New York,7-11,2024-03-14
34554,7-Eleven Store,35 MADISON AVE,Cresskill,NJ,07626,40.942170373082,-73.9641465246677,2015692854,New Jersey,7-11,2024-03-14
32887,7-11 Str   540 Main Street,540 MAIN STREET,Hackensack,NJ,07601-5913,40.8956527987655,-74.0393114089965,2013424628,New Jersey,7-11,2024-03-14
41575,7-Eleven,228 E HANOVER AVE,Morris Plains,NJ,07950,40.830392,-74.505254,8002550711,New Jersey,7-11,2024-03-14
39300,7-11 Str   99 Ridgedale Ave,99 RIDGEDALE AVE,Cedar Knolls,NJ,07927,40.8209725,-74.4490656,9732670350,New Jersey,7-11,2024-03-14
34174,7-11 Str   287 Bloomfield Ave,287 BLOOMFIELD AVE,Verona,NJ,07044,40.8272481,-74.2375629,9732396198,New Jersey,7-11,2024-03-14
38122,7-Eleven Store,735-749 CEDAR LN,Teaneck,NJ,07666,40.89188925060032,-74.0320027973047,5512151266,New Jersey,7-11,2024-03-14
29220,7-11 Str   358 Main Ave,358 MAIN AVE,Wallington,NJ,07057-1627,40.8591205226434,-74.1050335764886,9734709444,New Jersey,7-11,2024-03-14
26366,7-11 Str   290 S. Summit Ave.,290 S. SUMMIT AVE.,Hackensack,NJ,07601-1007,40.8748303,-74.0654223,2013432711,New Jersey,7-11,2024-03-14
38241,7-Eleven Store,202 ESSEX ST,Hackensack,NJ,07601,40.8803789,-74.0528263,2016155689,New Jersey,7-11,2024-03-14
25680,7-11 Str   488 Bedford Rd,488 BEDFORD RD,Pleasantville,NY,10570-2930,41.1323749949135,-73.7937927246093,9147692999,New York,7-11,2024-03-14
36882,7-11 Str   203 Darling Ave,203 DARLING AVE,Nutley,NJ,07110,40.836959330113,-74.1627131402492,9736612037,New Jersey,7-11,2024-03-14
34674,7-11 Str   290 Polifly Rd,290 POLIFLY RD,Hackensack,NJ,07601,40.8726066,-74.0615442,2014880825,New Jersey,7-11,2024-03-14
38112,7-11 Str   165 Paterson Ave,165 PATERSON AVE,Wallington,NJ,07057,40.849935,-74.1139842,5512193882,New Jersey,7-11,2024-03-14
34523,7-11 Str   29 County Rd,29 COUNTY RD,Tenafly,NJ,07670,40.9251816690695,-73.963290899992,2018940125,New Jersey,7-11,2024-03-14
39666,Bcp Store,423 STATE RT 17,Hasbrouck Heights,NJ,07604,40.8636710444844,-74.0652637928724,2012886338,New Jersey,7-11,2024-03-14
32136,7-Eleven Store,1247 TEANECK ROAD,Teaneck,NJ,07666-4914,40.8953074487365,-74.0007139742647,2018620109,New Jersey,7-11,2024-03-14
34695,7-Eleven Store,310 HUYLER ST,South Hackensack,NJ,07606,40.8693944,-74.0488059,2013432606,New Jersey,7-11,2024-03-14
11429,7-Eleven Store,107 CEDAR LN,Teaneck,NJ,07666-4442,40.885606835788,-74.010484367609,2016929533,New Jersey,7-11,2024-03-14
41113,7-Eleven,37 E MAIN ST,Elmsford,NY,10523,41.054428,-73.817589,8002550711,New York,7-11,2024-03-14
39669,Bcp Store,330 PALISADES AVE,Bogota,NJ,07603,40.876752,-74.025581,2018808600,New Jersey,7-11,2024-03-14
39026,Bcp Str    110 Jackson Ave,110 JACKSON AVE,Rutherford,NJ,07070,40.8378106109621,-74.1168621182441,2016720136,New Jersey,7-11,2024-03-14
41165,7-Eleven Store,16A MAIN ST,Clifton,NJ,07014,40.82887,-74.14444,2012502380,New Jersey,7-11,2024-03-14
18390,7-11 Str   300 Hackensack St,300 HACKENSACK ST,Wood Ridge,NJ,07075-1240,40.8494078206218,-74.0794301000244,2019337117,New Jersey,7-11,2024-03-14
20496,7-11 Str   544 Broad Street,544 BROAD STREET,Bloomfield,NJ,07003-2705,40.8122244,-74.194477,9737489570,New Jersey,7-11,2024-03-14
34180,7-Eleven Store,13 TENAFLY RD,Englewood,NJ,07631,40.8968166,-73.9789271,2015691181,New Jersey,7-11,2024-03-14
34211,7-Eleven Store,15 BLOOMFIELD AVE,Montclair,NJ,07042,40.8061768167836,-74.2084501683712,9733376461,New Jersey,7-11,2024-03-14
41723,7-Eleven,47 PINE STREET,Morristown,NJ,07960,40.796839,-74.478679,8002550711,New Jersey,7-11,2024-03-14
38115,7-11 Str   151 Columbia Turnpike,151 COLUMBIA TURNPIKE,Florham Park,NJ,07932,40.78763,-74.38907,9738450110,New Jersey,7-11,2024-03-14
11437,7-Eleven Store,280 S LIVINGSTON,Livingston,NJ,07039-4022,40.7868301691682,-74.3138797581195,9739943294,New Jersey,7-11,2024-03-14
29776,7-Eleven Store,272 LIBERTY ST,Little Ferry,NJ,07643-1381,40.8524451218173,-74.0427687192414,2019941160,New Jersey,7-11,2024-03-14
37189,7-Eleven Store,200 ROUTE 46,Little Ferry,NJ,07643,40.8541967316022,-74.0388111845459,2016411256,New Jersey,7-11,2024-03-14
38078,7-11 Str   111 Union Ave,111 UNION AVE,East Rutherford,NJ,07073,40.82766932409201,-74.09747559186764,2014214353,New Jersey,7-11,2024-03-14
29984,7-Eleven Store,231 MAIN STREET,Ridgefield Park,NJ,07660,40.8579973,-74.0244971,2012291601,New Jersey,7-11,2024-03-14
21390,7-11 Str   38 Passaic Ave,38 PASSAIC AVE,Nutley,NJ,07110-2941,40.8087167889388,-74.1581614315509,9732359529,New Jersey,7-11,2024-03-14
34524,7-Eleven Store,476 GRAND AVE,Englewood,NJ,07631,40.878377,-73.9821373,5512660799,New Jersey,7-11,2024-03-14
39713,Bcp Str    630 Bloomfield Ave,630 BLOOMFIELD AVE,Bloomfield,NJ,07003,40.7951945971515,-74.1995076835155,9737432727,New Jersey,7-11,2024-03-14
32353,7-11 Str   750 Rutherford Avenue,750 RUTHERFORD AVENUE,Lyndhurst,NJ,07071-1218,40.8136506,-74.1095105,2017290990,New Jersey,7-11,2024-03-14
40289,7-Eleven,284 Washington Avenue,CARLSTADT,NJ,07072,40.83337,-74.05362,2018045535,New Jersey,7-11,2024-03-14
11464,7-11 Str   341 Us Highway 46,341 US HIGHWAY 46,Budd Lake,NJ,07828-3205,40.86269580323957,-74.74920667880872,9736910606,New Jersey,7-11,2024-03-14
34233,7-11 Str   307 Central Ave,307 CENTRAL AVE,White Plains,NY,10606,41.0342992,-73.7836142,9146832520,New York,7-11,2024-03-14
16309,7-11 Str   112 Route 100,112 ROUTE 100,Katonah,NY,10536,41.27684594678897,-73.70780495916267,9144018244,New York,7-11,2024-03-14
11460,7-11 Str   42 Route 517,42 ROUTE 517,Hackettstown,NJ,07840-2708,40.903938,-74.823967,9088526477,New Jersey,7-11,2024-03-14
38990,7-Eleven Store,637 PATERSON AVE,Carlstadt,NJ,07072,40.81811,-74.06581,2018568526,New Jersey,7-11,2024-03-14
40083,7-Eleven,1695 Rte 46 West & Jones Road,FORT LEE,NJ,07024,40.85873,-73.97756,2013639296,New Jersey,7-11,2024-03-14
38268,7-11 Str   216 Belleville Ave,216 BELLEVILLE AVE,Belleville,NJ,07109,40.78752,-74.15865,5512252201,New Jersey,7-11,2024-03-14
35640,7-11 Str   516 Valley Rd,516 VALLEY RD,West Orange,NJ,07052,40.7705653572801,-74.2443488538265,9737362111,New Jersey,7-11,2024-03-14
35301,7-11 Str   448 Ridge Rd,448 RIDGE RD,North Arlington,NJ,07031,40.794776,-74.1284142,2019917289,New Jersey,7-11,2024-03-14
39322,Bcp Str    122 Bloomfield Ave,122 BLOOMFIELD AVE,Bloomfield,NJ,07003,40.7780892,-74.1889168,9737077741,New Jersey,7-11,2024-03-14
11427,7-11 Str   2374 Lemoine Av,2374 LEMOINE AV,Fort Lee,NJ,07024-6207,40.8629717257299,-73.9629106968641,2015927889,New Jersey,7-11,2024-03-14
11465,7-11 Str   294 Rt 206,294 RT 206,Flanders,NJ,07836-9577,40.8303628013087,-74.709383547306,9735847667,New Jersey,7-11,2024-03-14
38181,7-11 Str   858 Scarsdale Ave,858 SCARSDALE AVE,Scarsdale,NY,10583,40.987413,-73.808309,9143137667,New York,7-11,2024-03-14
39161,Bcp Str    1412 Bergen Blvd,1412 BERGEN BLVD,Fort Lee,NJ,07024,40.8493084264004,-73.9843824505805,2015859889,New Jersey,7-11,2024-03-14
40084,7-Eleven Store,54 ABBOTT AVE,Palisades Park,NJ,07650,40.8415,-73.9967,2019459640,New Jersey,7-11,2024-03-14
25986,7-11 Str   471 Mclean Avenue,471 MCLEAN AVENUE,Yonkers,NY,10705-4608,40.9105028,-73.8826736,9149692740,New York,7-11,2024-03-14
18609,7-11 Str   1605 Lemoine Avenue,1605 LEMOINE AVENUE,Fort Lee,NJ,07024-5607,40.8493561057664,-73.9709169065515,2014618684,New Jersey,7-11,2024-03-14
37091,7-11 Str   247 Freeway Dr,247 FREEWAY DR,East Orange,NJ,07018,40.7597119,-74.2109455,9736722964,New Jersey,7-11,2024-03-14
35055,7-11 Str   897 Schuyler Ave,897 SCHUYLER AVE,Kearny,NJ,07032,40.7775626798397,-74.1309050917789,2019976929,New Jersey,7-11,2024-03-14
26280,7-11 Str   731 Fairview Ave.,731 FAIRVIEW AVE.,Fairview,NJ,07022-1550,40.8209944200422,-74.0077601820394,2019430493,New Jersey,7-11,2024-03-14
37695,7-11 Str   93 Hawthorne Ave,93 HAWTHORNE AVE,East Orange,NJ,07018,40.7529465,-74.2095303,9736754101,New Jersey,7-11,2024-03-14
39319,Bcp Str    9100 Tonnelle Ave,9100 TONNELLE AVE,North Bergen,NJ,07047,40.8135392404864,-74.0100042521954,2018682711,New Jersey,7-11,2024-03-14
36429,7-11 Str   60 Valley St,60 VALLEY ST,South Orange,NJ,07079,40.7447083,-74.2591943,9737630161,New Jersey,7-11,2024-03-14
41637,7-Eleven,156 MOUNT VERNON AVE,Mount Vernon,NY,10550,40.913153,-73.849976,8002550711,New York,7-11,2024-03-14
24471,7-11 Str   645 Palisades Ave,645 PALISADES AVE,Cliffside Park,NJ,07010-3032,40.8247928,-73.9843832,2019418193,New Jersey,7-11,2024-03-14
36089,7-11 Str   490 Valley St,490 VALLEY ST,Maplewood,NJ,07040,40.7349925973616,-74.2681081698924,9733132200,New Jersey,7-11,2024-03-14
38126,7-Eleven Store,6 RIVER RD,Summit,NJ,07901,40.7291578,-74.3783931,7322597863,New Jersey,7-11,2024-03-14
39133,Bcp Store,478 RIVER RD,Edgewater,NJ,07020,40.81412,-73.98456,2013135323,New Jersey,7-11,2024-03-14
38302,7-11 Str   7001 John F Kennedy Blvd,7001 JOHN F KENNEDY BLVD,North Bergen,NJ,07047,40.79776,-74.01554,2016877242,New Jersey,7-11,2024-03-14
39315,Bcp Str    752 Irvington Ave,752 IRVINGTON AVE,Maplewood,NJ,07040,40.7312438,-74.2447378,9737624499,New Jersey,7-11,2024-03-14
34182,7-11 Str   6004 Bergenline Ave,6004 BERGENLINE AVE,West New York,NJ,07093,40.7889188364996,-74.0159225463867,2018548167,New Jersey,7-11,2024-03-14
18249,7-Eleven Store,266 HOOKER AVENUE,Poughkeepsie,NY,12603-3012,41.6864252293648,-73.9098657667671,8453374790,New York,7-11,2024-03-14
39549,Bcp Str    1845 Webster Ave,1845 WEBSTER AVE,Bronx,NY,10457,40.8466789069671,-73.9020359516143,7182944808,New York,7-11,2024-03-14
24107,7-Eleven Store,317 MORRIS AVE,Summit,NJ,07901-2557,40.716444,-74.362786,9082730985,New Jersey,7-11,2024-03-14
34052,7-11 Str   1712 Springfield Ave,1712 SPRINGFIELD AVE,Maplewood,NJ,07040,40.7220915898859,-74.2621667683124,8622464385,New Jersey,7-11,2024-03-14
39542,Bcp Str    4912 Bergenline Ave,4912 BERGENLINE AVE,West New York,NJ,07093,40.7825388548023,-74.0209207637326,2012710150,New Jersey,7-11,2024-03-14
35294,7-Eleven Store,6215 PARK AVE,West New York,NJ,07093,40.7883344833472,-74.0071792155504,2012952985,New Jersey,7-11,2024-03-14
11436,7-Eleven Store,565 MORRIS AV,Springfield,NJ,07081-1016,40.7163242858489,-74.3246193230152,9739120776,New Jersey,7-11,2024-03-14
37146,7-11 Str   790 Broad St,790 BROAD ST,Newark,NJ,07102,40.7352178,-74.1720832,9736397269,New Jersey,7-11,2024-03-14
39406,Bcp Str    3900 Bergenline,3900 BERGENLINE,Union City,NJ,07087,40.7758536,-74.0261899,2012230711,New Jersey,7-11,2024-03-14
38521,7-11 Str   3229 Bergenline Ave,3229 BERGENLINE AVE,Union City,NJ,07087,40.77301,-74.02861,2013903683,New Jersey,7-11,2024-03-14
37539,7-11 Str   801 Amsterdam Ave,801 AMSTERDAM AVE,New York,NY,10025,40.7964482,-73.9683976,2122227492,New York,7-11,2024-03-14
39467,Bcp Store,565 TONNELLE AVE,Jersey City,NJ,07307,40.7504986513166,-74.060332998688,2012161614,New Jersey,7-11,2024-03-14
37324,7-Eleven Store,234-240 ELIZABETH AVE,Newark,NJ,07108,40.71465899999999,-74.19189395337298,9738770925,New Jersey,7-11,2024-03-14
11434,7-Eleven Store,1361 STUYVESANT AVE,Union,NJ,07083-5336,40.702798537069,-74.2628426849842,9086875660,New Jersey,7-11,2024-03-14
39228,7-11 Str   2264 Morris Ave,2264 MORRIS AVE,Union,NJ,07083,40.6988475444478,-74.2815524339675,9086868559,New Jersey,7-11,2024-03-14
37116,7-11 Str   2256 Second Ave,2256 SECOND AVE,New York,NY,10029,40.796777,-73.9376865,2122895186,New York,7-11,2024-03-14
37104,7-11 Str   1642 Lexington Ave,1642 LEXINGTON AVE,New York,NY,10029,40.7908794549449,-73.9474768145192,2124100375,New York,7-11,2024-03-14
40090,7-Eleven,1320 Rte 52,CARMEL,NY,10512,41.50748,-73.68361,8458782598,New York,7-11,2024-03-14
35039,7-11 Str   1386 Liberty Ave,1386 LIBERTY AVE,Hillside,NJ,07205,40.7010212816839,-74.2302041454332,9088101023,New Jersey,7-11,2024-03-14
35516,7-Eleven Store,555 W 42ND ST,New York,NY,10036,40.760914875372,-73.9979718625545,9173883043,New York,7-11,2024-03-14
36477,7-11 Str   881 8th Ave,881 8TH AVE,New York,NY,10019,40.7640373928325,-73.985176384449,2122479379,New York,7-11,2024-03-14
38719,7-11 Str   1171 Liberty Ave,1171 LIBERTY AVE,Hillside,NJ,07205,40.69396,-74.23588,5512651525,New Jersey,7-11,2024-03-14
38463,7-Eleven Store,41 CENTRAL AVE,Jersey City,NJ,07306,40.73517,-74.05657,5512200141,New Jersey,7-11,2024-03-14
33579,7-11 Str   1453 3rd Ave,1453 3RD AVE,New York,NY,10028,40.7762680234676,-73.9555952041611,2122882056,New York,7-11,2024-03-14
33256,7-Eleven Store,205 US HIGHWAY 22,Springfield,NJ,07081-3109,40.6856091715058,-74.3211220310513,9733793206,New Jersey,7-11,2024-03-14
35670,7-11 Str   1683 1st Ave,1683 1ST AVE,New York,NY,10128,40.777825184164,-73.9490250405197,2122892304,New York,7-11,2024-03-14
33633,7-11 Str   345 W 42nd St,345 W 42ND ST,New York,NY,10036,40.7582087103612,-73.9914165437222,2122477144,New York,7-11,2024-03-14
34338,7-Eleven Store,33 JOURNAL SQUARE,Jersey City,NJ,07306,40.7306694539711,-74.0643122792243,2014207907,New Jersey,7-11,2024-03-14
39277,7-Eleven Store,422 WASHINGTON ST,Hoboken,NJ,07030,40.74214620734,-74.0297251939773,2012226323,New Jersey,7-11,2024-03-14
39992,7-Eleven,673 8TH AVE,New York,NY,10036,40.757517,-73.988897,2127577570,New York,7-11,2024-03-14
32116,7-11 Str   1590 Hutchinson River Pkw,1590 HUTCHINSON RIVER PKW,Bronx,NY,10461,40.8432632928061,-73.8363540172576,7188240475,New York,7-11,2024-03-14
39875,Bcp Str    589 8th Ave,589 8TH AVE,New York,NY,10018,40.75529112977899,-73.99161100387573,2122441246,New York,7-11,2024-03-14
33616,7-11 Str   1594 York Ave,1594 YORK AVE,New York,NY,10028,40.7746278712132,-73.9478031545877,2123273613,New York,7-11,2024-03-14
39308,Bcp Str    535 8th Ave,535 8TH AVE,New York,NY,10018,40.7539831,-73.9924104,2122440100,New York,7-11,2024-03-14
35823,7-11 Str   1239 2nd Ave,1239 2ND AVE,New York,NY,10065,40.764311,-73.9619163,2123556595,New York,7-11,2024-03-14
39571,7-Eleven Store,1174 MORRIS AVE,Union,NJ,07083,40.6853656,-74.2393767,9085578959,New Jersey,7-11,2024-03-14
35621,7-11 Str   368 8th Ave,368 8TH AVE,New York,NY,10001,40.7486514,-73.9958277,2126954339,New York,7-11,2024-03-14
42327,7-Eleven,128 W 34TH ST,New York,NY,10001,40.750093,-73.989231,6465592901,New York,7-11,2024-03-14
34296,7-11 Str   100 Lindbergh Rd,100 LINDBERGH RD,Newark,NJ,07114,40.6920243,-74.1845811,9736420860,New Jersey,7-11,2024-03-14
39226,Bcp Str    866 6th Ave,866 6TH AVE,New York,NY,10001,40.747508,-73.989099,6463602449,New York,7-11,2024-03-14
39516,7-Eleven,800 6TH AVE,New York,NY,10001,40.745638,-73.990591,6469302263,New York,7-11,2024-03-14
34219,7-Eleven Store,1080 GALLOPING HILL RD,Union,NJ,07083,40.6767365730413,-74.267218708992,9086880573,New Jersey,7-11,2024-03-14
35057,7-11 Str   171 Madison Ave,171 MADISON AVE,New York,NY,10016,40.7471147204506,-73.9832210540771,2125321715,New York,7-11,2024-03-14
11430,7-11 Str   921 Mountain Ave,921 MOUNTAIN AVE,Mountainside,NJ,07092-2706,40.6683938594754,-74.350796341896,9086548945,New Jersey,7-11,2024-03-14
32201,7-11 Str   3508 East Tremont Ave,3508 EAST TREMONT AVE,Bronx,NY,10465-2027,40.8309841,-73.8269655,7186760657,New York,7-11,2024-03-14
37035,7-11 Str   478 3rd Ave,478 3RD AVE,New York,NY,10016,40.7448804422306,-73.9790420999907,2122138107,New York,7-11,2024-03-14
33570,7-11 Str   107 E 23rd St,107 E 23RD ST,New York,NY,10010,40.7401760601364,-73.9859204532733,2122607284,New York,7-11,2024-03-14
35050,7-11 Str   22-29 31st St,22-29 31ST ST,Astoria,NY,11105,40.7753791,-73.911363,7189320108,New York,7-11,2024-03-14
39392,7-11 Str   395 3rd Ave,395 3RD AVE,New York,NY,10016,40.7420140976683,-73.98059119766,3474432168,New York,7-11,2024-03-14
18024,7-11 Str   552-572 Morris Ave,552-572 MORRIS AVE,Elizabeth,NJ,07208-1942,40.6737598162547,-74.2246565222749,9083534415,New Jersey,7-11,2024-03-14
36799,7-11 Str   135 W 3rd St,135 W 3RD ST,New York,NY,10012,40.7310068371251,-74.0008109083556,2125983029,New York,7-11,2024-03-14
34707,7-11 Str   247 3rd Ave,247 3RD AVE,New York,NY,10010,40.7370503017223,-73.9841102063655,2122606817,New York,7-11,2024-03-14
27442,7-11 Str   500 Locust Street,500 LOCUST STREET,Roselle Park,NJ,07204-1318,40.6664428,-74.2685688,9082410839,New Jersey,7-11,2024-03-14
35702,7-Eleven Store,813 BROADWAY,New York,NY,10003,40.7330105580742,-73.9914118498563,2126738701,New York,7-11,2024-03-14
34247,7-Eleven Store,573 W WESTFIELD AVE,Roselle Park,NJ,07204,40.6596073003731,-74.2821755027398,9082452006,New Jersey,7-11,2024-03-14
39182,Bcp Str    555 East 1st Ave.,555 EAST 1ST AVE.,Roselle,NJ,07203,40.6624347205963,-74.2494168877601,9082455666,New Jersey,7-11,2024-03-14
35308,7-11 Str   351 Bowery,351 BOWERY,New York,NY,10003,40.726572729757,-73.991435246744,2122600529,New York,7-11,2024-03-14
39230,Bcp Str    174 Elmora Ave,174 ELMORA AVE,Elizabeth,NJ,07202,40.6634011586014,-74.2339995503425,9083553619,New Jersey,7-11,2024-03-14
39222,Bcp Str    34-17 Northern Blvd,34-17 NORTHERN BLVD,Long Island City,NY,11106,40.7523625,-73.9296732,7183922891,New York,7-11,2024-03-14
36678,7-11 Str   170 Avenue A,170 AVENUE A,New York,NY,10009,40.7282654965616,-73.9817294292516,2126736489,New York,7-11,2024-03-14
37619,7-Eleven Store,299 SOUTH AVE E,Cranford,NJ,07016,40.6554864669092,-74.3003616482292,9082720542,New Jersey,7-11,2024-03-14
33431,7-Eleven Store,309 NORTH AVENUE,Garwood,NJ,07027-1001,40.6529974805769,-74.3238025903701,9082331000,New Jersey,7-11,2024-03-14
35472,7-11 Str   110 Lafayette St,110 LAFAYETTE ST,New York,NY,10013,40.7181504,-74.0010424,2122263718,New York,7-11,2024-03-14
35710,7-11 Str   311 Broadway,311 BROADWAY,New York,NY,10007,40.7156046083353,-74.0053935348987,6466494153,New York,7-11,2024-03-14
39640,Bcp Store,110 CHURCH ST,New York,NY,10007,40.713582,-74.009281,2126081100,New York,7-11,2024-03-14
33574,7-11 Str   3131 Thomson Avenue,3131 THOMSON AVENUE,Long Island City,NY,11101,40.7450247387942,-73.9341084659099,7186144338,New York,7-11,2024-03-14
39793,Bcp Str    37 Laguardia Airport,37 LAGUARDIA AIRPORT,Flushing,NY,11371,40.7696293042223,-73.8864367693462,7188031418,New York,7-11,2024-03-14
21958,7-Eleven Store,1200 S AVE WEST,Westfield,NJ,07090-1420,40.6466462276212,-74.3645748496055,9082337110,New Jersey,7-11,2024-03-14
38310,7-11 Str   82 Greenwich St,82 GREENWICH ST,New York,NY,10006,40.707738,-74.013874,3476383594,New York,7-11,2024-03-14
35314,7-11 Str   50-92 Northern Blvd,50-92 NORTHERN BLVD,Long Island City,NY,11101,40.7525928633024,-73.9108711481094,7182059886,New York,7-11,2024-03-14
36797,7-11 Str   111 Fulton St,111 FULTON ST,New York,NY,10038,40.7098286350823,-74.0066560527439,2123460659,New York,7-11,2024-03-14
37561,7-Eleven Store,800 CENTRAL AVE,Westfield,NJ,07090,40.6445712,-74.3350466,9082323129,New Jersey,7-11,2024-03-14
36478,7-11 Str   111 John St,111 JOHN ST,New York,NY,10038,40.7076828,-74.0055652,2122275975,New York,7-11,2024-03-14
34139,7-11 Str   61-19 Northern Blvd,61-19 NORTHERN BLVD,Woodside,NY,11377,40.7542965631242,-73.9006948471069,7182672862,New York,7-11,2024-03-14
36431,7-Eleven Store,1832 E ST GEORGES AVE,Linden,NJ,07036,40.6513563063583,-74.2376855760812,9084860643,New Jersey,7-11,2024-03-14
35495,7-11 Str   42-02 Queens Blvd,42-02 QUEENS BLVD,Sunnyside,NY,11104,40.7431738,-73.9218579,7184823971,New York,7-11,2024-03-14
32127,7-Eleven Store,87-16 ASTORIA BLVD,East Elmhurst,NY,11369-1017,40.7638679,-73.881667,7184587779,New York,7-11,2024-03-14
32162,7-Eleven Store,765 BROADWAY,Bayonne,NJ,07002-3952,40.6736343197007,-74.1103244526494,2014371831,New Jersey,7-11,2024-03-14
23789,7-Eleven Store,954 S ELMORA,Elizabeth,NJ,07202-3109,40.6517948385734,-74.2234437167644,9083537160,New Jersey,7-11,2024-03-14
32720,7-Eleven Store,127-02 14TH AVE,College Point,NY,11356,40.7850216977684,-73.8409030437469,7189611396,New York,7-11,2024-03-14
27493,7-Eleven Store,79-01 NORTHERN BLVD,Jackson Heights,NY,11372-1223,40.7554506998253,-73.8880401277993,7188996970,New York,7-11,2024-03-14
27760,7-Eleven Store,22-50 COLLEGE POINT BLVD,College Point,NY,11356-2534,40.7787755166623,-73.8464474784132,7183585040,New York,7-11,2024-03-14
37922,7-11 Str   2309 E Edgar Rd,2309 E EDGAR RD,Linden,NJ,07036,40.6475933,-74.2251489,9084860820,New Jersey,7-11,2024-03-14
27887,7-11 Str   1275 Chestnut Street,1275 CHESTNUT STREET,Roselle,NJ,07203-2949,40.6434795328567,-74.2592632770538,9082981176,New Jersey,7-11,2024-03-14
39497,7-11 Str   328 Elizabeth Ave,328 ELIZABETH AVE,Elizabeth,NJ,07206,40.6509544007533,-74.1956976056098,9084098872,New Jersey,7-11,2024-03-14
32260,7-Eleven Store,463-467 AVENUE C,Bayonne,NJ,07002-5109,40.6635262,-74.1223339,2013390162,New Jersey,7-11,2024-03-14
34272,7-Eleven Store,1478 SOUTH AVE,Plainfield,NJ,07062,40.6347601702177,-74.3926763534545,9087550170,New Jersey,7-11,2024-03-14
33549,7-Eleven Store,66-04 QUEENS BLVD,Woodside,NY,11377,40.740294,-73.8983801,7187793683,New York,7-11,2024-03-14
32120,7-Eleven Store,149-52 14TH AVE,Whitestone,NY,11357-1730,40.7883985,-73.8141373,7187677785,New York,7-11,2024-03-14
35431,7-11 Str   1144 South Ave,1144 SOUTH AVE,Plainfield,NJ,07062,40.6297041,-74.4006162,9087570793,New Jersey,7-11,2024-03-14
23491,7-Eleven Store,528 N. WOOD AVE.,Linden,NJ,07036-4147,40.6339174823881,-74.2579945921897,9084868614,New Jersey,7-11,2024-03-14
32238,7-Eleven Store,39 WEST 8TH STREET #49,Bayonne,NJ,07002-1201,40.6549022032777,-74.1283892200772,2012430673,New Jersey,7-11,2024-03-14
18141,7-11 Str   564 Route 22,564 ROUTE 22,North Plainfield,NJ,07060,40.6295410339741,-74.4330221414566,9082392601,New Jersey,7-11,2024-03-14
39329,7-Eleven,741 EAST EDGAR RD,Linden,NJ,07036,40.633431,-74.2376,8002550711,New Jersey,7-11,2024-03-14
34925,7-11 Str   545 Martinsville Rd,545 MARTINSVILLE RD,Basking Ridge,NJ,07920,40.6451391,-74.5763926,9085246973,New Jersey,7-11,2024-03-14
37072,7-Eleven Store,998 W ST GEORGE AVE,Linden,NJ,07036,40.6287756349228,-74.2718482017517,9089252130,New Jersey,7-11,2024-03-14
41120,7-Eleven Store,241 ATLANTIC AVE,Brooklyn,NY,11201,40.6894,-73.991003,8002550711,New York,7-11,2024-03-14
41972,41972,25 US HWY 46,Columbia,NJ,07832,40.918472,-75.083785,8002550711,New Jersey,7-11,2024-03-14
34495,7-11 Str   395 Flatbush Ave Ext,395 FLATBUSH AVE EXT,Brooklyn,NY,11201,40.6895088,-73.9809653,7188522732,New York,7-11,2024-03-14
36049,7-11 Str   15 W Edgar Rd,15 W EDGAR RD,Linden,NJ,07036,40.6258185370911,-74.2434014892205,9088620789,New Jersey,7-11,2024-03-14
35033,7-11 Str   10 Westfield Ave,10 WESTFIELD AVE,Clark,NJ,07066,40.618049947841,-74.295585191403,7323884251,New Jersey,7-11,2024-03-14
32121,7-Eleven Store,208-22 CROSS ISLAND PKWY,Bayside,NY,11360-1187,40.788373526422,-73.7851492269056,7183523949,New York,7-11,2024-03-14
32118,7-Eleven Store,146-26 NORTHERN BLVD,Flushing,NY,11354-4235,40.7649048456207,-73.8196921348571,7184458918,New York,7-11,2024-03-14
41272,7-Eleven,1023 US HWY 22,North Plainfield,NJ,07060,40.617704,-74.452729,8002550711,New Jersey,7-11,2024-03-14
34023,7-11 Str   10724 Corona Ave,10724 CORONA AVE,Corona,NY,11368,40.7432547391263,-73.8553784876331,7186994704,New York,7-11,2024-03-14
32346,7-11 Str   72-01 Eliot Ave,72-01 ELIOT AVE,Middle Village,NY,11379-1235,40.7220377206585,-73.886373192072,7185655078,New York,7-11,2024-03-14
35764,7-11 Str   60-31 Metropolitan Ave,60-31 METROPOLITAN AVE,Ridgewood,NY,11385,40.7130359404847,-73.9039298997704,7188696498,New York,7-11,2024-03-14
39190,Bcp Str    99-49 Horace Harding Exp,99-49 HORACE HARDING EXP,Corona,NY,11368,40.7366598,-73.8573145,7185921247,New York,7-11,2024-03-14
38309,7-Eleven Store,2282 FOREST AVE,Staten Island,NY,10303,40.6269789,-74.1658705,7578690503,New York,7-11,2024-03-14
34655,7-11 Str   97-07 Queens Blvd,97-07 QUEENS BLVD,Rego Park,NY,11374,40.729909,-73.8608163,7182752079,New York,7-11,2024-03-14
35620,7-Eleven Store,1100 ST GEORGES AVE,Rahway,NJ,07065,40.6083712601112,-74.2877456545829,7323882362,New Jersey,7-11,2024-03-14
35691,7-Eleven Store,788 MIDDLENECK RD,Great Neck,NY,11024,40.8083503454364,-73.7359374761581,5164873743,New York,7-11,2024-03-14
32653,7-Eleven Store,1252 FOREST AVE,Staten Island,NY,10302,40.6258288713101,-74.1317844297919,7187208280,New York,7-11,2024-03-14
34051,7-11 Str   520 Fifth Ave,520 FIFTH AVE,Brooklyn,NY,11215,40.6667360605188,-73.9887004252432,7183690419,New York,7-11,2024-03-14
34248,7-Eleven Store,1440 FOREST AVE,Staten Island,NY,10302,40.6245157032149,-74.1363636553615,7184201340,New York,7-11,2024-03-14
29937,"7-11 Str   6507 Woodhaven Blvd, #1","6507 WOODHAVEN BLVD, #1",Rego Park,NY,11374-5046,40.7200999948051,-73.8646636717567,7184590403,New York,7-11,2024-03-14
32406,7-Eleven Store,162-05 46TH AVE,Flushing,NY,11358-3616,40.7539532,-73.8045993,7184633733,New York,7-11,2024-03-14
36100,7-11 Str   79-37 Metropolitan,79-37 METROPOLITAN,Middle Village,NY,11379,40.7135167,-73.8727608,7188940761,New York,7-11,2024-03-14
21950,7-Eleven Store,103-01 QUEENS BLVD,Forest Hills,NY,11375-3447,40.7250553466071,-73.8498924672603,7184596118,New York,7-11,2024-03-14
39195,Bcp Str    1381 Atlantic Ave,1381 ATLANTIC AVE,Brooklyn,NY,11216,40.6786821929279,-73.9444316132312,7189538465,New York,7-11,2024-03-14
23960,7-Eleven Store,29 MILL PLAIN RD,Danbury,CT,06811-5137,41.3892195325133,-73.4969935566186,2037970026,Connecticut,7-11,2024-03-14
39709,7 Eleven,2300 PARK AVE,South Plainfield,NJ,07080,40.5929522082447,-74.3995799125332,9086684309,New Jersey,7-11,2024-03-14
35987,7-11 Str   10740 Queens Blvd,10740 QUEENS BLVD,Forest Hills,NY,11375,40.72130660360845,-73.84510990644128,7185754130,New York,7-11,2024-03-14
22101,7-Eleven Store,202-15 NORTHERN BLVD,Bayside,NY,11361-2564,40.7578897332033,-73.7806083261966,7182791949,New York,7-11,2024-03-14
20942,7-Eleven Store,4100 BELL BLVD,Bayside,NY,11361-2857,40.763446218286,-73.7711387872695,7182252015,New York,7-11,2024-03-14
20944,7-Eleven Store,69-58 MAIN ST,Flushing,NY,11367-1724,40.7297274,-73.8236889,7185447421,New York,7-11,2024-03-14
11459,7-Eleven Store,2084 VICTORY BLVD,Staten Island,NY,10314-3526,40.6121081,-74.1329479,7186985270,New York,7-11,2024-03-14
32884,7-11 Str   301 65th Street,301 65TH STREET,Brooklyn,NY,11220,40.6392776,-74.0230888,7184399280,New York,7-11,2024-03-14
34531,7-Eleven Store,1299 ROOSEVELT AVE,Carteret,NJ,07008,40.59278791105215,-74.2431914806366,7329690370,New Jersey,7-11,2024-03-14
33975,7-11 Str   101-04 Metropolitan,101-04 METROPOLITAN,Forest Hills,NY,11375,40.7102678489499,-73.851703266937,7182612864,New York,7-11,2024-03-14
39291,7-Eleven Store,1200 VICTORY BLVD,Staten Island,NY,10301,40.6161580799568,-74.1036130302837,7182731404,New York,7-11,2024-03-14
16638,7-Eleven Store,219 CLAPBOARD RIDGE RD,Danbury,CT,06811-3637,41.4372331002515,-73.4974139928817,2037444908,Connecticut,7-11,2024-03-14
24608,7-Eleven Store,2351 PLAINFIELD AVE,South Plainfield,NJ,07080-2926,40.5861672220196,-74.4184714661424,9087543541,New Jersey,7-11,2024-03-14
20610,7-Eleven Store,1099 ROUTE 1,Avenel,NJ,07001-1500,40.5851954992235,-74.2809864154242,7326365925,New Jersey,7-11,2024-03-14
40176,7-Eleven,134 Park Avenue,STROUDSBURG,PA,18360,40.9816,-75.19101,5704217999,Pennsylvania,7-11,2024-03-14
11455,7-11 Str   1265 St George Av,1265 ST GEORGE AV,Colonia,NJ,07067-3925,40.5820391489355,-74.2939388751983,7326367631,New Jersey,7-11,2024-03-14
27105,7-Eleven Store,58-20 FRANCIS LEWIS BLVD,Bayside,NY,11365-1637,40.7449732589267,-73.7769958376893,7186311862,New York,7-11,2024-03-14
36481,7-Eleven Store,69 FOREST AVE,Glen Cove,NY,11542,40.8722980556461,-73.6248175075434,5166764850,New York,7-11,2024-03-14
39020,Bcp Str    2090 Oak Tree Road,2090 OAK TREE ROAD,Edison,NJ,08820,40.5763961240919,-74.3770100083566,7324520770,New Jersey,7-11,2024-03-14
32153,7-Eleven Store,246-15 NORTHERN BLVD,Little Neck,NY,11362-1166,40.7664355079274,-73.7405427498833,7183108555,New York,7-11,2024-03-14
21826,7-11 Str   81-64 Lefferts Blvd,81-64 LEFFERTS BLVD,Kew Gardens,NY,11415-1730,40.7079924,-73.8311399,7188054588,New York,7-11,2024-03-14
36091,7-11 Str   547 Coney Island Ave,547 CONEY ISLAND AVE,Brooklyn,NY,11218,40.6440573,-73.9698534,7184620605,New York,7-11,2024-03-14
23897,7-Eleven Store,168-01 UNION TURNPIKE,Flushing,NY,11366-1311,40.7232238499731,-73.8000744581222,7189699713,New York,7-11,2024-03-14
22231,7-Eleven Store,194 GLENN ST,Glen Cove,NY,11542-2710,40.8619006735549,-73.623978048563,5167590670,New York,7-11,2024-03-14
32210,7-11 Str   1280 Boundbrook Road,1280 BOUNDBROOK ROAD,Middlesex,NJ,08846-1433,40.5792014482563,-74.5028159022331,7327481310,New Jersey,7-11,2024-03-14
32117,7-11 Str   8813 4th Ave,8813 4TH AVE,Brooklyn,NY,11209-5605,40.6205101,-74.0289114,7187456887,New York,7-11,2024-03-14
29779,7-Eleven Store,206 GLEN COVE AVE,Glen Cove,NY,11542-4141,40.8486322596069,-73.6348429533814,5166768668,New York,7-11,2024-03-14
37076,7-Eleven Store,11 LINCOLN HWY,Iselin,NJ,08830,40.566969,-74.3327781,7324944379,New Jersey,7-11,2024-03-14
32122,7-11 Str   6501 New Utrecht Ave,6501 NEW UTRECHT AVE,Brooklyn,NY,11219-5726,40.6231878322232,-73.9975217600841,7182340295,New York,7-11,2024-03-14
11443,7-Eleven Store,60 EDWARDS ST,Iselin,NJ,08830-2529,40.56502132719252,-74.29933547973638,7326367572,New Jersey,7-11,2024-03-14
36047,7-Eleven Store,450 STELTON RD,Piscataway,NJ,08854,40.5601248,-74.4466978,7327522679,New Jersey,7-11,2024-03-14
36951,7-Eleven Store,179-55 HILLSIDE AVE,Jamaica,NY,11432,40.7131054,-73.7826911,7186585450,New York,7-11,2024-03-14
32128,7-11 Str   112-11 Liberty Ave,112-11 LIBERTY AVE,South Richmond Hill,NY,11419-1813,40.6854803,-73.8300894,7188431612,New York,7-11,2024-03-14
32412,7-Eleven Store,21 LINCOLN HWY,Edison,NJ,08820,40.5556385883711,-74.3450926244258,7325160221,New Jersey,7-11,2024-03-14
11446,7-Eleven Store,218 MERCER ST,Somerville,NJ,08876-1523,40.5804665113118,-74.6140658855438,9082109080,New Jersey,7-11,2024-03-14
36802,7-11 Str   1523 Avenue J,1523 AVENUE J,Brooklyn,NY,11230,40.6254852,-73.9606792,7186770981,New York,7-11,2024-03-14
34362,7-Eleven Store,1740 HYLAN BLVD,Staten Island,NY,10305,40.586183442351,-74.0919309854507,7189792052,New York,7-11,2024-03-14
39585,Bcp Str    472 State Route 31 N,472 STATE ROUTE 31 N,Washington,NJ,07882,40.71897688319012,-74.96968243780594,9085370801,New Jersey,7-11,2024-03-14
38462,7-Eleven Store,99 LINCOLN BLVD,Middlesex,NJ,08846,40.56225,-74.52181,6095788150,New Jersey,7-11,2024-03-14
19880,7-Eleven Store,103 LINCOLN AVE,Staten Island,NY,10306-2438,40.5799668,-74.108934,7186673786,New York,7-11,2024-03-14
35007,7-Eleven Store,725 PROMENADE BLVD,Bridgewater,NJ,08807,40.5675601156681,-74.560802578926,7323565274,New Jersey,7-11,2024-03-14
11445,7-Eleven Store,401 AMBOY AV,Woodbridge,NJ,07095-2909,40.5546147,-74.2832546,7326342494,New Jersey,7-11,2024-03-14
37066,7-11 Str   10504 Flatlands Ave,10504 FLATLANDS AVE,Brooklyn,NY,11236,40.647538,-73.8943134,7182571858,New York,7-11,2024-03-14
33704,7-11 Str   1619 Avenue M,1619 AVENUE M,Brooklyn,NY,11230,40.6183726663602,-73.9584575593471,7183360653,New York,7-11,2024-03-14
35026,7-Eleven Store,253-02 UNION TPKE,Glen Oaks,NY,11004,40.7438958978553,-73.717183470726,7188315439,New York,7-11,2024-03-14
11457,7-Eleven Store,249 LAFAYETTE RD,Edison,NJ,08837-2419,40.5469811348597,-74.329883158207,7329061097,New Jersey,7-11,2024-03-14
38428,7-Eleven Store,503 ROUTE 202 NORTH,Raritan,NJ,08869,40.57384,-74.6371,9086427732,New Jersey,7-11,2024-03-14
27104,7-Eleven Store,2477 HYLAN BLVD,Staten Island,NY,10306-3127,40.5709355092605,-74.1100403666505,7189804030,New York,7-11,2024-03-14
17750,7-Eleven Store,3 RAILROAD AVE,Roslyn,NY,11576-2101,40.7931597,-73.6439083,5166214008,New York,7-11,2024-03-14
27690,7-Eleven Store,254-02 HILLSIDE AVE,Floral Park,NY,11004-1614,40.7359613768872,-73.7131403492276,7183432257,New York,7-11,2024-03-14
33680,7-11 Str   953 Kings Hwy,953 KINGS HWY,Brooklyn,NY,11223,40.6074329370899,-73.9622812737701,7183360413,New York,7-11,2024-03-14
32123,7-Eleven Store,22508 JAMAICA AVE,Floral Park,NY,11001-2143,40.7220594,-73.7297432,5163540188,New York,7-11,2024-03-14
37717,7-11 Str   159-35 Cross Bay Blvd,159-35 CROSS BAY BLVD,Howard Beach,NY,11414,40.6581106,-73.8392248,7188480372,New York,7-11,2024-03-14
27454,7-Eleven Store,2247 UTICA AVENUE,Brooklyn,NY,11234-3819,40.6169070951692,-73.9261832088232,3473719440,New York,7-11,2024-03-14
34920,7-Eleven Store,1599 HILLSIDE RD,New Hyde Park,NY,11040,40.7482475,-73.685791,5163524013,New York,7-11,2024-03-14
34228,7-Eleven Store,25050 JERICHO TURNPIKE,Bellerose,NY,11001,40.7264650158503,-73.7142296880483,5163262487,New York,7-11,2024-03-14
41546,7-Eleven,106 FEDERAL RD,Danbury,CT,06810,41.419482,-73.420354,4752068768,Connecticut,7-11,2024-03-14
32896,7-Eleven Store,527 FLORIDA GROVE RD,Perth Amboy,NJ,08861-1542,40.5322196477965,-74.2906536161908,7326970014,New Jersey,7-11,2024-03-14
34591,7-Eleven Store,592 AMBOY AVE,Edison,NJ,08837,40.5294468464567,-74.3163691566974,7327380296,New Jersey,7-11,2024-03-14
35049,7-Eleven Store,2474 FLATBUSH AVE,Brooklyn,NY,11234,40.6097762711538,-73.9232522249221,7182520549,New York,7-11,2024-03-14
34909,7-Eleven Store,287 JERICHO TPKE,Floral Park,NY,11001,40.7300048106552,-73.6990021169185,5163541310,New York,7-11,2024-03-14
34900,7-11 Str   2120 Route 27,2120 ROUTE 27,Edison,NJ,08817,40.5265843,-74.385699,7329022179,New Jersey,7-11,2024-03-14
39681,Bcp Store,147TH AVE,Jamaica,NY,11430,40.6630213,-73.7927948,7185530501,New York,7-11,2024-03-14
27167,7-11 Str   2800 Coney Island Ave.,2800 CONEY ISLAND AVE.,Brooklyn,NY,11235-5022,40.5882197454674,-73.9609180838033,7187692595,New York,7-11,2024-03-14
39478,Bcp Store,154-18 ROCKAWAY BLVD,Jamaica,NY,11434,40.6676431471555,-73.7813526391983,7189779822,New York,7-11,2024-03-14
11444,7-11 Str   30 Vineyard Rd,30 VINEYARD RD,Edison,NJ,08817-4752,40.5179466540865,-74.3778893351554,7322878732,New Jersey,7-11,2024-03-14
39436,7-11 Str   15 Page Ave,15 PAGE AVE,Staten Island,NY,10309,40.5241235866693,-74.2343455553054,7189481033,New York,7-11,2024-03-14
25905,7-Eleven Store,17 STONY HILL RD,Bethel,CT,06801-1032,41.416486356477,-73.398225903511,2037971384,Connecticut,7-11,2024-03-14
38308,7-11 Str   567 New Brunswick Ave,567 NEW BRUNSWICK AVE,Perth Amboy,NJ,08861,40.51958,-74.28338,8482033446,New Jersey,7-11,2024-03-14
38175,7-Eleven Store,26 PINE HOLLOW RD,Oyster Bay,NY,11771,40.8649082,-73.5328949,5163682995,New York,7-11,2024-03-14
39376,7-11 Str   881 Route 1,881 ROUTE 1,Edison,NJ,08817,40.5151225491289,-74.3761137127876,7322871587,New Jersey,7-11,2024-03-14
39854,Bcp Store,160 COVERT AVE,Stewart Manor,NY,11530,40.718253,-73.688715,5164923915,New York,7-11,2024-03-14
34229,7-Eleven Store,254 ELMONT RD,Elmont,NY,11003,40.6987537,-73.7144746,5163522713,New York,7-11,2024-03-14
11144,7-Eleven Store,159 ATLANTIC AVE,Garden City Park,NY,11040-5045,40.7361306600254,-73.6614820361137,5167475197,New York,7-11,2024-03-14
26601,7-11 Str   2702 Knapp Street,2702 KNAPP STREET,Brooklyn,NY,11235-1012,40.5878761223971,-73.9322027564048,7186488035,New York,7-11,2024-03-14
36950,7-11 Str   708 Brighton Beach Ave,708 BRIGHTON BEACH AVE,Brooklyn,NY,11235,40.5776983,-73.9601625,7188912034,New York,7-11,2024-03-14
36472,7-11 Str   502 Smith St,502 SMITH ST,Perth Amboy,NJ,08861,40.5135489,-74.2845931,7328262371,New Jersey,7-11,2024-03-14
32770,7-Eleven Store,207 JERICHO TURNPIKE,Mineola,NY,11501,40.7478429,-73.6440325,5167470568,New York,7-11,2024-03-14
24568,7-Eleven Store,1571 HEMPSTEAD TURNPIKE,Elmont,NY,11003-2357,40.7069129732648,-73.6989337205886,5163541729,New York,7-11,2024-03-14
32950,7-11 Str   1650 Rt 27 & Belmont,1650 RT 27 & BELMONT,Edison,NJ,08817-3451,40.509569828422,-74.409861266613,7325722133,New Jersey,7-11,2024-03-14
37239,7-11 Str   255 Smith St,255 SMITH ST,Perth Amboy,NJ,08861,40.5099876,-74.2740739,7324420921,New Jersey,7-11,2024-03-14
35302,7-Eleven Store,400 E JERICHO TURNPIKE,Mineola,NY,11501,40.7562718,-73.6225783,5166676892,New York,7-11,2024-03-14
11452,7-11 Str   2477 Woodbridge Av,2477 WOODBRIDGE AV,Edison,NJ,08817-5516,40.5035749,-74.3857918,7329851249,New Jersey,7-11,2024-03-14
39320,Bcp Str    291 Danbury Rd,291 DANBURY RD,New Milford,CT,06776,41.53841,-73.421481,2038917428,Connecticut,7-11,2024-03-14
22413,7-Eleven Store,910 MERRICK ROAD,Valley Stream,NY,11580-4847,40.6737777,-73.7272744,5162856703,New York,7-11,2024-03-14
34352,7-Eleven Store,241 GLEN COVE RD,Carle Place,NY,11514,40.7500143723122,-73.6176614463329,5162481494,New York,7-11,2024-03-14
23790,7-Eleven Store,850 HEMPSTEAD TURNPIKE,Franklin Square,NY,11010-3632,40.7073482,-73.671284,5163581225,New York,7-11,2024-03-14
41790,7-Eleven,552 FRANKLIN AVE,Franklin Square,NY,11010,40.693291,-73.683856,8002550711,New York,7-11,2024-03-14
35664,7-11 Str   358 George St,358 GEORGE ST,New Brunswick,NJ,08901,40.4949936843448,-74.4441049147554,7322471675,New Jersey,7-11,2024-03-14
29086,7-Eleven Store,190 NORTH CENTRAL AVE,Valley Stream,NY,11580-3102,40.6727813903193,-73.7093671113416,5168250471,New York,7-11,2024-03-14
33650,7-11 Str   286 George Street,286 GEORGE STREET,New Brunswick,NJ,08901-4700,40.4915667167051,-74.4429650902748,7322461434,New Jersey,7-11,2024-03-14
39455,Bcp Store,285 OLD COUNTRY RD,Carle Place,NY,11514,40.7444333951654,-73.6091749370098,5163330711,New York,7-11,2024-03-14
11150,7-Eleven Store,635 POWELLS LN,Westbury,NY,11590-1320,40.7708903675357,-73.5771480202674,5163856039,New York,7-11,2024-03-14
25690,7-Eleven Store,115 JERICHO TURNPIKE,Jericho,NY,11753-1012,40.7800397694931,-73.558887541294,5163334647,New York,7-11,2024-03-14
37938,7-Eleven Store,"2 VERONICA AVE, STE 1",Franklin Township,NJ,08873,40.487572,-74.5026127,7324489480,New Jersey,7-11,2024-03-14
37158,7-Eleven Store,136 HEMPSTEAD TKP,West Hempstead,NY,11552,40.7053436,-73.6432545,5164834693,New York,7-11,2024-03-14
11175,7-Eleven Store,83 FRANKLIN AV,Valley Stream,NY,11580-2810,40.6769519,-73.68266,5168253373,New York,7-11,2024-03-14
11158,7-Eleven Store,310 HEMPSTEAD AV,West Hempstead,NY,11552-2043,40.7000699,-73.6490705,5165382980,New York,7-11,2024-03-14
35676,7-Eleven Store,58 E MERRICK RD,Valley Stream,NY,11580,40.6638742745971,-73.6953801022356,5168871308,New York,7-11,2024-03-14
11178,7-11 Str   50 Berry Hill Rd,50 BERRY HILL RD,Syosset,NY,11791-2625,40.827719338003,-73.5019415616989,5169214047,New York,7-11,2024-03-14
11449,7-Eleven Store,432 ROUTE 206,Hillsborough,NJ,08844,40.5039840167754,-74.6445746719837,9083594697,New Jersey,7-11,2024-03-14
38095,7-Eleven Store,315-333 OAK ST,Uniondale,NY,11553,40.722162737855285,-73.60732153058058,5165380637,New York,7-11,2024-03-14
34549,7-Eleven Store,100 SUNRISE HWY,Valley Stream,NY,11581,40.6584701436325,-73.6957123875617,5167583342,New York,7-11,2024-03-14
24538,7-Eleven Store,760 OLD COUNTRY ROAD,Westbury,NY,11590-5419,40.7512934707665,-73.5688707232475,5164144460,New York,7-11,2024-03-14
33094,7-Eleven Store,480 ROCKAWAY TURNPIKE,Lawrence,NY,11559,40.6288377221409,-73.7369956076145,5163719887,New York,7-11,2024-03-14
27942,7-Eleven Store,531 FULTON AVENUE,Hempstead,NY,11550-4350,40.7107395833047,-73.6136716604232,5164832082,New York,7-11,2024-03-14
38350,7-Eleven Store,558 MERRICK RD,Lynbrook,NY,11563,40.65998,-73.68251,5162692430,New York,7-11,2024-03-14
37733,7-Eleven Store,2 FRANKLIN AVE,Lynbrook,NY,11563,40.666751,-73.671312,5163149705,New York,7-11,2024-03-14
39221,Bcp Store,307 N BROADWAY,Jericho,NY,11753,40.779539,-73.5304417,5168221898,New York,7-11,2024-03-14
35634,7-Eleven Store,415 MILL RD,Hewlett,NY,11557,40.6433564,-73.7045134,5165690758,New York,7-11,2024-03-14
39804,Bcp Store,797 PENNISULA BLVD,Hempstead,NY,11550,40.6924599341238,-73.6314425570981,5165050510,New York,7-11,2024-03-14
32716,7-Eleven Store,384 WEST JOHN ST,Hicksville,NY,11801,40.7668987252076,-73.540593534708,5169328831,New York,7-11,2024-03-14
38140,7-Eleven Store,1 JERUSALEM AVE,Hempstead,NY,11550,40.7011495,-73.6168,5165632209,New York,7-11,2024-03-14
34200,7-11 Str   573 Jericho Tpke,573 JERICHO TPKE,Syosset,NY,11791,40.8115599563262,-73.4952011704445,5169212403,New York,7-11,2024-03-14
34757,7-Eleven Store,1700 BROADWAY,Hewlett,NY,11557,40.6474297375214,-73.6898423731327,5165933268,New York,7-11,2024-03-14
27525,7-Eleven Store,500 W OLD COUNTRY RD,Hicksville,NY,11801-4904,40.75828940547458,-73.54360402327256,5164700701,New York,7-11,2024-03-14
36887,7-Eleven Store,276 UNIONDALE AVE,Uniondale,NY,11553,40.7091451,-73.5926758,5164140996,New York,7-11,2024-03-14
11179,7-Eleven Store,169 ATLANTIC AV,Lynbrook,NY,11563-3544,40.6514519493609,-73.6698585748672,5168873490,New York,7-11,2024-03-14
34212,7-Eleven Store,158 WOODBURY RD,Hicksville,NY,11801,40.7726454704523,-73.5175036812279,5164330750,New York,7-11,2024-03-14
15991,7-11 Str   126 New York Ave,126 NEW YORK AVE,Halesite,NY,11743-2738,40.885609877485,-73.4175914525985,6313854770,New York,7-11,2024-03-14
34993,7-Eleven Store,128 VILLAGE AVE,Rockville Centre,NY,11570,40.6608086,-73.6487111,5167662064,New York,7-11,2024-03-14
38405,7-Eleven Store,644 JERUSALEM AVE,Uniondale,NY,11553,40.70039,-73.59362,5162412540,New York,7-11,2024-03-14
34138,7-Eleven Store,11 E OLD COUNTRY RD,Hicksville,NY,11801,40.7640485168189,-73.5190714104601,5164331597,New York,7-11,2024-03-14
25449,7-Eleven Store,331 MERRICK AVENUE,East Meadow,NY,11554-2226,40.7140777744182,-73.572737348386,5164861751,New York,7-11,2024-03-14
35047,7-Eleven Store,440 NEWBRIDGE RD,Hicksville,NY,11801,40.74705,-73.53443,5168222135,New York,7-11,2024-03-14
32124,7-Eleven Store,1271 GRAND AVE,Baldwin,NY,11510-1115,40.6793565515081,-73.6142858862876,5168675147,New York,7-11,2024-03-14
23407,7-Eleven Store,324 MERRICK RD,Rockville Centre,NY,11570-5324,40.6555726,-73.6432544,5167648400,New York,7-11,2024-03-14
32771,7-11 Str   1189 Route 9 North,1189 ROUTE 9 NORTH,Old Bridge,NJ,08857-2839,40.4438253,-74.2995262,7327270407,New Jersey,7-11,2024-03-14
14860,7-11 Str   196 Highway 35,196 HIGHWAY 35,Keyport,NJ,07735-6148,40.4481574683357,-74.2354479432106,7325668891,New Jersey,7-11,2024-03-14
37151,7-Eleven Store,391 E MEADOW AVE,East Meadow,NY,11554,40.7146488,-73.5594715,5162222817,New York,7-11,2024-03-14
32171,7-Eleven Store,2397 HEMPSTEAD TURNPIKE,East Meadow,NY,11554-2028,40.7252037342493,-73.5468350350856,5165791309,New York,7-11,2024-03-14
32757,7-11 Str   128 East Main Street,128 EAST MAIN STREET,Huntington,NY,11743,40.8787819294483,-73.4064576029777,6318246669,New York,7-11,2024-03-14
32380,7-Eleven Store,413 JERUSALEM AVE,Hicksville,NY,11801,40.750290716556,-73.5182587802411,5169351445,New York,7-11,2024-03-14
33268,7-Eleven Store,160 SUNNYSIDE BLVD,Plainview,NY,11803,40.7950143,-73.4691851,5164062801,New York,7-11,2024-03-14
37284,7-11 Str   378 Oakwood Rd,378 OAKWOOD RD,Huntington Station,NY,11746,40.84103481044027,-73.429356682209,5163986491,New York,7-11,2024-03-14
37090,7-Eleven Store,420 NASSAU RD,Roosevelt,NY,11575,40.6829547857808,-73.5913878679275,5163781918,New York,7-11,2024-03-14
11148,7-Eleven Store,3125 LAWSON BLVD,Oceanside,NY,11572-3717,40.6353606296938,-73.6537411808967,5165365408,New York,7-11,2024-03-14
26249,7-Eleven Store,599 SOUTH BROADWAY,Hicksville,NY,11801-5036,40.7522901142222,-73.5056483745574,5168225033,New York,7-11,2024-03-14
11173,7-Eleven Store,475 MERRICK RD,Oceanside,NY,11572-1424,40.6537503926253,-73.6235529184341,5167666705,New York,7-11,2024-03-14
33566,7-Eleven Store,65 ATLANTIC AVENUE,Oceanside,NY,11572,40.6389876971815,-73.6426770687104,5162552036,New York,7-11,2024-03-14
39499,Bcp Store,99 ROUTE 31,Flemington,NJ,08822,40.517889561446,-74.8544722795486,9082371020,New Jersey,7-11,2024-03-14
33545,7-Eleven Store,1297 NEW YORK AVENUE,Huntington Station,NY,11746,40.8510446,-73.411893,6314709665,New York,7-11,2024-03-14
11047,7-11 Str   71 Nj-34,71 NJ-34,South Amboy,NJ,08879,40.4321255094094,-74.29696070474608,7327278710,New Jersey,7-11,2024-03-14
34241,7-Eleven Store,2901 HEMPSTEAD TPK,Levittown,NY,11756,40.7250945,-73.5284572,5167350929,New York,7-11,2024-03-14
35886,7-11 Str   722 Route 18,722 ROUTE 18,East Brunswick,NJ,08816,40.4291282601779,-74.3834468722343,7322540827,New Jersey,7-11,2024-03-14
32679,7-Eleven Store,525 NEWBRIDGE RD,East Meadow,NY,11554-5216,40.7099932965351,-73.5433401167392,5164090711,New York,7-11,2024-03-14
34162,7-Eleven Store,1555 JERUSALEM AVE,Merrick,NY,11566,40.6919219675856,-73.5641150083575,5162921564,New York,7-11,2024-03-14
37625,7-Eleven Store,151 JERUSALEM AVE,Levittown,NY,11756,40.7346528,-73.5137884,5165200175,New York,7-11,2024-03-14
35698,7-Eleven Store,2350 GRAND AVE,Baldwin,NY,11510,40.6534467,-73.6115198,5162232697,New York,7-11,2024-03-14
38533,7-11 Str   733 Park Avenue,733 PARK AVENUE,Huntington,NY,11743,40.85996459947796,-73.39829123608581,5162600853,New York,7-11,2024-03-14
34227,7-Eleven Store,3274 LONG BEACH RD,Oceanside,NY,11572,40.6317372,-73.6411919,5165360724,New York,7-11,2024-03-14
11037,7-11 Str   326 Morristown Road,326 MORRISTOWN ROAD,Matawan,NJ,07747-3585,40.4287729998067,-74.2490822821855,7325669739,New Jersey,7-11,2024-03-14
11049,7-11 Str   198 Broad St,198 BROAD ST,Keyport,NJ,07735-1245,40.4335116920413,-74.1995465755462,7322645131,New Jersey,7-11,2024-03-14
11161,7-Eleven Store,2700 N JERUSALEM RD.,Bellmore,NY,11710-1123,40.7059237831262,-73.5352331399917,5167859528,New York,7-11,2024-03-14
25520,7-11 Str   1999 New York Ave,1999 NEW YORK AVE,Huntington Station,NY,11746-3236,40.8334688628699,-73.4113754332066,6314273784,New York,7-11,2024-03-14
39464,Bcp Str    319 Main St,319 MAIN ST,Keansburg,NJ,07734,40.4405149493923,-74.1303473645462,7324716870,New Jersey,7-11,2024-03-14
10951,7-11 Str   286 Summerhill Rd,286 SUMMERHILL RD,East Brunswick,NJ,08816-5699,40.4193562825651,-74.388511821644,7323900804,New Jersey,7-11,2024-03-14
37698,7-Eleven Store,2259 JERUSALEM AVE,Bellmore,NY,11710,40.6908990967437,-73.54856103658676,5168260785,New York,7-11,2024-03-14
38478,7-Eleven,500 HICKSVILLE RD,Bethpage,NY,11714,40.738586,-73.494209,8002550711,New York,7-11,2024-03-14
39688,Bcp Str    314 Rues Ln,314 RUES LN,East Brunswick,NJ,08816,40.4181583,-74.4107572,7322546602,New Jersey,7-11,2024-03-14
36063,7-11 Str   93 Rt 36,93 RT 36,Keyport,NJ,07735,40.4274999680662,-74.1963762044906,7327393540,New Jersey,7-11,2024-03-14
34178,7-Eleven Store,713 ATLANTIC AVE,Baldwin,NY,11510,40.6387668133896,-73.6132257385498,5162232347,New York,7-11,2024-03-14
32371,7-Eleven Store,145 SUNRISE HWY,Freeport,NY,11520-3442,40.6561250622654,-73.5885407030582,5163771711,New York,7-11,2024-03-14
11159,7-Eleven Store,80 BROOKLYN AVE,Freeport,NY,11520-3037,40.6577234642846,-73.5854604945962,5168685017,New York,7-11,2024-03-14
39691,Bcp Store,969 W BEECH ST,Long Beach,NY,11561,40.5862099226334,-73.6950096487998,5164157769,New York,7-11,2024-03-14
11163,7-11 Str   328 Depot Rd,328 DEPOT RD,Huntington Station,NY,11746-3326,40.8381166905978,-73.3960086107527,6313511253,New York,7-11,2024-03-14
32355,7-Eleven Store,497 STEWART AVE,Bethpage,NY,11714,40.7413566483872,-73.4819649858469,5169328861,New York,7-11,2024-03-14
27322,7-Eleven Store,1800 MERRICK AVE,Merrick,NY,11566-2744,40.6742493967881,-73.5568901896494,5163786986,New York,7-11,2024-03-14
41946,7-Eleven,268 US HWY 202,Flemington,NJ,08822,40.497081,-74.856884,8002550711,New Jersey,7-11,2024-03-14
37018,7-Eleven Store,500 ATLANTIC AVE,Freeport,NY,11520,40.6433513151866,-73.5976320505142,5168683029,New York,7-11,2024-03-14
33261,7-Eleven Store,3993 AUSTIN BLVD,Island Park,NY,11558,40.6118361,-73.6440531,5164312542,New York,7-11,2024-03-14
34699,"7-11 Str   111 Main St, Suite 6","111 MAIN ST, SUITE 6",East Brunswick,NJ,08816,40.4115051,-74.3700713,7322515364,New Jersey,7-11,2024-03-14
38468,7-Eleven,2663 JERUSALEM AVE,North Bellmore,NY,11710,40.691721,-73.533313,8002550711,New York,7-11,2024-03-14
41571,7-Eleven,360 E JERICHO TPK,Huntington Station,NY,11746,40.830171,-73.397183,5166750479,New York,7-11,2024-03-14
34257,7-Eleven Store,758 OLD BETHPAGE RD,Old Bethpage,NY,11804,40.7636757815351,-73.4536162018775,5162931438,New York,7-11,2024-03-14
10950,7-11 Str   120 Old Stage Rd,120 OLD STAGE RD,East Brunswick,NJ,08816-4846,40.4079422210367,-74.3866680909923,7322512067,New Jersey,7-11,2024-03-14
11154,7-Eleven Store,1714 NEWBRIDGE RD,North Bellmore,NY,11710-1608,40.6806990471576,-73.5401362180709,5167858347,New York,7-11,2024-03-14
11153,7-Eleven Store,294 GUY LOMBARDO AVE,Freeport,NY,11520-4930,40.6467693017626,-73.583733062278,5163789621,New York,7-11,2024-03-14
32760,7-11 Str   837 Walt Whitman Rd,837 WALT WHITMAN RD,Melville,NY,11747,40.8004911171272,-73.4131899476051,6312715942,New York,7-11,2024-03-14
34373,7-Eleven Store,200 EAST MERRICK RD,Freeport,NY,11520,40.6535265324396,-73.570520846373,5163791017,New York,7-11,2024-03-14
30338,7-Eleven Store,203 SUNRISE HWY,Merrick,NY,11566-0000,40.6606472820404,-73.5602675378323,5166231735,New York,7-11,2024-03-14
11155,7-Eleven Store,611 SAND HILL RD,Wantagh,NY,11793-1313,40.7017617,-73.506822,5162978889,New York,7-11,2024-03-14
39227,Bcp Str    2645 Route 516,2645 ROUTE 516,Old Bridge,NJ,08857,40.4029971,-74.3232274,7326071800,New Jersey,7-11,2024-03-14
26802,7-Eleven Store,4220 HEMPSTEAD TURNPIKE,Bethpage,NY,11714-5701,40.7252884,-73.4802296,5167316393,New York,7-11,2024-03-14
25448,7-Eleven Store,504 LONG BEACH BLVD.,Long Beach,NY,11561-2207,40.5903896019298,-73.6575070023537,5164313642,New York,7-11,2024-03-14
11023,7-11 Str   3050 County Road 516,3050 COUNTY ROAD 516,Old Bridge,NJ,08857-2369,40.402101677159,-74.3106865882873,7326792186,New Jersey,7-11,2024-03-14
27769,7-11 Str   2145 Highway 35 N,2145 HIGHWAY 35 N,Holmdel,NJ,07733-1164,40.4153962856692,-74.1597318649291,8483321596,New Jersey,7-11,2024-03-14
33607,7-11 Str   247 Broadway Greenlawn,247 BROADWAY GREENLAWN,Huntington,NY,11743,40.8512054300241,-73.3662673830986,6316515162,New York,7-11,2024-03-14
32637,7-11 Str   901 E Jericho Tpke,901 E JERICHO TPKE,Huntington Station,NY,11746,40.8355661869776,-73.3772747185833,6314237117,New York,7-11,2024-03-14
21578,7-Eleven Store,25 STEWART AVE,Bethpage,NY,11714-5308,40.7187577140504,-73.4836864471436,5164700272,New York,7-11,2024-03-14
37058,7-Eleven Store,150 MERRICK RD,Merrick,NY,11566,40.6543923960528,-73.5542379319667,5162231207,New York,7-11,2024-03-14
35863,7-11 Str   549 Rt 36 N,549 RT 36 N,Belford,NJ,07718,40.4209623,-74.0920487,7327873542,New Jersey,7-11,2024-03-14
11157,7-11 Str   223 Laurel Rd,223 LAUREL RD,East Northport,NY,11731-1118,40.8874079015311,-73.3314961642191,6317549371,New York,7-11,2024-03-14
11160,7-Eleven Store,85 MERRITTS RD,Farmingdale,NY,11735-1802,40.73125,-73.4591283,5164209735,New York,7-11,2024-03-14
34202,7-11 Str   1124 Rt 34 S,1124 RT 34 S,Matawan,NJ,07747,40.3970709,-74.2256654,7326962128,New Jersey,7-11,2024-03-14
34019,7-Eleven Store,2800 SUNRISE HWY,Bellmore,NY,11710,40.6691384600948,-73.5234555602073,5167810850,New York,7-11,2024-03-14
11040,7-11 Str   75 Leonardville Rd,75 LEONARDVILLE RD,Belford,NJ,07718-1036,40.4146721,-74.0963988,7327872220,New Jersey,7-11,2024-03-14
11152,7-Eleven Store,2540 MERRICK RD,Bellmore,NY,11710-5709,40.6620776436434,-73.531864285469,5168261095,New York,7-11,2024-03-14
39718,Bcp Store,4000 US HIGHWAY 1,Monmouth Junction,NJ,08852,40.4011577,-74.552779,7322975041,New Jersey,7-11,2024-03-14
29729,7-Eleven Store,150 N. MAIN STREET,Farmingdale,NY,11735-1938,40.7352331587539,-73.4465501904651,5164540340,New York,7-11,2024-03-14
11151,7-Eleven Store,3750 JERUSALEM AVE,Seaford,NY,11783-1605,40.690255759221586,-73.49400433092285,5167858432,New York,7-11,2024-03-14
34069,7-11 Str   613 Broadhollow Rd,613 BROADHOLLOW RD,Melville,NY,11747,40.7593454349843,-73.4216744452714,6318440621,New York,7-11,2024-03-14
19886,7-Eleven Store,14 EAST LAWN ROAD,Nazareth,PA,18064-1015,40.7476307567542,-75.3042732087033,6107598599,Pennsylvania,7-11,2024-03-14
35703,7-11 Str   1255 Melville Rd,1255 MELVILLE RD,Farmingdale,NY,11735,40.7483685,-73.428672,6318439431,New York,7-11,2024-03-14
18991,7-Eleven Store,3382 PARK AVE,Wantagh,NY,11793-3702,40.6738774427286,-73.5070145097382,5167858944,New York,7-11,2024-03-14
34083,7-11 Str   255 Pulaski Rd,255 PULASKI RD,East Northport,NY,11731,40.8767806,-73.3241364,6317540750,New York,7-11,2024-03-14
41326,7-Eleven,9 FT SALONGA RD,Northport,NY,11768,40.912885,-73.300104,8002550711,New York,7-11,2024-03-14
23862,7-11 Str   725 Fulton,725 FULTON,Farmingdale,NY,11735-7408,40.7280470431646,-73.4449229389566,5162930970,New York,7-11,2024-03-14
38253,7-Eleven Store,3215 MERRICK RD,Wantagh,NY,11793,40.664578,-73.51174,5162460355,New York,7-11,2024-03-14
34173,7-11 Str   3617 Rt 9 North,3617 RT 9 NORTH,Old Bridge,NJ,08857,40.3802062,-74.3070039,7325911697,New Jersey,7-11,2024-03-14
38623,7-Eleven,1580 ROUTE 110,Farmingdale,NY,11735,40.738794,-73.423736,8002550711,New York,7-11,2024-03-14
26250,7-11 Str   501 Larkfield Road,501 LARKFIELD ROAD,East Northport,NY,11731-4201,40.864506261776,-73.3205893635749,6312661675,New York,7-11,2024-03-14
11174,7-Eleven Store,1003 FULTON ST,Farmingdale,NY,11735-4703,40.725247388002,-73.4330704016702,6312497096,New York,7-11,2024-03-14
38399,7-Eleven,190 FIRST AVE,Atlantic Highlands,NJ,07716,40.409651,-74.039524,8002550711,New Jersey,7-11,2024-03-14
23872,7-Eleven Store,3615 MERRICK RD,Seaford,NY,11783-2801,40.6655008240688,-73.49728256464,5162218141,New York,7-11,2024-03-14
11147,7-Eleven Store,711 BROADWAY,Massapequa,NY,11758-2350,40.6919433,-73.4657414,5167952686,New York,7-11,2024-03-14
26606,7-Eleven Store,4020 SUNRISE HIGHWAY,Seaford,NY,11783-2636,40.674680997668,-73.4841907024383,5168260421,New York,7-11,2024-03-14
34375,7-11 Str   889 Route 35,889 ROUTE 35,Middletown,NJ,07748,40.3947005,-74.1021195,7327066388,New Jersey,7-11,2024-03-14
40396,7-Eleven,939 Cranbury-South River Rd,Jamesburg,NJ,08831,40.37126,-74.45891,7325215387,New Jersey,7-11,2024-03-14
39267,7-Eleven Store,4222 SUNRISE HWY,Massapequa,NY,11758,40.6754027,-73.4738761,5167951618,New York,7-11,2024-03-14
26251,7-Eleven Store,3041 JERICHO TURNPIKE,Elwood,NY,11731-6215,40.8395080668397,-73.3227512240409,6314990528,New York,7-11,2024-03-14
33989,7-Eleven Store,350 BROAD HOLLOW RD,Farmingdale,NY,11735,40.7170559674553,-73.4272728068846,6319096641,New York,7-11,2024-03-14
33176,7-11 Str   2078 West Shore Road,2078 WEST SHORE ROAD,Warwick,RI,02889-8417,41.7005078868029,-71.3983950018883,4017398608,Rhode Island,7-11,2024-03-14
33080,7-Eleven Store,535 RESERVOIR AVE,Cranston,RI,02910,41.7844010265123,-71.4379373891779,4017854755,Rhode Island,7-11,2024-03-14
33413,7-Eleven Store,775 CRANSTON STREET,Providence,RI,02907-3007,41.8043034,-71.4391431,4017515359,Rhode Island,7-11,2024-03-14
33406,7-Eleven Store,270 BROAD STREET,Providence,RI,02903-4032,41.8156222,-71.4201161,4012733490,Rhode Island,7-11,2024-03-14
33614,7-11 Str   1394 Plainfield St,1394 PLAINFIELD ST,Cranston,RI,02920-2537,41.7958160621334,-71.4816979272473,4015272360,Rhode Island,7-11,2024-03-14
33099,7-11 Str   7330 Post Road,7330 POST ROAD,North Kingstown,RI,02852-3213,41.5983250681243,-71.454459875822,4012957295,Rhode Island,7-11,2024-03-14
33426,7-Eleven Store,65 MANTON AVENUE,Providence,RI,02909-3307,41.8184012098251,-71.4442580938339,4012720250,Rhode Island,7-11,2024-03-14
33397,7-Eleven Store,10 DORRANCE STREET,Providence,RI,02903-2018,41.8241667,-71.41204,4013516287,Rhode Island,7-11,2024-03-14
33338,7-Eleven Store,548 ATWELLS AVENUE,Providence,RI,02909-2414,41.8239263,-71.4354734,4014575028,Rhode Island,7-11,2024-03-14
29112,7-Eleven Store,460 SMITH,Providence,RI,02908-4307,41.8352811,-71.4264329,4012734881,Rhode Island,7-11,2024-03-14
37393,7-11 Str   1099 Wm S Canning Blvd,1099 WM S CANNING BLVD,Fall River,MA,02721,41.6648803569658,-71.15653847159592,5086760624,Massachusetts,7-11,2024-03-14
35008,7-Eleven Store,603 HUNT ST,Central Falls,RI,02863,41.8900868,-71.4000676,4017260124,Rhode Island,7-11,2024-03-14
41821,7-Eleven,1253 NEWPORT AVE,Pawtucket,RI,02861,41.888333,-71.353818,4014794151,Rhode Island,7-11,2024-03-14
37443,7-11 Str   190 New Boston Rd,190 NEW BOSTON RD,Fall River,MA,02720,41.7108959,-71.142261,5086731841,Massachusetts,7-11,2024-03-14
32746,7-Eleven Store,726 AQUIDNECK AVE,Middletown,RI,02842-5681,41.5076359,-71.283055,4018496398,Rhode Island,7-11,2024-03-14
32614,7-Eleven Store,970 DOUGLAS PIKE,Smithfield,RI,02917-1840,41.9155192,-71.5194352,4016033992,Rhode Island,7-11,2024-03-14
23880,7-Eleven Store,29 MEMORIAL BLVD,Newport,RI,02840-3637,41.4829833797966,-71.3054145686693,4018493616,Rhode Island,7-11,2024-03-14
40271,7-Eleven Store,634 GEORGE WASHINGTON HWY,Lincoln,RI,02865,41.93552,-71.47217,4013330181,Rhode Island,7-11,2024-03-14
40125,7-Eleven,591 Kelley Blvd.,NORTH ATTLEBORO,MA,02760,42.00827,-71.30271,5086998956,Massachusetts,7-11,2024-03-14
37398,7-11 Str   2070 Bay St,2070 BAY ST,Taunton,MA,02780,41.9586333,-71.1198549,5088230291,Massachusetts,7-11,2024-03-14
40082,7-Eleven,70 Copeland Drive,MANSFIELD,MA,02048,42.02837,-71.22821,5083392301,Massachusetts,7-11,2024-03-14
33232,7-11 Str   45 Coggeshall Street,45 COGGESHALL STREET,New Bedford,MA,02746,41.6565653301659,-70.9191338717938,5089943472,Massachusetts,7-11,2024-03-14
37380,7-11 Str   664 Union St,664 UNION ST,Franklin,MA,02038,42.0670537,-71.3983489,5085280536,Massachusetts,7-11,2024-03-14
33065,7-11 Str   1024 Cove Rd,1024 COVE RD,New Bedford,MA,02744,41.6147024531806,-70.9197252988815,5089937435,Massachusetts,7-11,2024-03-14
34401,7-11 Str   20 W Central St,20 W CENTRAL ST,Franklin,MA,02038,42.0821744736572,-71.3982944190502,5085281757,Massachusetts,7-11,2024-03-14
37386,7-11 Str   533 W Central St,533 W CENTRAL ST,Franklin,MA,02038,42.09014968647039,-71.41913115978241,5085533075,Massachusetts,7-11,2024-03-14
33057,7-11 Str   188 Huttleston Ave Nwc,188 HUTTLESTON AVE NWC,Fairhaven,MA,02719-4647,41.6418189393781,-70.885887444021,5089777437,Massachusetts,7-11,2024-03-14
37424,7-11 Str   785 Bedford St,785 BEDFORD ST,Bridgewater,MA,02324,41.9674186,-70.9737535,5082794160,Massachusetts,7-11,2024-03-14
37387,7-Eleven Store,397 W CENTER ST,West Bridgewater,MA,02379,42.01654397100627,-71.03451972023777,5085800616,Massachusetts,7-11,2024-03-14
37412,7-11 Str   51 County Rd,51 COUNTY RD,Mattapoisett,MA,02739,41.6648256,-70.8101405,5087587839,Massachusetts,7-11,2024-03-14
35487,7-11 Str   127 Main St,127 MAIN ST,Milford,MA,01757,42.1420273489603,-71.5189562166188,5084730736,Massachusetts,7-11,2024-03-14
32433,7-11 Str   909-911 Main Street,909-911 MAIN STREET,Walpole,MA,02081-2964,42.1476763251873,-71.2521149459008,5086687919,Massachusetts,7-11,2024-03-14
37461,7-11 Str   304 Belmont,304 BELMONT,Brockton,MA,02301,42.0777281,-71.0322224,5089415304,Massachusetts,7-11,2024-03-14
32438,7-11 Str   65 Oak Street Ext,65 OAK STREET EXT,Brockton,MA,02301,42.0999823,-71.0634203,5085800064,Massachusetts,7-11,2024-03-14
32509,7-Eleven Store,11 POST ROAD,Westerly,RI,02891-2604,41.3563042186449,-71.8061033068625,4015968210,Rhode Island,7-11,2024-03-14
32469,7-11 Str   504 Washington Street,504 WASHINGTON STREET,Canton,MA,02021-3650,42.1519107,-71.149003,7818210637,Massachusetts,7-11,2024-03-14
34385,7-11 Str   95 Main St,95 MAIN ST,Webster,MA,01570,42.0493088,-71.8852897,5089431799,Massachusetts,7-11,2024-03-14
37490,7-11 Str   145 N Quincy St,145 N QUINCY ST,Abington,MA,02351,42.1150487,-70.9989229,7818572358,Massachusetts,7-11,2024-03-14
32524,7-Eleven Store,152 TAFTVILLE OCCUM RD,Norwich,CT,06360-1381,41.5860213038436,-72.0471395552159,8608228844,Connecticut,7-11,2024-03-14
37404,7-11 Str   643 Washington St,643 WASHINGTON ST,Whitman,MA,02382,42.08246411892161,-70.93757271766668,7814473672,Massachusetts,7-11,2024-03-14
32437,7-11 Str   2 Brockton Ave,2 BROCKTON AVE,Abington,MA,02351-1926,42.1054872573734,-70.9470680461709,7818711422,Massachusetts,7-11,2024-03-14
37406,7-11 Str   945 Bedford St,945 BEDFORD ST,Abington,MA,02351,42.13015890592119,-70.94954301418505,7818711767,Massachusetts,7-11,2024-03-14
15767,7-11 Str   92 Market St,92 MARKET ST,Rockland,MA,02370-2604,42.1215690120434,-70.9165871143341,7818714099,Massachusetts,7-11,2024-03-14
37482,7-11 Str   671 North St,671 NORTH ST,Randolph,MA,02368,42.1830431,-71.0269952,7817674290,Massachusetts,7-11,2024-03-14
37439,7-11 Str   1371 Hanover St,1371 HANOVER ST,Hanover,MA,02339,42.11899858119752,-70.88077653946135,7818782091,Massachusetts,7-11,2024-03-14
32564,7-11 Str   3106 Cranberry Hwy,3106 CRANBERRY HWY,East Wareham,MA,02538-4843,41.7560173,-70.6413753,5082950500,Massachusetts,7-11,2024-03-14
32448,7-11 Str   125 Centre Street,125 CENTRE STREET,Pembroke,MA,02359-2616,42.0696706904469,-70.8103394508361,7812939346,Massachusetts,7-11,2024-03-14
37486,7-11 Str   474 Columbian St,474 COLUMBIAN ST,Weymouth,MA,02190,42.180725,-70.9714372,7813403905,Massachusetts,7-11,2024-03-14
32517,7-11 Str   # 15 Route 32,# 15 ROUTE 32,Franklin,CT,06254-1815,41.5665874246806,-72.1286078496087,8608892641,Connecticut,7-11,2024-03-14
37413,7-11 Str   3 Barker Rd,3 BARKER RD,East Wareham,MA,02538,41.7869297034407,-70.6398068368708,5082953527,Massachusetts,7-11,2024-03-14
32641,7-Eleven Store,2178 NORWICH NEW LONDON,Uncasville,CT,06382-1335,41.4846736818728,-72.0992052555084,8603679146,Connecticut,7-11,2024-03-14
34430,7-11 Str   2 South St,2 SOUTH ST,Westborough,MA,01581,42.2693382775098,-71.6124084591865,5088700054,Massachusetts,7-11,2024-03-14
34499,7-11 Str   29 Bridge St,29 BRIDGE ST,Dedham,MA,02026,42.2699387532566,-71.1746078835722,7813263485,Massachusetts,7-11,2024-03-14
37355,7-11 Str   1187 Hyde Park Ave,1187 HYDE PARK AVE,Hyde Park,MA,02136,42.25836867718577,-71.12384878479588,6173613047,Massachusetts,7-11,2024-03-14
39877,Bcp Str    350 Greenwood St,350 GREENWOOD ST,Worcester,MA,01607,42.21225776113499,-71.79616398112745,5084599591,Massachusetts,7-11,2024-03-14
33200,7-11 Str   1442 Grafton Street,1442 GRAFTON STREET,Worcester,MA,01604-2720,42.2332013,-71.7465185,5087540220,Massachusetts,7-11,2024-03-14
40080,7-Eleven,554 Worcester Road,FRAMINGHAM,MA,01701,42.29749,-71.41901,5086201965,Massachusetts,7-11,2024-03-14
34390,7-11 Str   172 N Main St,172 N MAIN ST,Natick,MA,01760,42.2977957,-71.3595364,5083152387,Massachusetts,7-11,2024-03-14
30260,7-11 Str   324 Court St,324 COURT ST,Plymouth,MA,02360-4339,41.9741173116648,-70.6852237089106,5087468711,Massachusetts,7-11,2024-03-14
37466,7-11 Str   590 Randolph Ave,590 RANDOLPH AVE,Milton,MA,02186,42.24826797399211,-71.0689647495746,6176961381,Massachusetts,7-11,2024-03-14
37458,7-11 Str   59 Locust St,59 LOCUST ST,Falmouth,MA,02540,41.5538866,-70.6239245,5085400280,Massachusetts,7-11,2024-03-14
37450,7-11 Str   98 Houston Ave,98 HOUSTON AVE,Milton,MA,02186,42.25902810405273,-71.08919836441805,6176960281,Massachusetts,7-11,2024-03-14
37511,7-11 Str   7 Spring St,7 SPRING ST,West Roxbury,MA,02132,42.278409,-71.1606526,6174698252,Massachusetts,7-11,2024-03-14
37473,7-11 Str   425 Washington St,425 WASHINGTON ST,East Weymouth,MA,02188,42.20897611537843,-70.95877692103386,7813403942,Massachusetts,7-11,2024-03-14
32485,7-11 Str   845 Highland Ave,845 HIGHLAND AVE,Needham,MA,02494-1312,42.2942823916336,-71.2358070877201,7814491154,Massachusetts,7-11,2024-03-14
37459,7-11 Str   15 Main Street Ext,15 MAIN STREET EXT,Plymouth,MA,02360,41.95534232176912,-70.66374734044075,5087469304,Massachusetts,7-11,2024-03-14
32493,7-11 Str   95 Washington Street,95 WASHINGTON STREET,Norwell,MA,02061-1713,42.1719905774655,-70.8780520362961,7818784344,Massachusetts,7-11,2024-03-14
32450,7-Eleven Store,51 COMMERCIAL STREET,Braintree,MA,02184-4391,42.2211405655205,-70.9696948528289,7818431620,Massachusetts,7-11,2024-03-14
11496,7-11 Str   75 Copeland St,75 COPELAND ST,Quincy,MA,02169-6420,42.2429794416601,-71.018600910902,6174728480,Massachusetts,7-11,2024-03-14
37489,7-11 Str   174 Clay Pond Rd,174 CLAY POND RD,Bourne,MA,02532,41.716973354135696,-70.58461278676987,5087438317,Massachusetts,7-11,2024-03-14
34426,7-11 Str   2 Blackstone River Rd,2 BLACKSTONE RIVER RD,Worcester,MA,01607,42.234983752823,-71.7966520786285,5087535350,Massachusetts,7-11,2024-03-14
34396,7-11 Str   1710 Centre St,1710 CENTRE ST,West Roxbury,MA,02132,42.2869827613033,-71.1489924788475,6173270805,Massachusetts,7-11,2024-03-14
25059,7-11 Str   78 Franklin St,78 FRANKLIN ST,Quincy,MA,02169-7824,42.2414594153969,-71.0030977427959,6174712820,Massachusetts,7-11,2024-03-14
40079,7-Eleven,19 Main St,WAYLAND,MA,01778,42.31651,-71.36316,5086552968,Massachusetts,7-11,2024-03-14
37429,7-Eleven Store,650 ADAMS ST,Quincy,MA,02169,42.2557559,-71.0322291,6177707626,Massachusetts,7-11,2024-03-14
24450,7-11 Str   743 E Main St,743 E MAIN ST,Falmouth,MA,02540-3215,41.5531324623002,-70.6028140988382,5085407878,Massachusetts,7-11,2024-03-14
32465,7-11 Str   1436-38 Centre Street,1436-38 CENTRE STREET,Roslindale,MA,02131-1414,42.2933509799251,-71.1367836158479,6174693058,Massachusetts,7-11,2024-03-14
32487,7-11 Str   1453 Commercial St,1453 COMMERCIAL ST,East Weymouth,MA,02189-2903,42.2150283389028,-70.9227937459945,7813378315,Massachusetts,7-11,2024-03-14
37373,7-11 Str   230 Washington St,230 WASHINGTON ST,Quincy,MA,02169,42.2501223796842,-70.9935370087624,6173280205,Massachusetts,7-11,2024-03-14
32444,7-11 Str   585 North Street,585 NORTH STREET,Weymouth,MA,02189-1073,42.2293097,-70.9440881,7813310942,Massachusetts,7-11,2024-03-14
37485,7-11 Str   495 Washington St,495 WASHINGTON ST,Quincy,MA,02169,42.2474776,-70.981638,6178475280,Massachusetts,7-11,2024-03-14
37456,7-Eleven Store,98-100 WINCHESTER ST,Newton,MA,02461,42.31664080403548,-71.20849527799237,6172440613,Massachusetts,7-11,2024-03-14
37405,7-11 Str   774 Plain St,774 PLAIN ST,Marshfield,MA,02050,42.106626,-70.7479442,7813191949,Massachusetts,7-11,2024-03-14
32451,7-11 Str   721 Hancock Street,721 HANCOCK STREET,Quincy,MA,02170-2837,42.2664503114469,-71.014729142189,2073186814,Massachusetts,7-11,2024-03-14
37449,7-11 Str   259 Bridge St,259 BRIDGE ST,Weymouth,MA,02191,42.2422871,-70.9549563,7813311840,Massachusetts,7-11,2024-03-14
32471,7-11 Str   363 Hancock Street,363 HANCOCK STREET,Quincy,MA,02171-2406,42.2744995670237,-71.0269432514905,6177732832,Massachusetts,7-11,2024-03-14
37447,7-11 Str   973 Main St,973 MAIN ST,Worcester,MA,01603,42.24890729346108,-71.8240562081337,5087518515,Massachusetts,7-11,2024-03-14
37411,7-11 Str   11 Sea St,11 SEA ST,Weymouth,MA,02191,42.2422555,-70.9445279,7813311268,Massachusetts,7-11,2024-03-14
40078,7-Eleven,325 Boylston Street,NEWTON CENTER,MA,02459,42.31944,-71.18153,6175279548,Massachusetts,7-11,2024-03-14
34427,7-11 Str   1326 Main St,1326 MAIN ST,Worcester,MA,01603,42.2418943530109,-71.8484763229344,5087554053,Massachusetts,7-11,2024-03-14
34425,7-11 Str   38 Maple Ave,38 MAPLE AVE,Shrewsbury,MA,01545,42.2942849260552,-71.71830428944264,5088429722,Massachusetts,7-11,2024-03-14
37495,7-11 Str   320 Neponset Ave,320 NEPONSET AVE,Dorchester,MA,02122,42.2885026824965,-71.0467654466629,6172820542,Massachusetts,7-11,2024-03-14
33686,7-11 Str   409 Park Ave,409 PARK AVE,Worcester,MA,01610,42.2572184431531,-71.8224643170833,5087537154,Massachusetts,7-11,2024-03-14
32518,7-Eleven Store,283 BROAD STREET,New London,CT,06320-5229,41.3613269242569,-72.1095838398288,8604431269,Connecticut,7-11,2024-03-14
37414,7-11 Str   2302 State Rd,2302 STATE RD,Plymouth,MA,02360,41.8182399937204,-70.55158009325407,5088880247,Massachusetts,7-11,2024-03-14
32874,7-11 Str   730 Morrissey Blvd,730 MORRISSEY BLVD,Dorchester,MA,02122-3403,42.2963905,-71.0476039,6172656795,Massachusetts,7-11,2024-03-14
34429,7-11 Str   121 June St,121 JUNE ST,Worcester,MA,01602,42.2644033129809,-71.833669245243,5087932934,Massachusetts,7-11,2024-03-14
32475,7-Eleven Store,451 CENTRE STREET,Jamaica Plain,MA,02130-1831,42.3203332059799,-71.1114665833122,6175226853,Massachusetts,7-11,2024-03-14
15451,7-Eleven Store,92 BROAD ST,Marlborough,MA,01752-4010,42.3436762437133,-71.5636797355,5084819553,Massachusetts,7-11,2024-03-14
32482,7-11 Str   507 State Road,507 STATE ROAD,Plymouth,MA,02360-5185,41.9240531,-70.5703068,5082243555,Massachusetts,7-11,2024-03-14
37465,7-11 Str   751 E Squantum St,751 E SQUANTUM ST,Quincy,MA,02171,42.29721,-71.01574,6178478908,Massachusetts,7-11,2024-03-14
32467,7-Eleven Store,2002 BEACON STREET,Brighton,MA,02135-7701,42.336383237017,-71.1510443687438,6177389692,Massachusetts,7-11,2024-03-14
37502,7-Eleven Store,187 E COTTAGE ST,Dorchester,MA,02125,42.319916753455786,-71.06117427349085,6174744605,Massachusetts,7-11,2024-03-14
37510,7-Eleven Store,612 WASHINGTON ST,Newton,MA,02458,42.353832527670505,-71.19850337505335,6179640289,Massachusetts,7-11,2024-03-14
32442,7-Eleven Store,722 HUNTINGTON AVE,Boston,MA,02115-5924,42.3341328339548,-71.1042720079421,6172774665,Massachusetts,7-11,2024-03-14
32454,7-Eleven Store,584 WASHINGTON STREET,Brighton,MA,02135-2546,42.3500266877702,-71.1656731367111,6177831708,Massachusetts,7-11,2024-03-14
32522,7-11 Str   52 Route 66,52 ROUTE 66,Columbia,CT,06237-1136,41.7136517661628,-72.2850260138511,8602281181,Connecticut,7-11,2024-03-14
37504,7-Eleven Store,591 MOODY ST,Waltham,MA,02453,42.3662167,-71.2384011,7818942717,Massachusetts,7-11,2024-03-14
37492,7-Eleven Store,566 DORCHESTER AVE,Boston,MA,02127,42.3303093,-71.0565603,6172680169,Massachusetts,7-11,2024-03-14
33467,7-Eleven Store,1747 WASHINGTON STREET,Boston,MA,02118-1805,42.3367728360656,-71.077044904232,6172474711,Massachusetts,7-11,2024-03-14
37526,7-Eleven Store,1227 COMMONWEALTH AVE,Allston,MA,02134,42.3505035,-71.131401,6177820453,Massachusetts,7-11,2024-03-14
37368,7-Eleven Store,241 MARKET ST,Brighton,MA,02135,42.35469277413146,-71.15045830607409,6175626095,Massachusetts,7-11,2024-03-14
32460,7-Eleven Store,117-121 JERSEY STREET,Boston,MA,02115-5116,42.3425734,-71.0970629,6172666434,Massachusetts,7-11,2024-03-14
37367,7-Eleven Store,509 CAMBRIDGE ST,Allston,MA,02134,42.3534549,-71.1384287,6172541361,Massachusetts,7-11,2024-03-14
33615,7-Eleven Store,532 COMMONWEALTH,Boston,MA,02215-2606,42.3484755436913,-71.0963259637355,6172675158,Massachusetts,7-11,2024-03-14
32463,7-Eleven Store,252 WEST NEWTON STREET,Boston,MA,02116-6482,42.3448041850106,-71.081196963787,6176974529,Massachusetts,7-11,2024-03-14
37369,7-Eleven Store,141 MASSACHUSETTS AVE,Boston,MA,02115,42.346792,-71.0877923,6172360619,Massachusetts,7-11,2024-03-14
33568,7-Eleven Store,473 WEST BROADWAY,South Boston,MA,02127-2218,42.3355713167397,-71.0461525619029,6172688711,Massachusetts,7-11,2024-03-14
32457,7-Eleven Store,55 BERKLEY STREET,Boston,MA,02116-6202,42.3464033,-71.0705206,6174262746,Massachusetts,7-11,2024-03-14
37427,7-Eleven Store,131 LEXINGTON ST,Waltham,MA,02452,42.381091136263,-71.2361115458492,7818930219,Massachusetts,7-11,2024-03-14
37474,7-11 Str   337 Gannett Rd,337 GANNETT RD,Scituate,MA,02066,42.2192556,-70.7838126,7815456099,Massachusetts,7-11,2024-03-14
32466,7-11 Str   261 Dartmouth Street,261 DARTMOUTH STREET,Boston,MA,02116-3517,42.3504813,-71.0773739,6172621212,Massachusetts,7-11,2024-03-14
32461,7-Eleven Store,650 MT. AUBURN ST.,Watertown,MA,02472-2019,42.3717773265427,-71.1577619612216,6179260839,Massachusetts,7-11,2024-03-14
32480,7-Eleven Store,"8 PARK PLAZA, C-2",Boston,MA,02116-3952,42.3513430465292,-71.0661296622584,5082075575,Massachusetts,7-11,2024-03-14
33486,7-Eleven Store,600 TECHNOLOGY SQUARE,Cambridge,MA,02139-3589,42.3631059,-71.0933967,6179452304,Massachusetts,7-11,2024-03-14
20430,7-Eleven Store,750 MASSACHUSETTS AVE,Cambridge,MA,02139-3308,42.366184061708,-71.1054883897304,6174920830,Massachusetts,7-11,2024-03-14
33058,7-11 Str   50 Summer St,50 SUMMER ST,Boston,MA,02110-2124,42.3546294194306,-71.0590642931788,6175427570,Massachusetts,7-11,2024-03-14
35659,7-11 Str   3 Center Plaza,3 CENTER PLAZA,Boston,MA,02108,42.3594318470763,-71.0600772500038,6172636878,Massachusetts,7-11,2024-03-14
37371,7-11 Str   122-128 Cambridge St,122-128 CAMBRIDGE ST,Boston,MA,02114,42.36102908135486,-71.06353702331353,6175709127,Massachusetts,7-11,2024-03-14
37423,7-11 Str   177 State St,177 STATE ST,Boston,MA,02109,42.3592257,-71.0530914,6177206036,Massachusetts,7-11,2024-03-14
33550,7-Eleven Store,275 PROSPECT STREET,Cambridge,MA,02139-1217,42.3722826279758,-71.0993407666683,6175474711,Massachusetts,7-11,2024-03-14
32476,7-11 Str   91-99 Causeway Street,91-99 CAUSEWAY STREET,Boston,MA,02116-1308,42.3647951,-71.0621019,6172278315,Massachusetts,7-11,2024-03-14
34418,7-11 Str   342 Hanover St,342 HANOVER ST,Boston,MA,02113,42.3649033,-71.0535327,6172489718,Massachusetts,7-11,2024-03-14
37362,7-Eleven Store,140 MAIN ST,Charlestown,MA,02129,42.3749589,-71.0643469,6172417865,Massachusetts,7-11,2024-03-14
37375,7-Eleven Store,14 MAVERICK SQ,East Boston,MA,02128,42.36936866717274,-71.0397957265377,6175671060,Massachusetts,7-11,2024-03-14
37422,7-Eleven Store,1 FIRST AVE,Charlestown,MA,02129,42.3749609,-71.0546074,6172420939,Massachusetts,7-11,2024-03-14
35827,7-Eleven Store,2245 MASS AVE,Cambridge,MA,02140,42.3942960249224,-71.126184623081,6178760908,Massachusetts,7-11,2024-03-14
37345,7-Eleven Store,4 COLLEGE AVE,Somerville,MA,02144,42.396874,-71.1221905,6176230630,Massachusetts,7-11,2024-03-14
32473,7-Eleven Store,582 BROADWAY,Somerville,MA,02145-2563,42.3983140211892,-71.1084321141242,6177769540,Massachusetts,7-11,2024-03-14
37360,7-11 Str   5 Waltham St,5 WALTHAM ST,Maynard,MA,01754,42.432094448875596,-71.449224203825,9784613920,Massachusetts,7-11,2024-03-14
32429,7-Eleven Store,115 BROADWAY,Chelsea,MA,02150-2608,42.3885363032511,-71.0411448776721,6178843750,Massachusetts,7-11,2024-03-14
37372,7-Eleven Store,133 MAIN ST,Medford,MA,02155,42.4151573,-71.1108107,7813911595,Massachusetts,7-11,2024-03-14
40081,7-Eleven,1894 Revere Beach Parkway,EVERETT,MA,02149,42.40256,-71.05049,6173878855,Massachusetts,7-11,2024-03-14
34389,7-Eleven Store,43 REVERE ST,Winthrop,MA,02152,42.3819816458989,-70.9807428717613,6178461373,Massachusetts,7-11,2024-03-14
37378,7-11 Str   188 Chelsea St,188 CHELSEA ST,Everett,MA,02149,42.40406500971838,-71.04774597668643,6173811576,Massachusetts,7-11,2024-03-14
37377,7-Eleven Store,280 MAIN ST,Everett,MA,02149,42.4104161949734,-71.0628654062747,6173945061,Massachusetts,7-11,2024-03-14
37518,7-Eleven Store,511 BROADWAY ST,Everett,MA,02149,42.40890020897825,-71.0533207654953,6173891258,Massachusetts,7-11,2024-03-14
37436,7-11 Str   936-942 Broadway,936-942 BROADWAY,Chelsea,MA,02150,42.4007843,-71.0215082,6178890241,Massachusetts,7-11,2024-03-14
34388,7-Eleven Store,1224 MAIN ST,West Concord,MA,01742,42.4569028230169,-71.3922795653343,9783691434,Massachusetts,7-11,2024-03-14
34408,7-11 Str   2946 Falmouth Rd,2946 FALMOUTH RD,Osterville,MA,02655,41.6539340352937,-70.3926712274551,5084288720,Massachusetts,7-11,2024-03-14
40077,7-Eleven,69 Fellsway West,MEDFORD,MA,02155,42.42413,-71.08924,7813917444,Massachusetts,7-11,2024-03-14
34393,7-Eleven Store,127 BROADWAY,Revere,MA,02151,42.4052502060541,-71.0156115889549,7812843546,Massachusetts,7-11,2024-03-14
40292,7-Eleven,1781 North Shore Rd,REVERE,MA,02151,42.40132,-70.99727,7812849174,Massachusetts,7-11,2024-03-14
37520,7-Eleven Store,140 BEACH ST,Revere,MA,02151,42.4075634907097,-71.0104852207814,7814850159,Massachusetts,7-11,2024-03-14
34400,7-Eleven Store,543 FERRY ST,Everett,MA,02149,42.4200918,-71.053982,6173875593,Massachusetts,7-11,2024-03-14
26561,7-Eleven Store,169 SALEM ST,Malden,MA,02148-4114,42.4292337486591,-71.0609824955463,7813221092,Massachusetts,7-11,2024-03-14
40076,7-Eleven,1030 Broadway,REVERE,MA,02151,42.42186,-71.0047,7812891427,Massachusetts,7-11,2024-03-14
27471,7-Eleven Store,1120 NORTH SHORE ROAD,Revere,MA,02151-2514,42.4184477019281,-70.990708172323,7816292948,Massachusetts,7-11,2024-03-14
11506,7-11 Str   173 Cambridge Rd,173 CAMBRIDGE RD,Woburn,MA,01801-4703,42.468102774793074,-71.17920485605168,7819380133,Massachusetts,7-11,2024-03-14
34532,7-Eleven Store,653 MONTAUK HIGHWAY,Montauk,NY,11954,41.0321166,-71.9494728,6316682842,New York,7-11,2024-03-14
37445,7-Eleven Store,386 LINCOLN ST,Saugus,MA,01906,42.4496923062732,-71.005191206932,7819411407,Massachusetts,7-11,2024-03-14
15123,7-Eleven Store,903 HARTFORD TPKE,Vernon,CT,06066-4407,41.8463133853041,-72.4545203847993,8608757139,Connecticut,7-11,2024-03-14
34391,7-Eleven Store,32 HAMILTON ST,Saugus,MA,01906,42.4656172456865,-71.0068148341833,7812336356,Massachusetts,7-11,2024-03-14
34404,7-Eleven Store,9 AUSTIN SQ,Lynn,MA,01905,42.46166781938,-70.9826955199241,7815960950,Massachusetts,7-11,2024-03-14
22399,7-Eleven Store,180 UNION STREET,Rockville,CT,06066-3020,41.8687759,-72.4643641,8608756392,Connecticut,7-11,2024-03-14
32526,7-11 Str   4 Falls Road,4 FALLS ROAD,Moodus,CT,06469-1139,41.502923874915,-72.4495406448841,8608732122,Connecticut,7-11,2024-03-14
16019,7-Eleven Store,193 ALBION ST,Wakefield,MA,01880-3122,42.500753610077,-71.0768598318099,7812464755,Massachusetts,7-11,2024-03-14
37457,7-Eleven Store,210 LEWIS ST,Lynn,MA,01902,42.4646605978407,-70.9336137771606,7815815420,Massachusetts,7-11,2024-03-14
11510,7-Eleven Store,826 BOSTON RD,Billerica,MA,01821-5923,42.5315308884117,-71.2289571762084,9786678756,Massachusetts,7-11,2024-03-14
37499,7-11 Str   766 Central St,766 CENTRAL ST,Leominster,MA,01453,42.501883745733856,-71.74540579319,9785023503,Massachusetts,7-11,2024-03-14
32470,7-Eleven Store,3 LYNNFIELD STREET,Lynn,MA,01904-2219,42.4855952354013,-70.9608967843383,7815996235,Massachusetts,7-11,2024-03-14
32441,7-Eleven Store,50 WESTERN AVE,Lynn,MA,01904-2124,42.4850522024549,-70.9405124187469,7815929651,Massachusetts,7-11,2024-03-14
15836,7-Eleven Store,253 MAIN ST,Manchester,CT,06040-3539,41.7846891360448,-72.523096203804,8606462183,Connecticut,7-11,2024-03-14
32952,7-Eleven Store,23 NEWBURY STREET,Peabody,MA,01960-3820,42.5218173951311,-70.9965725941902,9785369290,Massachusetts,7-11,2024-03-14
32481,7-Eleven Store,314 BOSTON RD,Billerica,MA,01862-2624,42.5714500257836,-71.2767912414677,9786678124,Massachusetts,7-11,2024-03-14
32491,7-Eleven Store,100 LYNN STREET,Peabody,MA,01960-5739,42.5113007004268,-70.9471135540116,9785318190,Massachusetts,7-11,2024-03-14
37501,7-Eleven Store,2280 MAIN ST,Tewksbury,MA,01876,42.5807613,-71.19393,9786582128,Massachusetts,7-11,2024-03-14
34410,7-Eleven Store,79 LOWELL ST,Peabody,MA,01960,42.5273356262338,-70.930706205454,9785315354,Massachusetts,7-11,2024-03-14
32478,7-Eleven Store,89 PLEASANT STREET,Marblehead,MA,01945-3324,42.5029772303247,-70.8558376832434,7817329825,Massachusetts,7-11,2024-03-14
21480,7-11 Str   196 San Mateo Rd,196 SAN MATEO RD,Half Moon Bay,CA,94019-1706,37.4681461319536,-122.430880889296,6507263215,California,7-11,2024-03-14
14319,7-11 Str   11 Laurie Meadows Dr,11 LAURIE MEADOWS DR,San Mateo,CA,94403-4610,37.5310019147354,-122.287226244862,6505739038,California,7-11,2024-03-14
14317,7-11 Str   678 Concar Dr,678 CONCAR DR,San Mateo,CA,94402-2622,37.5547187128507,-122.303134649991,6503410668,California,7-11,2024-03-14
20305,7-11 Str   600 E. 3rd St.,600 E. 3RD ST.,San Mateo,CA,94401-3305,37.5669486418502,-122.319457232952,6503445911,California,7-11,2024-03-14
14338,7-11 Str   1080 Holly St,1080 HOLLY ST,San Carlos,CA,94070-2536,37.5095613035505,-122.261140421087,6505921314,California,7-11,2024-03-14
14316,7-11 Str   975 Rollins Rd,975 ROLLINS RD,Burlingame,CA,94010-2604,37.5870602968381,-122.355970814824,6503471070,California,7-11,2024-03-14
18858,7-11 Str   401 El Camino Real,401 EL CAMINO REAL,Millbrae,CA,94030-2616,37.6021038163429,-122.392418682575,6506971441,California,7-11,2024-03-14
22434,7-11 Str   400 El Camino Real,400 EL CAMINO REAL,Redwood City,CA,94062-1726,37.4907517,-122.2408723,6503640200,California,7-11,2024-03-14
25411,7-11 Str   460 Woodside Road,460 WOODSIDE ROAD,Redwood City,CA,94061-3819,37.4712403469259,-122.223589718341,6503623317,California,7-11,2024-03-14
15896,7-11 Str   1700 Broadway,1700 BROADWAY,Redwood City,CA,94063-2404,37.4872874,-122.2214529,6503657779,California,7-11,2024-03-14
15910,7-Eleven Store,2100 CRESTMOOR DR,San Bruno,CA,94066-2802,37.6238121,-122.4293153,6508719110,California,7-11,2024-03-14
14335,7-11 Str   105 West Angus Ave,105 WEST ANGUS AVE,San Bruno,CA,94066-3604,37.6263060529324,-122.409924790263,6508710411,California,7-11,2024-03-14
14341,7-Eleven Store,2020 ROLLINGWOOD,San Bruno,CA,94066-1930,37.6310197508059,-122.437007646085,6508715191,California,7-11,2024-03-14
14339,7-11 Str   895 5th Ave,895 5TH AVE,Redwood City,CA,94063-3914,37.4813458426993,-122.199119767274,6503650781,California,7-11,2024-03-14
14318,7-11 Str   100 Clarendon Rd,100 CLARENDON RD,Pacifica,CA,94044-2720,37.6296167550164,-122.490989863872,6503553516,California,7-11,2024-03-14
24595,7-11 Str   3515 Callan Blvd,3515 CALLAN BLVD,South San Francisco,CA,94080-5118,37.6429709,-122.4627323,6505885442,California,7-11,2024-03-14
14331,7-11 Str   525 Oak Grove St,525 OAK GROVE ST,Menlo Park,CA,94025-3214,37.4557428667597,-122.182900205271,6503257007,California,7-11,2024-03-14
14311,7-11 Str   635 El Camino Real,635 EL CAMINO REAL,South San Francisco,CA,94080-4404,37.6490892373705,-122.43014730513,6505885488,California,7-11,2024-03-14
35063,7-Eleven Store,128 HARBOR WAY,South San Francisco,CA,94080,37.6537434978931,-122.40079633897,6508718132,California,7-11,2024-03-14
14344,7-11 Str   3961 Callan Blvd,3961 CALLAN BLVD,South San Francisco,CA,94080-5130,37.6496551968695,-122.469017207622,6503037692,California,7-11,2024-03-14
14337,7-11 Str   137 Manor Dr,137 MANOR DR,Pacifica,CA,94044-1953,37.6495069,-122.4895712,6503556667,California,7-11,2024-03-14
22498,7-11 Str   1136 Mission Rd,1136 MISSION RD,South San Francisco,CA,94080-1301,37.6611433484018,-122.438014894723,6505881252,California,7-11,2024-03-14
37265,7-11 Str   700 Hickey Blvd,700 HICKEY BLVD,Pacifica,CA,94044,37.6596155572603,-122.477378480834,6507385960,California,7-11,2024-03-14
18584,7-11 Str   401 Waverley Street,401 WAVERLEY STREET,Palo Alto,CA,94301-1719,37.4480428570447,-122.161205559968,6503262614,California,7-11,2024-03-14
17908,7-11 Str   11 Serravista Ave,11 SERRAVISTA AVE,Daly City,CA,94015,37.66368574679204,-122.46857329364428,6508789212,California,7-11,2024-03-14
14336,7-11 Str   77 Newell Rd,77 NEWELL RD,East Palo Alto,CA,94303-2721,37.4573109352178,-122.136982306893,6503248592,California,7-11,2024-03-14
15969,7-11 Str   1010 Hillside Blvd,1010 HILLSIDE BLVD,Daly City,CA,94014-3001,37.6895842158177,-122.461506943228,6509941528,California,7-11,2024-03-14
14315,7-11 Str   708 Colorado Ave,708 COLORADO AVE,Palo Alto,CA,94303-3911,37.4331768,-122.1277725,6503286369,California,7-11,2024-03-14
14340,7-11 Str   293 87th St,293 87TH ST,Daly City,CA,94015-1644,37.6929717218885,-122.474241712616,6507558232,California,7-11,2024-03-14
19235,7-11 Str   2700 Bayshore,2700 BAYSHORE,Daly City,CA,94014-1632,37.7051110347381,-122.407245263457,4154676984,California,7-11,2024-03-14
21389,7-11 Str   2200 Bayshore Blvd,2200 BAYSHORE BLVD,San Francisco,CA,94134-2348,37.7123333,-122.403239,4154688646,California,7-11,2024-03-14
23342,7-11 Str   3080 San Jose Ave,3080 SAN JOSE AVE,San Francisco,CA,94112-3933,37.7098732,-122.4580028,6509949200,California,7-11,2024-03-14
14333,7-11 Str   2640 California St,2640 CALIFORNIA ST,Mountain View,CA,94040-1206,37.4067501,-122.1117284,6509417792,California,7-11,2024-03-14
16687,7-11 Str   615 South Rengstorff,615 SOUTH RENGSTORFF,Mountain View,CA,94040-2105,37.3964733,-122.100845,6509689077,California,7-11,2024-03-14
14324,7-11 Str   1905 Latham St,1905 LATHAM ST,Mountain View,CA,94040-2107,37.3941608736957,-122.096174061298,6509653762,California,7-11,2024-03-14
14321,7-11 Str   1951 Old Middlefield Way,1951 OLD MIDDLEFIELD WAY,Mountain View,CA,94043-2543,37.4140279,-122.0896371,6509615913,California,7-11,2024-03-14
20643,7-11 Str   2000 Ocean Ave,2000 OCEAN AVE,San Francisco,CA,94127-2723,37.7265074,-122.4646163,4155847111,California,7-11,2024-03-14
33660,7-11 Str   1380 Pear Avenue,1380 PEAR AVENUE,Mountain View,CA,94043,37.415994,-122.0771611,6509647259,California,7-11,2024-03-14
39475,Bcp Str    3400 Mission St,3400 MISSION ST,San Francisco,CA,94110,37.7421535,-122.4226256,4156957711,California,7-11,2024-03-14
20473,7-11 Str   2222 Taraval St,2222 TARAVAL ST,San Francisco,CA,94116-2250,37.7426167,-122.4900085,4156654747,California,7-11,2024-03-14
15429,7-11 Str   276 N Whisman Ave,276 N WHISMAN AVE,Mountain View,CA,94043-3954,37.3966891539055,-122.060209582569,6509618762,California,7-11,2024-03-14
36870,7-11 Str   25965 Industrial Blvd,25965 INDUSTRIAL BLVD,Hayward,CA,94545,37.6334019513828,-122.111518820848,5102591932,California,7-11,2024-03-14
14182,7-11 Str   2175 Aldengate Way,2175 ALDENGATE WAY,Hayward,CA,94545-3527,37.633635636402,-122.097458549651,5107830757,California,7-11,2024-03-14
25950,7-11 Str   1002 West Evelyn Ave,1002 WEST EVELYN AVE,Sunnyvale,CA,94086-5741,37.3827988417402,-122.045453488826,4087351711,California,7-11,2024-03-14
20450,7-11 Str   1388 46th Ave,1388 46TH AVE,San Francisco,CA,94122-1113,37.760776,-122.5057848,4156615577,California,7-11,2024-03-14
39660,Bcp Store,1005 W EL CAMINO REAL,Sunnyvale,CA,94087,37.3725690894928,-122.048774063587,4087200224,California,7-11,2024-03-14
19673,7-11 Str   7288 Thornton Ave,7288 THORNTON AVE,Newark,CA,94560-3645,37.529906118494964,-122.03770995140027,5107900476,California,7-11,2024-03-14
17008,7-11 Str   1240 Manor Blvd,1240 MANOR BLVD,San Leandro,CA,94579-1616,37.691013671053,-122.152870437138,5103522324,California,7-11,2024-03-14
14190,7-11 Str   15651 Washington Ave,15651 WASHINGTON AVE,San Lorenzo,CA,94580-1428,37.6820234478498,-122.138189524412,5102760917,California,7-11,2024-03-14
35341,7-11 Str   700 W A St,700 W A ST,Hayward,CA,94541,37.6655300367034,-122.113751247525,5107821172,California,7-11,2024-03-14
14180,7-Eleven Store,477 HACIENDA AVE,San Lorenzo,CA,94580-3114,37.6748046628835,-122.122880737306,5103970914,California,7-11,2024-03-14
39382,7-Eleven,1944 DAVIS ST,San Leandro,CA,71209,37.717804,-122.182672,8002550711,California,7-11,2024-03-14
16104,7-11 Str   32215 Alvarado Niles Blvd,32215 ALVARADO NILES BLVD,Union City,CA,94587-2902,37.5958623005737,-122.054116944792,5104719333,California,7-11,2024-03-14
14175,7-11 Str   24883 Santa Clara St,24883 SANTA CLARA ST,Hayward,CA,94544-1755,37.6493292132194,-122.092209756374,5104703446,California,7-11,2024-03-14
38702,7-Eleven,1998 WHIPPLE RD,Union City,CA,94587,37.60576,-122.058372,8002550711,California,7-11,2024-03-14
14195,7-11 Str   5724 A Thornton Ave,5724 A THORNTON AVE,Newark,CA,94560-3826,37.540143061891,-122.027394502416,5107915380,California,7-11,2024-03-14
14248,7-11 Str   250 W Maude Ave,250 W MAUDE AVE,Sunnyvale,CA,94085,37.3885541291205,-122.028377205133,4087363418,California,7-11,2024-03-14
35722,7-11 Str   4850 Geary Blvd,4850 GEARY BLVD,San Francisco,CA,94118,37.7811049,-122.4715919,4158314702,California,7-11,2024-03-14
22627,7-11 Str   5100 Geary Blvd,5100 GEARY BLVD,San Francisco,CA,94118-2816,37.7808284135063,-122.47420049739,4156824414,California,7-11,2024-03-14
14320,7-Eleven Store,21220 HOMESTEAD RD,Cupertino,CA,95014-0202,37.3371479637609,-122.045022994279,4087358004,California,7-11,2024-03-14
18916,7-11 Str   35015 Fremont Blvd,35015 FREMONT BLVD,Fremont,CA,94536-3340,37.5704345,-122.0323944,5107927111,California,7-11,2024-03-14
27244,7-Eleven Store,1039 SUNNYVALE SARATOGA R,Sunnyvale,CA,94087-2503,37.3586068,-122.0329634,4082459711,California,7-11,2024-03-14
20273,7-11 Str   1126 Davis St,1126 DAVIS ST,San Leandro,CA,94577-2500,37.7220839669562,-122.168090567006,5106383584,California,7-11,2024-03-14
14186,7-11 Str   375 West Tennyson Rd,375 WEST TENNYSON RD,Hayward,CA,94544-5327,37.6334763476137,-122.06623784733,5107825022,California,7-11,2024-03-14
34977,7-11 Str   527 Sutter St,527 SUTTER ST,San Francisco,CA,94102,37.7889994,-122.4090902,4153985315,California,7-11,2024-03-14
41163,7-Eleven,525 WILLIAMS ST,San Leandro,CA,94577,37.718442,-122.157025,8002550711,California,7-11,2024-03-14
18177,7-11 Str   130 Harder Rd,130 HARDER RD,Hayward,CA,94544-2831,37.6498165954109,-122.076788395643,5105388811,California,7-11,2024-03-14
20364,7-11 Str   15101 Hesperian Blvd.,15101 HESPERIAN BLVD.,San Leandro,CA,94578-3607,37.7016190689098,-122.130427211523,5102760667,California,7-11,2024-03-14
18825,7-Eleven Store,339 JACKSON ST,Hayward,CA,94544-1952,37.6610159479657,-122.084497734904,5108863133,California,7-11,2024-03-14
25717,7-Eleven Store,21490 MCCLELLAN RD,Cupertino,CA,95014-4052,37.315174891878,-122.050112327579,4082579104,California,7-11,2024-03-14
27768,7-11 Str   708 N Fair Oaks Ave,708 N FAIR OAKS AVE,Sunnyvale,CA,94085,37.3915197,-122.0138034,4085308290,California,7-11,2024-03-14
14219,7-Eleven Store,615 OLD SAN FRANCISCO,Sunnyvale,CA,94086-7753,37.3675083,-122.0221093,4087359080,California,7-11,2024-03-14
35696,7-11 Str   221 Sansome St,221 SANSOME ST,San Francisco,CA,94104,37.7923948019606,-122.401276598694,4152965141,California,7-11,2024-03-14
19250,7-11 Str   13792 E. 14th St.,13792 E. 14TH ST.,San Leandro,CA,94578-2540,37.7154566,-122.1420503,5103522611,California,7-11,2024-03-14
14193,7-11 Str   639 Buena Vista Ave,639 BUENA VISTA AVE,Alameda,CA,94501-2110,37.7775435668908,-122.277438073452,5105216644,California,7-11,2024-03-14
24003,7-11 Str   2301 Lincoln Ave,2301 LINCOLN AVE,Alameda,CA,94501-2929,37.767445688856,-122.242143675739,5108654381,California,7-11,2024-03-14
16824,7-11 Str   2609 Decoto Rd,2609 DECOTO RD,Union City,CA,94587-4903,37.5831015298366,-122.023559957742,5104712313,California,7-11,2024-03-14
29243,7-Eleven Store,848 E EVELYN AVE,Sunnyvale,CA,94086-6528,37.370196,-122.0143497,4085429370,California,7-11,2024-03-14
18348,7-Eleven Store,24476 MISSION BLVD,Hayward,CA,94544-1618,37.6640416492556,-122.07627274096,5108815800,California,7-11,2024-03-14
