locationNumber,store_id,address1,address2,city,state,latitude,longitude,store_type,store_name,phone_number,state_name,brand,updated
1,80110001,31451 B CHERRY HILL RD,,WESTLAND,MI,42.308545,-83.351899,C,,(734) 427-2820,Michigan,Little Caesars,2024-11-01
2,80110003,8292 N. MERRIMAN RD,,WESTLAND,MI,42.348818,-83.350871,C,,(734) 425-1450,Michigan,Little Caesars,2024-11-01
3,33990002,38960 CHERRY HILL RD,,WESTLAND,MI,42.309349,-83.423709,F,,(734) 722-0290,Michigan,Little Caesars,2024-11-01
4,80110005,2051 COOLIDGE ROAD,,BERKLEY,MI,42.491196,-83.183876,C,,(248) 541-0444,Michigan,Little Caesars,2024-11-01
5,19970003,25909 5 MILE,,REDFORD,MI,42.398937,-83.29789,F,,(313) 533-6170,Michigan,Little Caesars,2024-11-01
6,19970002,24492 W 10 MILE RD,,SOUTHFIELD,MI,42.472227,-83.284547,F,,(248) 355-2334,Michigan,Little Caesars,2024-11-01
8,12370001,7211 ALLEN RD,,ALLEN PARK,MI,42.256186,-83.214049,F,,(313) 382-8881,Michigan,Little Caesars,2024-11-01
10,12370002,23110 OUTER DRIVE,,ALLEN PARK,MI,42.276643,-83.214628,F,,(313) 562-7540,Michigan,Little Caesars,2024-11-01
13,81110015,2024 E. 8 MILE ROAD,BELMONT SHOPPING CENTER,DETROIT,MI,42.446408,-83.080522,C,,(313) 892-7570,Michigan,Little Caesars,2024-11-01
14,80110016,4052 E 14 MILE RD,,WARREN,MI,42.534828,-83.067162,C,,(586) 268-8686,Michigan,Little Caesars,2024-11-01
16,81110018,14351 HARPER,,DETROIT,MI,42.404671,-82.965218,C,,(313) 372-5900,Michigan,Little Caesars,2024-11-01
17,18340004,33344 WOODWARD AVENUE,,BIRMINGHAM,MI,42.53449,-83.201712,F,,(248) 723-1355,Michigan,Little Caesars,2024-11-01
18,37890001,30820 SOUTHFIELD ROAD,COUNTRY CORNER SHOPPING CENTER,SOUTHFIELD,MI,42.516297,-83.222574,F,,(248) 644-6822,Michigan,Little Caesars,2024-11-01
20,38490026,5961 HIGHLAND ROAD,,WATERFORD,MI,42.659306,-83.403877,F,,(248) 674-0472,Michigan,Little Caesars,2024-11-01
21,17370003,7633 MICHIGAN AVENUE,,DETROIT,MI,42.330788,-83.137071,F,,(313) 843-6262,Michigan,Little Caesars,2024-11-01
22,81110024,10200 W 7 MILE RD,,DETROIT,MI,42.431305,-83.163208,C,,(313) 345-8333,Michigan,Little Caesars,2024-11-01
24,33990003,1171 S WAYNE ROAD,,WESTLAND,MI,42.300594,-83.388008,F,,(734) 728-3700,Michigan,Little Caesars,2024-11-01
25,80110027,19619 MACK AVE,,GROSSE POINTE WOODS,MI,42.425793,-82.910141,C,,(313) 884-0450,Michigan,Little Caesars,2024-11-01
28,80110030,8801 W. 9 MILE RD,,OAK PARK,MI,42.459755,-83.161583,C,,(248) 542-6866,Michigan,Little Caesars,2024-11-01
29,80110031,936 SOUTHFIELD RD,,LINCOLN PARK,MI,42.248531,-83.170431,C,,(313) 386-7750,Michigan,Little Caesars,2024-11-01
30,12510001,29205 DEQUINDRE RD,,MADISON HEIGHTS,MI,42.507105,-83.085996,F,,(248) 548-9191,Michigan,Little Caesars,2024-11-01
31,80110034,26056 FORD ROAD,,DEARBORN HEIGHTS,MI,42.326835,-83.295299,C,,(313) 561-2450,Michigan,Little Caesars,2024-11-01
33,20150001,27301 HARPER AVE,,SAINT CLAIR SHORES,MI,42.492373,-82.897795,F,,(586) 773-0520,Michigan,Little Caesars,2024-11-01
35,36470023,31541 HARPER AVENUE,,ST CLAIR SHORES,MI,42.527168,-82.894585,F,,(586) 294-6300,Michigan,Little Caesars,2024-11-01
36,81110039,19400 W. 7 MILE RD,,DETROIT,MI,42.429832,-83.233757,C,,(313) 387-2400,Michigan,Little Caesars,2024-11-01
40,81110043,530 EAST WARREN,,DETROIT,MI,42.358727,-83.057701,C,,(313) 832-2200,Michigan,Little Caesars,2024-11-01
41,17370002,13222 WOODWARD AVE,H.P. GATEWAY PLAZA,HIGHLAND PARK,MI,42.402412,-83.094666,F,,(313) 869-6300,Michigan,Little Caesars,2024-11-01
43,80110046,25665 JOY ROAD,,DEARBORN HEIGHTS,MI,42.35574,-83.293327,C,,(313) 278-6270,Michigan,Little Caesars,2024-11-01
45,36470026,39050 VAN DYKE AVE,,STERLING HEIGHTS,MI,42.582317,-83.029297,F,,(586) 264-0300,Michigan,Little Caesars,2024-11-01
46,19970001,3853 MONROE,,DEARBORN,MI,42.282278,-83.250894,F,,(313) 563-3520,Michigan,Little Caesars,2024-11-01
49,32500001,4556 HOWE RD,,WAYNE,MI,42.274404,-83.372916,F,,(734) 729-4700,Michigan,Little Caesars,2024-11-01
51,80110057,41527 W. 10 MILE ROAD,,NOVI,MI,42.466676,-83.456781,C,,(248) 349-6650,Michigan,Little Caesars,2024-11-01
52,13030002,21019 FARMINGTON ROAD,,FARMINGTON HILLS,MI,42.444369,-83.376219,F,,(248) 474-5353,Michigan,Little Caesars,2024-11-01
53,81110059,14319 GREENFIELD,,DETROIT,MI,42.39193,-83.198715,C,,(313) 838-8930,Michigan,Little Caesars,2024-11-01
54,32500002,9319 WAYNE RD,,ROMULUS,MI,42.236221,-83.385666,F,,(734) 942-9340,Michigan,Little Caesars,2024-11-01
55,38490023,453 NORTH PERRY STREET,,PONTIAC,MI,42.648232,-83.286797,F,,(248) 335-6151,Michigan,Little Caesars,2024-11-01
56,38490022,19949 W. 12 MILE ROAD,EVERGREEN PLAZA,SOUTHFIELD,MI,42.501606,-83.241104,F,,(248) 569-7122,Michigan,Little Caesars,2024-11-01
57,81110064,12712 FENKELL,,DETROIT,MI,42.402142,-83.169403,C,,(313) 864-0600,Michigan,Little Caesars,2024-11-01
58,80110065,33324 W. 12 MILE ROAD,,FARMINGTON HILLS,MI,42.500298,-83.377751,C,,(248) 553-2424,Michigan,Little Caesars,2024-11-01
65,80110072,25320 VAN BORN ROAD,,DEARBORN HEIGHTS,MI,42.269206,-83.283781,C,,(313) 292-0400,Michigan,Little Caesars,2024-11-01
66,80110073,1203 BALDWIN,,PONTIAC,MI,42.670219,-83.300652,C,,(248) 338-8977,Michigan,Little Caesars,2024-11-01
68,34030001,49126 PONTIAC TRAIL,,WIXOM,MI,42.52472,-83.532776,F,,(248) 624-4000,Michigan,Little Caesars,2024-11-01
71,81110081,12039 GRATIOT AVE,,DETROIT,MI,42.413022,-82.992718,C,,(313) 372-0440,Michigan,Little Caesars,2024-11-01
72,80110082,23792 WEST RD,,BROWNSTOWN TOWNSHIP,MI,42.138914,-83.263846,C,,(734) 692-7000,Michigan,Little Caesars,2024-11-01
73,31520001,19 S. GROESBECK,,MT. CLEMENS,MI,42.598034,-82.899429,F,,(586) 469-4222,Michigan,Little Caesars,2024-11-01
74,31200002,24756 COOLIDGE,,OAK PARK,MI,42.472771,-83.18222,F,,(248) 547-0600,Michigan,Little Caesars,2024-11-01
76,10040013,2701 BENSTEIN RD,,COMMERCE TOWNSHIP,MI,42.56178,-83.504633,F,,(248) 624-8866,Michigan,Little Caesars,2024-11-01
79,81110090,19190 KELLY ROAD,,DETROIT,MI,42.43586,-82.952003,C,,(313) 372-0600,Michigan,Little Caesars,2024-11-01
81,36470024,22111 GREATER MACK AVENUE,,ST CLAIR SHORES,MI,42.456821,-82.902382,F,,(586) 774-8700,Michigan,Little Caesars,2024-11-01
83,10040012,7926 COOLEY LAKE RD,,WATERFORD,MI,42.61538,-83.43935,F,,(248) 363-1531,Michigan,Little Caesars,2024-11-01
84,80110099,36200 FIVE MILE ROAD,,LIVONIA,MI,42.396957,-83.400948,C,,(734) 464-6000,Michigan,Little Caesars,2024-11-01
85,36030001,29235 W. 11 MILE RD,,FARMINGTON HILLS,MI,42.484804,-83.336828,F,,(248) 477-7500,Michigan,Little Caesars,2024-11-01
89,80110188,42975 7 MILE RD,,NORTHVILLE,MI,42.423721,-83.470308,C,,(248) 349-0556,Michigan,Little Caesars,2024-11-01
90,80110105,3303 CAMPBELL,,ROYAL OAK,MI,42.519764,-83.126045,C,,(248) 588-2980,Michigan,Little Caesars,2024-11-01
94,33570001,1783 WASHTENAW,,YPSILANTI,MI,42.247411,-83.641364,F,,(734) 483-4200,Michigan,Little Caesars,2024-11-01
96,13030001,15574 MIDDLEBELT,,LIVONIA,MI,42.400879,-83.334274,F,,(734) 261-4740,Michigan,Little Caesars,2024-11-01
97,38490024,145 S. TELEGRAPH,,PONTIAC,MI,42.63485,-83.325104,F,,(248) 334-6640,Michigan,Little Caesars,2024-11-01
101,80110116,3000 PACKARD,,ANN ARBOR,MI,42.244663,-83.699941,C,,(734) 971-0933,Michigan,Little Caesars,2024-11-01
103,80110119,2081 RAWSONVILLE ROAD,,BELLEVILLE,MI,42.216215,-83.541029,C,,(734) 483-7633,Michigan,Little Caesars,2024-11-01
113,32430001,36630 GARFIELD,,CLINTON TOWNSHIP,MI,42.566408,-82.949831,F,,(586) 792-2610,Michigan,Little Caesars,2024-11-01
121,80160403,9 N SANDUSKY,,MOUNT VERNON,OH,40.39555,-82.489403,C,,(740) 393-1865,Ohio,Little Caesars,2024-11-01
127,80160409,280 PORTLAND WAY NORTH,,GALION,OH,40.737091,-82.801399,C,,(419) 468-3800,Ohio,Little Caesars,2024-11-01
140,80160422,1245 PARK AVE W,WEST PARK SHOPPING CENTER,MANSFIELD,OH,40.759029,-82.560402,C,,(419) 529-2961,Ohio,Little Caesars,2024-11-01
141,80160423,415 S. WALNUT,,BUCYRUS,OH,40.80497,-82.975601,C,,(419) 562-8550,Ohio,Little Caesars,2024-11-01
160,34410005,5140 S CEDAR ST,,LANSING,MI,42.681697,-84.549061,F,,(517) 393-2753,Michigan,Little Caesars,2024-11-01
162,34410006,3340 LAKE LANSING,,EAST LANSING,MI,42.758904,-84.476822,F,,(517) 351-0505,Michigan,Little Caesars,2024-11-01
164,37990001,2410 EAST M-21,,CORUNNA,MI,42.997942,-84.119714,F,,(989) 723-8155,Michigan,Little Caesars,2024-11-01
165,37990002,400 E MAIN ST,,OWOSSO,MI,42.997379,-84.174973,F,,(989) 723-4444,Michigan,Little Caesars,2024-11-01
166,34410007,2902 N. GRAND RIVER,,LANSING,MI,42.761547,-84.572006,F,,(517) 323-3100,Michigan,Little Caesars,2024-11-01
168,34410008,1203 E. GRAND RIVER,,EAST LANSING,MI,42.730888,-84.467102,F,,(517) 337-1631,Michigan,Little Caesars,2024-11-01
169,34410009,2824 EAST GRAND RIVER,,LANSING,MI,42.742725,-84.512219,F,,(517) 485-4406,Michigan,Little Caesars,2024-11-01
170,34410010,4124 WEST SAGINAW HWY,,LANSING,MI,42.741635,-84.606395,F,,(517) 321-8055,Michigan,Little Caesars,2024-11-01
171,34410011,1639 HASLETT ROAD,,HASLETT,MI,42.746239,-84.409078,F,Little Caesars Pizza,(517) 339 - 1129,Michigan,Little Caesars,2024-11-01
172,34410016,615 SAGINAW HIGHWAY,,GRAND LEDGE,MI,42.74101,-84.742756,F,,(517) 627-8371,Michigan,Little Caesars,2024-11-01
174,18410716,106 W. FM 495,SUITE H,SAN JUAN,TX,26.206482,-98.152105,F,,(956) 783-8787,Texas,Little Caesars,2024-11-01
175,18410717,11262 LEOPARD STREET,LEOPARD SQUARE SHOPPING CTR,CORPUS CHRISTI,TX,27.847412,-97.587995,F,,(361) 241-2868,Texas,Little Caesars,2024-11-01
177,18410718,4208 AYERS,PORTAIRS SHOPPING CENTER,CORPUS CHRISTI,TX,27.749689,-97.417702,F,,(361) 854-4734,Texas,Little Caesars,2024-11-01
179,18410719,3801 SARATOGA BLVD.,SUITE 101,CORPUS CHRISTI,TX,27.700533,-97.416233,F,,(361) 855-4751,Texas,Little Caesars,2024-11-01
181,18410720,224 MAIN STREET,,ROBSTOWN,TX,27.789566,-97.666601,F,,(361) 387-9700,Texas,Little Caesars,2024-11-01
183,18410721,1142 E MAIN,,ALICE,TX,27.75173,-98.062798,F,,(361) 668-6047,Texas,Little Caesars,2024-11-01
184,18410722,3301 BALDWIN ROAD,,CORPUS CHRISTI,TX,27.776937,-97.427988,F,,(361) 883-9956,Texas,Little Caesars,2024-11-01
286,10470001,516 EDWARDSVILLE RD,SUITE A,TROY,IL,38.731778,-89.896254,F,,(618) 667-0084,Illinois,Little Caesars,2024-11-01
350,80101605,4830 W. Diverse Avenue,Cermak Plaza,CHICAGO,IL,41.931971,-87.747031,C,,(773) 725-2400,Illinois,Little Caesars,2024-11-01
355,17640011,3106 KIRCHOFF ROAD,ROLLING MEADOWS SHOPPING CTR,ROLLING MEADOWS,IL,42.079246,-88.018403,F,,(847) 255-6688,Illinois,Little Caesars,2024-11-01
359,80101614,1010 S. ELMHURST ROAD,GOLF PLAZA II,MOUNT PROSPECT,IL,42.04723,-87.941101,C,,(847) 640-7727,Illinois,Little Caesars,2024-11-01
362,80101617,551 N. MCLEAN,WING PARK SHOPPING CENTER #21,ELGIN,IL,42.045231,-88.311302,C,,(847) 742-7205,Illinois,Little Caesars,2024-11-01
372,80101627,2501 WEST LAWRENCE AVENUE,FAMILY PLAZA,CHICAGO,IL,41.968472,-87.691498,C,,(773) 989-4700,Illinois,Little Caesars,2024-11-01
386,12920001,3135 W ADDISON AVE,,CHICAGO,IL,41.946468,-87.706703,F,,(773) 267-6366,Illinois,Little Caesars,2024-11-01
388,80101643,5608 W IRVING PARK ROAD,,CHICAGO,IL,41.953159,-87.766998,C,,(773) 777-1917,Illinois,Little Caesars,2024-11-01
389,12570001,3535 W DEMPSTER ST,,SKOKIE,IL,42.040459,-87.717201,F,,(847) 679-7050,Illinois,Little Caesars,2024-11-01
393,80101648,2601 WEST CERMAK,,CHICAGO,IL,41.851959,-87.690697,C,,(773) 254-7001,Illinois,Little Caesars,2024-11-01
395,80101650,3010 S HALSTED ST.,PARKVIEW PLAZA #115,CHICAGO,IL,41.8396,-87.6464,C,,(312) 842-1230,Illinois,Little Caesars,2024-11-01
396,80101651,3225 W 47 PLACE,KEDZIE PLAZA SOUTH,CHICAGO,IL,41.80666,-87.705002,C,,(773) 254-6868,Illinois,Little Caesars,2024-11-01
400,37770001,3248 GLENVIEW ROAD,GLENVIEW PLAZA,GLENVIEW,IL,42.071381,-87.838501,F,,(847) 724-7474,Illinois,Little Caesars,2024-11-01
415,19480001,1211 S DIVISION,HARVARD PLAZA,HARVARD,IL,42.41209,-88.613602,F,,(815) 943-3900,Illinois,Little Caesars,2024-11-01
418,32610002,545 W. ROOSEVELT RD.,MARKET PLAZA,GLEN ELLYN,IL,41.858639,-88.065559,F,,(630) 790-8483,Illinois,Little Caesars,2024-11-01
422,80101679,293 S. BOLINGBROOK DRIVE,PHEASANT HILLS,BOLINGBROOK,IL,41.691978,-88.067802,C,,(630) 759-3377,Illinois,Little Caesars,2024-11-01
441,34120047,439 FIELDSTOWN ROAD,RETAIL ONE CENTER,GARDENDALE,AL,33.651468,-86.817705,F,,(205) 631-2700,Alabama,Little Caesars,2024-11-01
452,34120048,6662 HIGHWAY 75,THE VILLAGE IN PINSON,PINSON,AL,33.698407,-86.681475,F,,(205) 681-0005,Alabama,Little Caesars,2024-11-01
460,34120049,672 CLANTON MARKETPLACE,,CLANTON,AL,32.850327,-86.633642,F,,(205) 755-6671,Alabama,Little Caesars,2024-11-01
461,34120050,420 PELHAM AVE,,JACKSONVILLE,AL,33.818083,-85.761878,F,,(256) 782-2067,Alabama,Little Caesars,2024-11-01
463,34120051,565 FIRST STREET SW,,ALABASTER,AL,33.238566,-86.818821,F,,(205) 664-3011,Alabama,Little Caesars,2024-11-01
465,80062202,1162 NW 40th Ave.,Lauderhill Shopping Plaza,Lauderhill,FL,26.139971,-80.202103,C,,(954) 791-7110,Florida,Little Caesars,2024-11-01
466,80062203,6860 DYKES RD,COQUINA PLAZA SHOPPING CENTER,SOUTHWEST RANCHES,FL,26.031052,-80.359778,C,,(954) 252-0510,Florida,Little Caesars,2024-11-01
470,80062207,277 S. STATE ROAD 7,,MARGATE,FL,26.226967,-80.205521,C,,(954) 975-7595,Florida,Little Caesars,2024-11-01
474,80062211,8902 TAFT STREET,,PEMBROKE PINES,FL,26.022873,-80.264694,C,,(954) 435-5003,Florida,Little Caesars,2024-11-01
476,80062213,3031 N ANDREWS AVENUE,,WILTON MANORS,FL,26.166736,-80.145989,C,,(954) 563-6305,Florida,Little Caesars,2024-11-01
480,80062217,8300 W FLAGLER ST.,,MIAMI,FL,25.769242,-80.329188,C,,(305) 551-1999,Florida,Little Caesars,2024-11-01
481,80062218,29625 S. DIXIE HWY,WALGREEN PLAZA,HOMESTEAD,FL,25.49135,-80.454357,C,,(305) 245-6006,Florida,Little Caesars,2024-11-01
485,80062222,924 W. HALLANDALE BEACH BLVD.,LAKESIDE SHOPPES,HALLANDALE,FL,25.985176,-80.160858,C,,(954) 458-2500,Florida,Little Caesars,2024-11-01
486,80062223,20517 OLD CUTLER ROAD,,MIAMI,FL,25.57715,-80.338065,C,,(305) 255-2860,Florida,Little Caesars,2024-11-01
487,80062224,13710 S.W. 56TH ST.,MILLER SQUARE SHOPPING CENTER,MIAMI,FL,25.713989,-80.415483,C,,(305) 382-0017,Florida,Little Caesars,2024-11-01
489,80062226,9362 S.W. 56TH STREET,,MIAMI,FL,25.715799,-80.346802,C,,(305) 598-0499,Florida,Little Caesars,2024-11-01
490,80062227,4515 N PINE ISLAND RD,,SUNRISE,FL,26.180163,-80.267902,C,,(954) 749-1920,Florida,Little Caesars,2024-11-01
493,80062230,10201 HAMMOCKS BLVD,,MIAMI,FL,25.672053,-80.443942,C,,(305) 382-8444,Florida,Little Caesars,2024-11-01
494,80062231,4100 SW 67TH AVE,BIRD LUDLAM SHOPPING CENTER,MIAMI,FL,25.731371,-80.303147,C,,(305) 661-7202,Florida,Little Caesars,2024-11-01
495,80062232,4100 WEST 12TH AVENUE,,HIALEAH,FL,25.858925,-80.306672,C,,(305) 362-7771,Florida,Little Caesars,2024-11-01
496,80062233,3229 DAVIE BLVD.,,FORT LAUDERDALE,FL,26.104793,-80.188951,C,,(954) 792-7111,Florida,Little Caesars,2024-11-01
501,80062238,1735 N FEDERAL HWY,STE 105,HOLLYWOOD,FL,26.026796,-80.143024,C,,(954) 926-1151,Florida,Little Caesars,2024-11-01
502,80062239,9477 SW 160TH ST,,MIAMI,FL,25.619364,-80.34599,C,,(305) 253-1010,Florida,Little Caesars,2024-11-01
506,80062243,6556 N.W. 186TH ST,,HIALEAH,FL,25.940432,-80.305389,C,,(305) 558-6900,Florida,Little Caesars,2024-11-01
507,80062244,1812 NE MIAMI GARDENS DRIVE,,MIAMI,FL,25.945583,-80.164845,C,,(305) 354-4833,Florida,Little Caesars,2024-11-01
508,80062245,1551 S.W. 107TH AVENUE,,MIAMI,FL,25.754668,-80.367674,C,,(305) 220-0215,Florida,Little Caesars,2024-11-01
522,80062259,19975 NW 2ND AVENUE,IVEST DAIRY CROSSING,MIAMI,FL,25.961706,-80.185247,C,,(305) 249-2111,Florida,Little Caesars,2024-11-01
530,80062267,17223 N.W. 27TH AVE.,,MIAMI,FL,25.930997,-80.244869,C,,(305) 626-0184,Florida,Little Caesars,2024-11-01
538,80062275,2402 W 60TH STREET,,HIALEAH,FL,25.87606,-80.331809,C,,(305) 828-0808,Florida,Little Caesars,2024-11-01
540,80062277,901 E. 8TH AVE,SUNTAN SHOPPING CENTER,HIALEAH,FL,25.830766,-80.265371,C,,(305) 889-0322,Florida,Little Caesars,2024-11-01
610,34850001,44-G BULLSBORO DRIVE,MERCHANTS CROSSING,NEWNAN,GA,33.383228,-84.786697,F,,(770) 251-2223,Georgia,Little Caesars,2024-11-01
636,12430001,2222 N REYNOLDS,,TOLEDO,OH,41.662609,-83.667519,F,,(419) 531-3511,Ohio,Little Caesars,2024-11-01
638,12430003,1515 SOUTH BYRNE,,TOLEDO,OH,41.611763,-83.625549,F,,(419) 385-5354,Ohio,Little Caesars,2024-11-01
645,16320600,"734 SOUTH GOLDENROD, SPACE B-5",PINAR PLAZA,ORLANDO,FL,28.535415,-81.28587,F,,(407) 275-3806,Florida,Little Caesars,2024-11-01
658,16320601,11222 E. COLONIAL DR.,EAST COLONIAL PLAZA SUITE 101,ORLANDO,FL,28.568014,-81.21895,F,,(407) 249-7732,Florida,Little Caesars,2024-11-01
661,16320602,1982 OSCEOLA PARKWAY,,KISSIMMEE,FL,28.34304,-81.364304,F,,(407) 348-7733,Florida,Little Caesars,2024-11-01
664,16320603,2760 HOPKINS AVE,,TITUSVILLE,FL,28.583708,-80.80607,F,,(321) 269-1500,Florida,Little Caesars,2024-11-01
666,16320604,1606 E SILVER STAR RD,,OCOEE,FL,28.573823,-81.522745,F,,(407) 290-5757,Florida,Little Caesars,2024-11-01
668,16320605,2711 CLEARLAKE RD UNIT C7,,COCOA,FL,28.394463,-80.755049,F,,(321) 631-7400,Florida,Little Caesars,2024-11-01
680,16320606,1559 N. SINGLETON AVE,DAIRY PLAZA,TITUSVILLE,FL,28.637235,-80.845942,F,,(321) 268-8191,Florida,Little Caesars,2024-11-01
682,16320607,"4651 BABCOCK STREET, N.E. #11",LAS PALMAS SHOPPING CENTER,PALM BAY,FL,28.022079,-80.622498,F,,(321) 951-4999,Florida,Little Caesars,2024-11-01
685,16320608,190 MALABAR RD SUITE 115,,PALM BAY,FL,27.998705,-80.672802,F,,(321) 724-2261,Florida,Little Caesars,2024-11-01
687,16320611,1682 PROVIDENCE BOULEVARD #3,,DELTONA,FL,28.906109,-81.22653,F,,(386) 532-5699,Florida,Little Caesars,2024-11-01
705,16320001,1260 N. STATE ST.,,PROVO,UT,40.251099,-111.666089,F,,(801) 374-2314,Utah,Little Caesars,2024-11-01
706,16320002,650 E STATE ST SUITE A,,AMERICAN FORK,UT,40.372394,-111.780475,F,,(801) 756-6068,Utah,Little Caesars,2024-11-01
707,16320003,74 S STATE ST,,OREM,UT,40.295778,-111.695448,F,,(801) 225-4500,Utah,Little Caesars,2024-11-01
708,16320004,9205 S 700 EAST,,SANDY,UT,40.58383,-111.8707,F,,(801) 562-1900,Utah,Little Caesars,2024-11-01
709,16320005,1836 WEST 12600 SOUTH,RIVERTON PLAZA,RIVERTON,UT,40.522572,-111.940921,F,,(801) 254-2100,Utah,Little Caesars,2024-11-01
710,16320006,434 N 900 EAST,,PROVO,UT,40.239528,-111.642856,F,,(801) 374-2315,Utah,Little Caesars,2024-11-01
711,16320007,1074 N MAIN,,SPANISH FORK,UT,40.123237,-111.652452,F,,(801) 798-9818,Utah,Little Caesars,2024-11-01
713,16320008,880 E 5900 S,,MURRAY,UT,40.641701,-111.866691,F,,(801) 266-4477,Utah,Little Caesars,2024-11-01
715,16320009,3950 W 5400 S,,KEARNS,UT,40.653452,-111.985359,F,,(801) 967-7050,Utah,Little Caesars,2024-11-01
716,16320010,7085 S REDWOOD RD,,WEST JORDAN,UT,40.622521,-111.937095,F,,(801) 562-9595,Utah,Little Caesars,2024-11-01
718,16320011,4124 S REDWOOD RD,,TAYLORSVILLE,UT,40.681614,-111.939342,F,,(801) 965-1400,Utah,Little Caesars,2024-11-01
719,16320012,3380 SOUTH 5600 WEST,GATEWAY WEST SHOPPING CENTER,WEST VALLEY,UT,40.698556,-112.026437,F,,(801) 964-1900,Utah,Little Caesars,2024-11-01
723,16320014,1580 SOUTH STATE,ANTELOPE PLAZA,CLEARFIELD,UT,41.091801,-112.003,F,,(801) 776-0666,Utah,Little Caesars,2024-11-01
724,16320015,74 E 500 S,STE 14,BOUNTIFUL,UT,40.883948,-111.878847,F,,(801) 298-4448,Utah,Little Caesars,2024-11-01
725,16320016,700 EAST 2100 SOUTH,,SALT LAKE CITY,UT,40.725231,-111.872459,F,,(801) 708-7846,Utah,Little Caesars,2024-11-01
726,16320017,1650 WEST 9000 SOUTH,,WEST JORDAN,UT,40.588148,-111.936778,F,,(801) 565-0101,Utah,Little Caesars,2024-11-01
728,16320018,3632 W 3500 S,,WEST VALLEY,UT,40.697203,-111.978207,F,,(801) 966-6555,Utah,Little Caesars,2024-11-01
729,16320019,2600 N 400 E,NORTH POINTE SHOPPING CENTER,OGDEN,UT,41.304821,-111.967541,F,,(801) 782-2830,Utah,Little Caesars,2024-11-01
730,16320020,1430 N 140 E ST,,LOGAN,UT,41.758211,-111.833701,F,,(435) 753-2121,Utah,Little Caesars,2024-11-01
731,16320021,4862 SOUTH 1900 WEST,,ROY,UT,41.174944,-112.025397,F,,(801) 773-1300,Utah,Little Caesars,2024-11-01
732,16320022,3585 S HARRISON BLVD,,OGDEN,UT,41.197983,-111.949816,F,,(801) 392-0088,Utah,Little Caesars,2024-11-01
733,16320023,6973 SOUTH 4800 WEST,,WEST JORDAN,UT,40.624754,-112.004951,F,,(801) 840-5440,Utah,Little Caesars,2024-11-01
734,16320024,805 SOUTH 900W,,SALT LAKE CITY,UT,40.751681,-111.916278,F,,(801) 363-2400,Utah,Little Caesars,2024-11-01
735,16320025,2301 EAST 2100 SOUTH,,SALT LAKE CITY,UT,40.726043,-111.824657,F,,(801) 487-6161,Utah,Little Caesars,2024-11-01
738,16320026,1169 E MAIN ST,,PRICE,UT,39.599883,-110.792706,F,,(435) 200-4061,Utah,Little Caesars,2024-11-01
740,16320028,11400 SOUTH 700 EAST,,DRAPER,UT,40.543907,-111.872401,F,,(801) 676-6777,Utah,Little Caesars,2024-11-01
742,16320029,192 NORTH FAIRFIELD,,LAYTON,UT,41.062373,-111.945351,F,,(801) 547-0099,Utah,Little Caesars,2024-11-01
744,16320030,1169 W HIGHWAY 40 #A,,VERNAL,UT,40.449367,-109.54996,F,,(435) 200-5994,Utah,Little Caesars,2024-11-01
745,16320031,787 S US HIGHWAY 91,,PAYSON,UT,40.031531,-111.735206,F,,(801) 465-1144,Utah,Little Caesars,2024-11-01
746,14880016,96 N. MAIN STREET #104,,CEDAR CITY,UT,37.677139,-113.062,F,,(435) 586-1195,Utah,Little Caesars,2024-11-01
747,16320032,1287 WALL AVE,,OGDEN,UT,41.243011,-111.978856,F,,(801) 393-1090,Utah,Little Caesars,2024-11-01
750,80194503,1746 W MOUNT HOUSTON RD,,HOUSTON,TX,29.898308,-95.428614,C,,(281) 931-0444,Texas,Little Caesars,2024-11-01
753,80194506,1825 EAST HOUSTON ST,,CLEVELAND,TX,30.339046,-95.066833,C,,(281) 593-0133,Texas,Little Caesars,2024-11-01
760,80194513,2619 RED BLUFF,KROGER JUNCTION,PASADENA,TX,29.695871,-95.174562,C,,(713) 475-5870,Texas,Little Caesars,2024-11-01
768,80194521,9599 JONES RD. SPACE 119,RANDALL'S CENTER-STEEPLECHASE,HOUSTON,TX,29.91184,-95.584702,C,,(281) 890-1588,Texas,Little Caesars,2024-11-01
776,80194529,22616-A ALDINE WESTFIELD RD,CYPRESS TRAILS SHOPPING CENTER,SPRING,TX,30.040461,-95.381699,C,,(281) 350-1911,Texas,Little Caesars,2024-11-01
777,80194530,5700 W. LITTLE YORK ROAD,,HOUSTON,TX,29.863548,-95.473907,C,,(281) 820-2100,Texas,Little Caesars,2024-11-01
786,80194539,6213 LYONS,LYONS PLAZA,HOUSTON,TX,29.776622,-95.307598,C,,(713) 672-6129,Texas,Little Caesars,2024-11-01
790,12810001,9615 SPENCER HWY,,LA PORTE,TX,29.664638,-95.088599,F,,(281) 479-0964,Texas,Little Caesars,2024-11-01
795,80194548,2865 SOUTH RICHEY RD,SOUTH RICHEY SHOPPING CENTER,HOUSTON,TX,29.676846,-95.230417,C,,(713) 946-7200,Texas,Little Caesars,2024-11-01
801,80194554,10804 S. POST OAK,S. POST OAK & WILLOWBEND S.C.,HOUSTON,TX,29.663137,-95.464802,C,,(713) 721-6611,Texas,Little Caesars,2024-11-01
802,80194555,9413 MESA DRIVE,FIESTA MART PLAZA,HOUSTON,TX,29.849534,-95.264828,C,,(713) 635-3333,Texas,Little Caesars,2024-11-01
807,80194560,120 S. WAYSIDE DRIVE,,HOUSTON,TX,29.736959,-95.305901,C,,(713) 923-1888,Texas,Little Caesars,2024-11-01
811,80194564,2603 FULTON ST SUITE A,,HOUSTON,TX,29.785736,-95.360944,C,,(713) 222-2212,Texas,Little Caesars,2024-11-01
813,80194566,139 LITTLE YORK,WHITE PLAZA,HOUSTON,TX,29.870351,-95.382687,C,,(713) 695-5895,Texas,Little Caesars,2024-11-01
818,80045054,524 EAST LAUREL DR,LAUREL PLAZA SHOPPING CENTER,SALINAS,CA,36.695835,-121.639044,C,,(831) 424-9033,California,Little Caesars,2024-11-01
822,80045055,45A S. SANBORN ROAD,SANBORN STATION,SALINAS,CA,36.670662,-121.627678,C,,(831) 754-2144,California,Little Caesars,2024-11-01
825,80045059,851 5TH ST STE M,GONZALES SHOPPING CENTER,GONZALES,CA,36.515061,-121.436037,C,,(831) 675-3300,California,Little Caesars,2024-11-01
827,80045056,1578 NORTH MAIN STREET,HARDEN RANCH PLAZA,SALINAS,CA,36.716214,-121.654777,C,,(831) 442-3171,California,Little Caesars,2024-11-01
828,14290001,1555 PALM AVE,,SAN DIEGO,CA,32.583078,-117.100134,F,,(619) 423-7777,California,Little Caesars,2024-11-01
843,80045047,1306 SOUTH WINCHESTER BLVD,,SAN JOSE,CA,37.301094,-121.94867,C,,(408) 378-1155,California,Little Caesars,2024-11-01
844,80045044,1039 SUNNYVALE-SARATOGA,,SUNNYVALE,CA,37.35802,-122.03189,C,,(408) 245-0607,California,Little Caesars,2024-11-01
847,37210001,2813 REDWOOD PKWY,,VALLEJO,CA,38.12336,-122.22737,F,,(707) 553-8200,California,Little Caesars,2024-11-01
852,80045048,1809 EAST CAPITOL EXPRESSWAY,SILVER CREEK PLAZA,SAN JOSE,CA,37.310533,-121.810136,C,,(408) 238-2600,California,Little Caesars,2024-11-01
854,80045049,1075 TULLY ROAD SUITE 32,,SAN JOSE,CA,37.31522,-121.83678,C,,(408) 288-7000,California,Little Caesars,2024-11-01
855,13360001,976 LUNDY AVE,,SAN JOSE,CA,37.37404,-121.87277,F,,(408) 258-1100,California,Little Caesars,2024-11-01
856,80045051,3085 MCKEE ROAD,,SAN JOSE,CA,37.37527,-121.83551,C,,(408) 259-0661,California,Little Caesars,2024-11-01
857,80045046,287 JACKLIN RD,,MILPITAS,CA,37.44641,-121.9033,C,,(408) 946-6060,California,Little Caesars,2024-11-01
860,80045042,3020 CASTRO VALLEY BLVD,,CASTRO VALLEY,CA,37.696171,-122.082092,C,,(510) 733-5888,California,Little Caesars,2024-11-01
864,80045041,338 WEST TENNYSON,,HAYWARD,CA,37.633223,-122.065229,C,,(510) 785-4884,California,Little Caesars,2024-11-01
866,80045045,2000 HOMESTEAD #C,,SANTA CLARA,CA,37.34314,-121.9581,C,,(408) 249-9200,California,Little Caesars,2024-11-01
869,80045040,17900 HESPERIAN BOULEVARD,,SAN LORENZO,CA,37.6729,-122.122201,C,,(510) 481-0745,California,Little Caesars,2024-11-01
871,80045053,1201 JULIAN ST,,SAN JOSE,CA,37.35102,-121.87038,C,,(408) 995-6895,California,Little Caesars,2024-11-01
891,35980001,1410-C BRIDGE STREET,,YUBA CITY,CA,39.131899,-121.637394,F,,(530) 673-3330,California,Little Caesars,2024-11-01
892,35460001,2260 ORO DAM BLVD #A,CURRIER SQUARE SHOPPING CTR,OROVILLE,CA,39.505598,-121.548393,F,,(530) 532-1100,California,Little Caesars,2024-11-01
893,17790001,118-A W EAST AVENUE,,CHICO,CA,39.756981,-121.86188,F,,(530) 894-5707,California,Little Caesars,2024-11-01
901,16180049,501 EAST KING,,KINGS MOUNTAIN,NC,35.2408,-81.33451,F,,(704) 739-0077,North Carolina,Little Caesars,2024-11-01
902,16180041,1932 CHERRY RD,,ROCK HILL,SC,34.961239,-81.0037,F,,(803) 366-8351,South Carolina,Little Caesars,2024-11-01
915,37250001,5412 W. MARKET ST.,,GREENSBORO,NC,36.073552,-79.886957,F,,(336) 579-9628,North Carolina,Little Caesars,2024-11-01
916,16180042,2143 STATESVILLE BLVD SHOP A,,SALISBURY,NC,35.693825,-80.518051,F,,(704) 633-6004,North Carolina,Little Caesars,2024-11-01
920,16180043,856-A SOUTH UNION ST,,CONCORD,NC,35.387119,-80.560852,F,,(704) 792-9888,North Carolina,Little Caesars,2024-11-01
922,16180044,2103 N CANNON BLVD,,KANNAPOLIS,NC,35.522579,-80.6119,F,,(704) 933-4091,North Carolina,Little Caesars,2024-11-01
928,16180045,3214 RANDLEMAN RD,,GREENSBORO,NC,35.99118,-79.803703,F,,(336) 379-7491,North Carolina,Little Caesars,2024-11-01
931,16180046,228 EASTWAY DR,STE 9,CHARLOTTE,NC,35.256524,-80.778693,F,,(704) 509-0919,North Carolina,Little Caesars,2024-11-01
934,16180038,2224 N CHURCH,CUM-PARK PLAZA,BURLINGTON,NC,36.093639,-79.398102,F,,(336) 227-6981,North Carolina,Little Caesars,2024-11-01
936,16180051,931-A S MAIN ST,,KERNERSVILLE,NC,36.108546,-80.094249,F,,(336) 996-1065,North Carolina,Little Caesars,2024-11-01
938,16180052,613 HIGHLAND ST,,MOUNT HOLLY,NC,35.288017,-81.017773,F,,(704) 827-3444,North Carolina,Little Caesars,2024-11-01
947,16180039,203 TIMBER DRIVE WEST,TIMBER CROSSINGS SHOPPING CTR,GARNER,NC,35.685959,-78.604301,F,,(919) 772-7775,North Carolina,Little Caesars,2024-11-01
948,16180047,25 A PLAZA PARKWAY,,LEXINGTON,NC,35.796989,-80.256599,F,,(336) 243-1206,North Carolina,Little Caesars,2024-11-01
950,16180040,1320 N MAIN ST,,FUQUAY VARINA,NC,35.59129,-78.7892,F,,(919) 552-8688,North Carolina,Little Caesars,2024-11-01
951,16180056,821 LAFAYETTE ST SOUTH,,SHELBY,NC,35.280043,-81.541523,F,,(704) 487-7288,North Carolina,Little Caesars,2024-11-01
954,37250002,2410 EAST MARKET STREET,,GREENSBORO,NC,36.076693,-79.756169,F,,(336) 579-9676,North Carolina,Little Caesars,2024-11-01
956,16180053,1935-A DAVIS PARK,,GASTONIA,NC,35.234627,-81.221107,F,,(704) 865-6776,North Carolina,Little Caesars,2024-11-01
962,80035709,20907 SHERMAN WAY,CANOGA PLAZA,CANOGA PARK,CA,34.201509,-118.589029,C,,(818) 932-0530,California,Little Caesars,2024-11-01
963,80035712,31431 SANTA MARGARITA PKWY #H,,RANCHO SANTA MARGARI,CA,33.64963,-117.582871,C,,(949) 858-0822,California,Little Caesars,2024-11-01
964,80035715,549 NEW LOS ANGELES AVE #650,LA SPRING SHOPPING CENTER,MOORPARK,CA,34.279287,-118.874085,C,,(805) 523-9100,California,Little Caesars,2024-11-01
965,80035716,8610 CALIFORNIA AVENUE,,RIVERSIDE,CA,33.935877,-117.434834,C,,(951) 688-9900,California,Little Caesars,2024-11-01
966,80035719,12552 LIMONITE AVE STE 100,EASTVALE GATEWAY SOUTH,EASTVALE,CA,33.97501,-117.557592,C,,(951) 735-5693,California,Little Caesars,2024-11-01
967,80035722,15218 SUMMIT AVENUE SUITE 200,,FONTANA,CA,34.150881,-117.475649,C,,(909) 899-7600,California,Little Caesars,2024-11-01
969,80035746,24881 ALICIA PARKWAY,LAGUNA HILLS PLAZA,LAGUNA HILLS,CA,33.600536,-117.69252,C,,(949) 457-9600,California,Little Caesars,2024-11-01
970,80035762,12880 BEACH BLVD SUITE A-103,PLAZA ON THE BLVD,STANTON,CA,33.774091,-117.991835,C,,(714) 890-0330,California,Little Caesars,2024-11-01
971,80035769,1643 E HIGHLAND AVE STE A,HIGHLAND PLAZA,SAN BERNARDINO,CA,34.135638,-117.251123,C,,(909) 888-7479,California,Little Caesars,2024-11-01
972,80035772,11175 SIERRA AVENUE,SIERRA CROSSROADS,FONTANA,CA,34.050774,-117.434208,C,,(909) 427-0964,California,Little Caesars,2024-11-01
974,80035780,7922 NORWALK BLVD,,WHITTIER,CA,33.973372,-118.072857,C,,(562) 236-6509,California,Little Caesars,2024-11-01
975,80035781,533 S. AZUSA WAY,AZUSA WAY SHOPPING CENTER,LA PUENTE,CA,34.012458,-117.924263,C,,(626) 349-0403,California,Little Caesars,2024-11-01
981,80110179,15155 E 12 MILE RD,,WARREN,MI,42.509288,-82.968887,C,,(586) 776-3990,Michigan,Little Caesars,2024-11-01
985,81110180,15839 TELEGRAPH RD,,REDFORD,MI,42.406232,-83.277481,C,,(313) 534-7060,Michigan,Little Caesars,2024-11-01
987,80110181,9633 TELEGRAPH RD,,TAYLOR,MI,42.237086,-83.268663,C,,(313) 291-3370,Michigan,Little Caesars,2024-11-01
996,37340001,34850 WEST WARREN ROAD,,WESTLAND,MI,42.339638,-83.382919,F,,(734) 421-4100,Michigan,Little Caesars,2024-11-01
1049,81110167,17200 LIVERNOIS,,DETROIT,MI,42.417957,-83.140602,C,,(313) 862-6770,Michigan,Little Caesars,2024-11-01
1051,81110168,19116 GRAND RIVER AVENUE,,DETROIT,MI,42.40517,-83.229195,C,,(313) 255-2450,Michigan,Little Caesars,2024-11-01
1052,32550001,1494 SHELDON ROAD,,PLYMOUTH,MI,42.358433,-83.479271,F,,(734) 459-4991,Michigan,Little Caesars,2024-11-01
1055,34990011,10661 COURTHOUSE ROAD,BREEZEWOOD SHOPPING CENTER,FREDERICKSBURG,VA,38.245658,-77.515901,F,,(540) 898-8100,Virginia,Little Caesars,2024-11-01
1059,34990012,282 DEACON RD,WOODLAWN VILLAGE SHP CENTER,FREDERICKSBURG,VA,38.327065,-77.440308,F,,(540) 371-3544,Virginia,Little Caesars,2024-11-01
1075,13480001,1092 E STANLEY BLVD,,LIVERMORE,CA,37.67901,-121.7803,F,,(925) 447-4373,California,Little Caesars,2024-11-01
1076,80045037,245-B EAST 11TH STREET,,TRACY,CA,37.739746,-121.421775,C,,(209) 832-0818,California,Little Caesars,2024-11-01
1179,36970001,442 N. CEDAR BLUFF ROAD,WALGREEN'S PLAZA,KNOXVILLE,TN,35.92474,-84.094101,F,,(865) 694-8999,Tennessee,Little Caesars,2024-11-01
1180,36970002,7116 MAYNARDVILLE PIKE,HALLS PLAZA,KNOXVILLE,TN,36.07769,-83.927399,F,,(865) 922-8999,Tennessee,Little Caesars,2024-11-01
1181,36970003,10645 HARDIN VALLEY RD,,KNOXVILLE,TN,35.951486,-84.156298,F,,(865) 399-7996,Tennessee,Little Caesars,2024-11-01
1182,36970004,7335 CHAPMAN HIGHWAY,CHAPMAN PLAZA SHOPPING CENTER,KNOXVILLE,TN,35.908859,-83.8479,F,,(865) 577-0635,Tennessee,Little Caesars,2024-11-01
1183,36970005,1741 WEST BROADWAY,BI-LO SHOPPING CENTER,MARYVILLE,TN,35.735359,-83.992996,F,,(865) 984-8999,Tennessee,Little Caesars,2024-11-01
1184,36970006,475 FORKS-OF-THE-RIVER PARKWAY,MADISON SQUARE,SEVIERVILLE,TN,35.861752,-83.5662,F,,(865) 453-8999,Tennessee,Little Caesars,2024-11-01
1185,36970007,113 W. BROADWAY,MEETING SQ SHOPPING CENTER,JEFFERSON CITY,TN,36.113946,-83.493537,F,,(865) 475-5590,Tennessee,Little Caesars,2024-11-01
1186,36970008,4748 CENTER LINE DRIVE,EAST TOWNE CROSSING,KNOXVILLE,TN,36.030357,-83.883224,F,,(865) 522-8999,Tennessee,Little Caesars,2024-11-01
1187,36260002,995 S HIGHWAY 25 W,,WILLIAMSBURG,KY,36.731426,-84.156375,F,,(606) 549-1949,Kentucky,Little Caesars,2024-11-01
1189,80110170,12500 DIX-TOLEDO,,SOUTHGATE,MI,42.216789,-83.194253,C,,(734) 281-3770,Michigan,Little Caesars,2024-11-01
1190,80110171,25515 HOOVER,,WARREN,MI,42.482402,-83.006722,C,,(586) 806-2500,Michigan,Little Caesars,2024-11-01
1191,33990001,22359 GODDARD AVE,,TAYLOR,MI,42.226501,-83.253713,F,,(734) 287-6100,Michigan,Little Caesars,2024-11-01
1192,18340006,3648 WEST MAPLE ROAD,,BLOOMFIELD TOWNSHIP,MI,42.545513,-83.262413,F,,(248) 647-3500,Michigan,Little Caesars,2024-11-01
1193,80110174,2660 HILTON ROAD,,FERNDALE,MI,42.467972,-83.123108,C,,(248) 545-5631,Michigan,Little Caesars,2024-11-01
1194,37090001,42440 FORD ROAD,,CANTON,MI,42.323264,-83.459285,F,,(734) 981-4100,Michigan,Little Caesars,2024-11-01
1195,80110176,13248 EUREKA ROAD,,SOUTHGATE,MI,42.199589,-83.185933,C,,(734) 285-7474,Michigan,Little Caesars,2024-11-01
1196,32550003,38141 ANN ARBOR ROAD,,LIVONIA,MI,42.360426,-83.417299,F,,(734) 464-3434,Michigan,Little Caesars,2024-11-01
1199,16180033,3448 HOLLAND RD,,VIRGINIA BEACH,VA,36.808999,-76.092322,F,,(757) 468-0433,Virginia,Little Caesars,2024-11-01
1201,16180034,2032 VICTORY BOULEVARD #5,WILLIAMS COURT SHOPPING CENTER,PORTSMOUTH,VA,36.795406,-76.32856,F,,(757) 487-2828,Virginia,Little Caesars,2024-11-01
1211,36620003,237 S BATTLEFIELD BLVD,,CHESAPEAKE,VA,36.715881,-76.239372,F,,(757) 482-0022,Virginia,Little Caesars,2024-11-01
1213,38710001,1944 W STADIUM BOULEVARD,,ANN ARBOR,MI,42.269961,-83.772844,F,,(734) 665-8621,Michigan,Little Caesars,2024-11-01
1215,80110154,32899 SCHOENHERR ROAD,,WARREN,MI,42.537479,-82.990081,C,,(586) 268-2520,Michigan,Little Caesars,2024-11-01
1217,80110160,886 FORD ST,,WYANDOTTE,MI,42.214257,-83.163421,C,,(734) 283-4242,Michigan,Little Caesars,2024-11-01
1229,38490001,2214 W PIERSON ROAD,,FLINT,MI,43.06131,-83.732735,F,,(810) 785-7846,Michigan,Little Caesars,2024-11-01
1230,38490002,1063 BRISTOL RD,,BURTON,MI,42.974632,-83.690857,F,,(810) 232-6121,Michigan,Little Caesars,2024-11-01
1231,38490003,101 S DORT,,FLINT,MI,43.024902,-83.654747,F,,(810) 233-6641,Michigan,Little Caesars,2024-11-01
1232,38490004,201 EAST MAIN STREET,,FLUSHING,MI,43.062828,-83.854492,F,,(810) 659-7520,Michigan,Little Caesars,2024-11-01
1233,38490005,5523 FENTON ROAD,,FLINT,MI,42.945297,-83.691678,F,,(810) 232-9750,Michigan,Little Caesars,2024-11-01
1235,38490006,1059 S BALLENGER,,FLINT,MI,43.00291,-83.73287,F,,(810) 232-9115,Michigan,Little Caesars,2024-11-01
1236,38490007,1081 SOUTH STATE STREET,,DAVISON,MI,43.016224,-83.51651,F,,(810) 653-3400,Michigan,Little Caesars,2024-11-01
1237,38490008,605 N GRAND TRAVERSE ST,,FLINT,MI,43.019272,-83.700479,F,,(810) 767-5585,Michigan,Little Caesars,2024-11-01
1238,38490009,3002 RICHFIELD,,FLINT,MI,43.050564,-83.651236,F,,(810) 736-0690,Michigan,Little Caesars,2024-11-01
1239,38490010,G-6042 NORTH SAGINAW,,MOUNT MORRIS,MI,43.089554,-83.693825,F,,(810) 785-2802,Michigan,Little Caesars,2024-11-01
1240,38490011,3064 E ATHERTON,,BURTON,MI,42.988911,-83.651802,F,,(810) 743-2124,Michigan,Little Caesars,2024-11-01
1241,38490012,12500 SOUTH SAGINAW,,GRAND BLANC,MI,42.920967,-83.622505,F,,(810) 695-4680,Michigan,Little Caesars,2024-11-01
1242,38490013,11956 1/2 N SAGINAW RD,,MT MORRIS,MI,43.120831,-83.694191,F,,(810) 687-6440,Michigan,Little Caesars,2024-11-01
1243,38490014,2183 W. VIENNA,,CLIO,MI,43.176529,-83.720505,F,,(810) 687-7730,Michigan,Little Caesars,2024-11-01
1244,38490015,9041 MILLER ROAD,,SWARTZ CREEK,MI,42.95648,-83.85439,F,,(810) 635-2997,Michigan,Little Caesars,2024-11-01
1245,38490016,2509 FLUSHING ROAD,,FLINT,MI,43.024041,-83.731175,F,,(810) 232-8100,Michigan,Little Caesars,2024-11-01
1246,38490017,803 N SAGINAW,,DURAND,MI,42.917999,-83.9851,F,,(989) 288-4334,Michigan,Little Caesars,2024-11-01
1247,38490018,3029 E. HILL ROAD,,GRAND BLANC,MI,42.944881,-83.651306,F,,(810) 695-5923,Michigan,Little Caesars,2024-11-01
1248,38490019,1193 S BELSAY RD,,BURTON,MI,43.013714,-83.594292,F,,(810) 743-5500,Michigan,Little Caesars,2024-11-01
1249,4240005,229 N. MAIN,,FRANKENMUTH,MI,43.337304,-83.737652,F,,(989) 652-3388,Michigan,Little Caesars,2024-11-01
1252,38490020,5028 RICHFIELD RD,,FLINT,MI,43.050758,-83.614601,F,,(810) 736-4150,Michigan,Little Caesars,2024-11-01
1256,12880009,18500 WEST OUTER DRIVE,,DEARBORN,MI,42.319918,-83.257396,F,,(313) 565-3505,Michigan,Little Caesars,2024-11-01
1258,38270002,3223 SOUTH BLVD,,AUBURN HILLS,MI,42.620609,-83.225197,F,,(248) 852-5990,Michigan,Little Caesars,2024-11-01
1259,38270003,151 S MAIN STREET,,ROMEO,MI,42.800966,-83.013139,F,,(586) 752-9687,Michigan,Little Caesars,2024-11-01
1293,12040001,1728 N LOCUST AVE,,LAWRENCEBURG,TN,35.262787,-87.323154,F,,(931) 762-5300,Tennessee,Little Caesars,2024-11-01
1296,80110144,2993 E BIG BEAVER,,TROY,MI,42.565862,-83.089373,C,,(248) 689-3641,Michigan,Little Caesars,2024-11-01
1298,250001,3475 E NORTH UNION RD,,BAY CITY,MI,43.60944,-83.916901,F,,(989) 686-3600,Michigan,Little Caesars,2024-11-01
1299,250002,1006 LAFAYETTE,,BAY CITY,MI,43.57935,-83.887703,F,,(989) 892-2999,Michigan,Little Caesars,2024-11-01
1300,250003,2612 CENTER AVE,,BAY CITY,MI,43.59515,-83.853699,F,,(989) 893-0005,Michigan,Little Caesars,2024-11-01
1302,260001,3783 DIXIE HWY,,SAGINAW,MI,43.397621,-83.910202,F,,(989) 753-4451,Michigan,Little Caesars,2024-11-01
1303,260002,3625 DAVENPORT AVE,,SAGINAW,MI,43.438068,-83.991997,F,,(989) 793-7992,Michigan,Little Caesars,2024-11-01
1306,260005,603 W GENESEE,,SAGINAW,MI,43.435162,-83.950302,F,,(989) 754-6506,Michigan,Little Caesars,2024-11-01
1307,260006,904 GRATIOT,,SAGINAW,MI,43.41658,-83.979698,F,,(989) 790-0665,Michigan,Little Caesars,2024-11-01
1308,260007,5041 STATE ST,,SAGINAW,MI,43.436722,-84.015701,F,,(989) 791-3626,Michigan,Little Caesars,2024-11-01
1313,80233382,4388 EAST CRAIG RD SUITE 135,CRAIG & LAMB PLAZA,LAS VEGAS,NV,36.241254,-115.07785,C,,(702) 888-3566,Nevada,Little Caesars,2024-11-01
1314,80233383,4559 W. CHARLESTON BOULEVARD,WESTLAND FAIR CENTER,LAS VEGAS,NV,36.157112,-115.20495,C,,(702) 870-2922,Nevada,Little Caesars,2024-11-01
1316,80233380,690 N VALLE VERDE,,HENDERSON,NV,36.06907,-115.06826,C,,(702) 454-4622,Nevada,Little Caesars,2024-11-01
1317,80233385,4258 E. CHARLESTON BOULEVARD,CHARLESTON PLAZA,LAS VEGAS,NV,36.159039,-115.082,C,,(702) 438-7422,Nevada,Little Caesars,2024-11-01
1319,80233386,4938 East Tropicana,,LAS VEGAS,NV,36.101337,-115.064994,C,,(702) 458-2141,Nevada,Little Caesars,2024-11-01
1322,80233389,4825 S. RAINBOW BOULEVARD #202,,LAS VEGAS,NV,36.10104,-115.243,C,,(702) 221-9999,Nevada,Little Caesars,2024-11-01
1323,80233390,6623 W. CHEYENNE AVENUE,RAINBOW RIDGE PLAZA,LAS VEGAS,NV,36.21784,-115.240498,C,,(702) 656-2622,Nevada,Little Caesars,2024-11-01
1324,80233391,2272 S. NELLIS BOULEVARD,WINTERWOOD PAVILION SHOP CTR,LAS VEGAS,NV,36.144478,-115.065154,C,,(702) 431-7700,Nevada,Little Caesars,2024-11-01
1325,80233392,1995 N. NELLIS BOULEVARD,,LAS VEGAS,NV,36.194613,-115.063156,C,,(702) 459-2221,Nevada,Little Caesars,2024-11-01
1326,14150004,10608 S. EASTERN AVE,,HENDERSON,NV,35.998739,-115.103674,F,,(702) 792-5252,Nevada,Little Caesars,2024-11-01
1327,80233394,1758 E. CHARLESTON BOULEVARD,CHARLESTON PLAZA,LAS VEGAS,NV,36.15892,-115.126,C,,(702) 385-2225,Nevada,Little Caesars,2024-11-01
1328,80233372,4898 W LONE MOUNTAIN RD,SPACE B101 LONE MOUNTAIN PLAZA,LAS VEGAS,NV,36.247341,-115.208,C,,(702) 656-2030,Nevada,Little Caesars,2024-11-01
1329,80233395,2639 WINDMILL PARKWAY,PECOS-WINDMILL PLAZA,HENDERSON,NV,36.040913,-115.101476,C,,(702) 263-2200,Nevada,Little Caesars,2024-11-01
1331,80110134,4232 E. 10 MILE RD,,WARREN,MI,42.476017,-83.064186,C,,(586) 756-5111,Michigan,Little Caesars,2024-11-01
1332,36470025,16125 EAST TEN MILE ROAD,,EASTPOINTE,MI,42.479888,-82.955643,F,,(586) 771-0670,Michigan,Little Caesars,2024-11-01
1334,80023170,5127 WEST GLENDALE AVENUE,,GLENDALE,AZ,33.538805,-112.16922,C,,(623) 934-3307,Arizona,Little Caesars,2024-11-01
1335,80023171,4010 N 83RD AVE,,PHOENIX,AZ,33.493432,-112.238294,C,,(623) 849-1300,Arizona,Little Caesars,2024-11-01
1336,80023172,3544B WEST GLENDALE AVENUE,PALM GLEN CENTER,PHOENIX,AZ,33.538936,-112.136695,C,,(602) 841-8859,Arizona,Little Caesars,2024-11-01
1337,80023173,2931 N. 59TH AVENUE,SU CASA SHOPPING CENTER,PHOENIX,AZ,33.482079,-112.185721,C,,(623) 245-9000,Arizona,Little Caesars,2024-11-01
1338,80023174,4041 NORTH 33RD AVENUE,PLAZA DEL SOL,PHOENIX,AZ,33.494375,-112.129953,C,,(602) 264-0202,Arizona,Little Caesars,2024-11-01
1339,80023175,711 E. BROADWAY,,TEMPE,AZ,33.407204,-111.927407,C,,(480) 446-2844,Arizona,Little Caesars,2024-11-01
1340,80023176,2434 E. BASELINE RD #103,LEGACY PLAZA,PHOENIX,AZ,33.377805,-112.029633,C,,(602) 276-1900,Arizona,Little Caesars,2024-11-01
1342,80023177,7919 E. THOMAS ROAD,INDIAN RIVER PLAZA,SCOTTSDALE,AZ,33.479834,-111.909225,C,,(480) 941-4335,Arizona,Little Caesars,2024-11-01
1343,80023178,6002 N. 67th Avenue,Suite 102,GLENDALE,AZ,33.524358,-112.203643,C,,(623) 435-9085,Arizona,Little Caesars,2024-11-01
1344,80023179,4340 WEST MCDOWELL RD STE 6,,PHOENIX,AZ,33.466368,-112.153596,C,,(602) 484-0399,Arizona,Little Caesars,2024-11-01
1345,80023180,432 N. LITCHFIELD RD STE 324,GOODYEAR VILLAGE SHOPPING CTR,GOODYEAR,AZ,33.452369,-112.359785,C,,(623) 932-5301,Arizona,Little Caesars,2024-11-01
1346,80023181,822 E UNION HILLS,ABCO PLAZA SHOPPING CENTER,PHOENIX,AZ,33.655937,-112.062134,C,,(623) 780-0633,Arizona,Little Caesars,2024-11-01
1347,80023182,6815 S CENTRAL AVE,,PHOENIX,AZ,33.384326,-112.072873,C,,(602) 243-0499,Arizona,Little Caesars,2024-11-01
1350,80023184,933 16TH STREET,,PHOENIX,AZ,33.458391,-112.047048,C,,(602) 258-0309,Arizona,Little Caesars,2024-11-01
1351,80023185,2950 N. 32ND STREET,SUITE 125,PHOENIX,AZ,33.481252,-112.013239,C,,(602) 522-8400,Arizona,Little Caesars,2024-11-01
1352,80023186,3555 W VAN BUREN SUITE 109,,PHOENIX,AZ,33.451279,-112.134919,C,,(602) 269-3309,Arizona,Little Caesars,2024-11-01
1353,80023187,"7521 W. CACTUS ROAD, SUITE 103",,PEORIA,AZ,33.59559,-112.220573,C,,(623) 334-9144,Arizona,Little Caesars,2024-11-01
1355,80023188,1810 W. SOUTHERN AVE #106,,PHOENIX,AZ,33.392282,-112.096313,C,,(602) 243-4144,Arizona,Little Caesars,2024-11-01
1356,80023189,8929 N CENTRAL AVE #101,,PHOENIX,AZ,33.567011,-112.073491,C,,(602) 861-9065,Arizona,Little Caesars,2024-11-01
1357,80023190,1929 W UNION HILLS,UNION PLAZA,PHOENIX,AZ,33.653235,-112.100955,C,,(602) 862-9828,Arizona,Little Caesars,2024-11-01
1358,80023191,967 E GUADALUPE RD,,TEMPE,AZ,33.36343,-111.926,C,,(480) 831-6199,Arizona,Little Caesars,2024-11-01
1359,80023192,7435 W LOWER BUCKEYE #105,,PHOENIX,AZ,33.422582,-112.220538,C,,(623) 936-0444,Arizona,Little Caesars,2024-11-01
1361,80023193,4920 W BASELINE RD #101,,LAVEEN,AZ,33.378875,-112.165858,C,,(602) 237-0503,Arizona,Little Caesars,2024-11-01
1362,80023194,2700 W. BASELINE RD,SOUTH POINT PLAZA,TEMPE,AZ,33.37963,-111.977614,C,,(602) 431-1202,Arizona,Little Caesars,2024-11-01
1363,80023195,10240 NORTH 43RD AVENUE,,GLENDALE,AZ,33.579542,-112.151601,C,,(623) 931-1815,Arizona,Little Caesars,2024-11-01
1364,18980004,3145 LAGRANGE ST,,TOLEDO,OH,41.67955,-83.5411,F,,(419) 255-8784,Ohio,Little Caesars,2024-11-01
1365,18980001,4747 SUDER ROAD,,TOLEDO,OH,41.706833,-83.500089,F,,(419) 729-5461,Ohio,Little Caesars,2024-11-01
1367,18980005,2535 STARR AVENUE,,OREGON,OH,41.64397,-83.4879,F,,(419) 691-2266,Ohio,Little Caesars,2024-11-01
1369,330002,1404 24TH ST,,PORT HURON,MI,42.96854,-82.452202,F,,(810) 985-3990,Michigan,Little Caesars,2024-11-01
1371,330004,4083 24TH AVE,,FORT GRATIOT,MI,43.027168,-82.456299,F,,(810) 385-7474,Michigan,Little Caesars,2024-11-01
1374,35650004,1245 LEONARD STREET NW,,GRAND RAPIDS,MI,42.98569,-85.69996,F,,(616) 451-0781,Michigan,Little Caesars,2024-11-01
1376,35650001,1901 BALDWIN ST.,,JENISON,MI,42.907341,-85.829498,F,,(616) 457-5110,Michigan,Little Caesars,2024-11-01
1378,38490028,2045 EASTERN,,GRAND RAPIDS,MI,42.92598,-85.6483,F,,(616) 243-1531,Michigan,Little Caesars,2024-11-01
1379,35650005,5442 S DIVISION,,KENTWOOD,MI,42.864941,-85.664001,F,,(616) 532-0281,Michigan,Little Caesars,2024-11-01
1380,35650002,4375 CHICAGO DRIVE SW,,GRANDVILLE,MI,42.906261,-85.773499,F,,(616) 534-8771,Michigan,Little Caesars,2024-11-01
1382,38490030,2000 FULLER,,GRAND RAPIDS,MI,42.999062,-85.640297,F,,(616) 364-9477,Michigan,Little Caesars,2024-11-01
1383,35650010,4335 LAKE MICHIGAN DRIVE,,WALKER,MI,42.972542,-85.773201,F,,(616) 791-9080,Michigan,Little Caesars,2024-11-01
1384,35650003,725 28TH STREET,,WYOMING,MI,42.91354,-85.684303,F,,(616) 531-3075,Michigan,Little Caesars,2024-11-01
1387,38490029,380 E DIVISION ST NE,,ROCKFORD,MI,43.117048,-85.550652,F,,(616) 866-9000,Michigan,Little Caesars,2024-11-01
1388,38490031,545 STATE ST.,,SPARTA,MI,43.148918,-85.71101,F,,(616) 887-7995,Michigan,Little Caesars,2024-11-01
1389,35650006,2587 SW 84TH ST,,BYRON CENTER,MI,42.812038,-85.727097,F,,(616) 878-3366,Michigan,Little Caesars,2024-11-01
1391,35030002,1151 RANDALL ST,,COOPERSVILLE,MI,43.060956,-85.955486,F,,(616) 837-7334,Michigan,Little Caesars,2024-11-01
1392,35650011,1118 W SUPERIOR,,WAYLAND,MI,42.673597,-85.65468,F,,(269) 792-0500,Michigan,Little Caesars,2024-11-01
1413,12880010,1820 E AUBURN AVE,,ROCHESTER HILLS,MI,42.63782,-83.095453,F,,(248) 852-2300,Michigan,Little Caesars,2024-11-01
1414,37120001,53101 SHELBY ROAD,,SHELBY TOWNSHIP,MI,42.68375,-83.068404,F,,(248) 656-0200,Michigan,Little Caesars,2024-11-01
1420,20720005,3004 BROADWAY,,LORAIN,OH,41.44297,-82.165001,F,,(440) 244-3332,Ohio,Little Caesars,2024-11-01
1424,11970002,1901 CLEVELAND AVE.,,CANTON,OH,40.819472,-81.381534,F,,(330) 455-2004,Ohio,Little Caesars,2024-11-01
1428,11970004,1127 CLAREMONT AVE,,ASHLAND,OH,40.858536,-82.32798,F,,(419) 289-8012,Ohio,Little Caesars,2024-11-01
1437,11970006,2321 EAST AVE,,AKRON,OH,41.041561,-81.573906,F,,(330) 745-5999,Ohio,Little Caesars,2024-11-01
1443,33830001,802 CLARK STREET,,BIG RAPIDS,MI,43.689468,-85.485298,F,,(231) 796-2636,Michigan,Little Caesars,2024-11-01
1450,16430001,1437 N LEROY,,FENTON,MI,42.81581,-83.708612,F,,(810) 750-0551,Michigan,Little Caesars,2024-11-01
1451,16430002,612 WEST BROAD STREET,,LINDEN,MI,42.812998,-83.790342,F,,(810) 735-9481,Michigan,Little Caesars,2024-11-01
1452,37920002,6373 SASHABAW RD,,CLARKSTON,MI,42.731627,-83.380175,F,,(248) 620-1007,Michigan,Little Caesars,2024-11-01
1470,36250001,2102 E MICHIGAN,,JACKSON,MI,42.252949,-84.378197,F,,(517) 789-8101,Michigan,Little Caesars,2024-11-01
1471,36250002,1234 S WEST AVENUE,,JACKSON,MI,42.233608,-84.423401,F,,(517) 788-6222,Michigan,Little Caesars,2024-11-01
1475,33830004,5720 W US HIGHWAY 10,,LUDINGTON,MI,43.955349,-86.453903,F,,(231) 845-5178,Michigan,Little Caesars,2024-11-01
1478,3040201,3970 US HWY 131 S SUITE A,,CADILLAC,MI,44.28163,-85.407565,F,,(231) 775-9100,Michigan,Little Caesars,2024-11-01
1485,15530001,1115 CHARLES G SEIVERS BLVD,18 CENTRE PLAZA,CLINTON,TN,36.112801,-84.120499,F,,(865) 457-0084,Tennessee,Little Caesars,2024-11-01
1487,15530002,140 FIVE RIVERS PLAZA WAY,,NEWPORT,TN,35.973372,-83.211282,F,,(423) 623-6551,Tennessee,Little Caesars,2024-11-01
1489,37030001,41920 HAYES,,CLINTON TWP,MI,42.603884,-82.971305,F,,(586) 286-5580,Michigan,Little Caesars,2024-11-01
1491,49900001,32530 LOUGHEED HWY,,MISSION,BC,49.132927,-122.322233,F,Little Caesars Pizza,(604) 826 - 1213,,Little Caesars,2024-11-01
1492,11430001,106 N BROADWAY ST,,LAKE ORION,MI,42.78548,-83.24007,F,,(248) 693-6332,Michigan,Little Caesars,2024-11-01
1493,11430002,89 WEST BURDICK,,OXFORD,MI,42.824934,-83.272426,F,,(248) 628-6302,Michigan,Little Caesars,2024-11-01
1494,10040003,3751 BALDWIN,,ORION TWP,MI,42.725165,-83.306704,F,,(248) 391-0800,Michigan,Little Caesars,2024-11-01
1495,38800006,129 N MAIN ST,,THREE RIVERS,MI,41.94643,-85.634903,F,,(269) 273-8624,Michigan,Little Caesars,2024-11-01
1496,38800007,114 S CENTERVILLE RD,,STURGIS,MI,41.798279,-85.428299,F,,(269) 651-1711,Michigan,Little Caesars,2024-11-01
1499,38800001,2026 E US HIGHWAY 20,,MICHIGAN CITY,IN,41.687939,-86.858086,F,,(219) 879-3211,Indiana,Little Caesars,2024-11-01
1500,38800002,6321 CENTRAL AVE,,PORTAGE,IN,41.575771,-87.170799,F,,(219) 763-1514,Indiana,Little Caesars,2024-11-01
1503,38800003,2433 MONROE ST,,LA PORTE,IN,41.600342,-86.7005,F,,(219) 326-7725,Indiana,Little Caesars,2024-11-01
1508,34920003,1635 N MICHIGAN AVE,,PLYMOUTH,IN,41.355061,-86.311203,F,,(574) 936-5282,Indiana,Little Caesars,2024-11-01
1521,14130002,1101 W MICHIGAN AVE,,MARSHALL,MI,42.27179,-84.978401,F,,(269) 781-6800,Michigan,Little Caesars,2024-11-01
1523,13380014,698 SW CAPITAL AVE,,BATTLE CREEK,MI,42.301824,-85.199788,F,,(269) 788-9320,Michigan,Little Caesars,2024-11-01
1524,13380015,805 CAPITAL AVE NE,STE B,BATTLE CREEK,MI,42.330937,-85.1558,F,,(269) 282-1359,Michigan,Little Caesars,2024-11-01
1525,34410001,435 EAST CHICAGO,,COLDWATER,MI,41.937618,-84.981903,F,,(517) 279-8454,Michigan,Little Caesars,2024-11-01
1526,34410003,515 LANSING STREET,CHARLOTTE PLAZA,CHARLOTTE,MI,42.5692,-84.826413,F,,(517) 543-8600,Michigan,Little Caesars,2024-11-01
1527,11900001,216 N BROADWAY ST,,HASTINGS,MI,42.650108,-85.291219,F,,(269) 948-2824,Michigan,Little Caesars,2024-11-01
1530,36470036,485 N WHITEHALL ROAD,,NORTH MUSKEGON,MI,43.26696,-86.252197,F,,(231) 744-2466,Michigan,Little Caesars,2024-11-01
1531,36470037,2958 HENRY,,MUSKEGON,MI,43.194901,-86.262901,F,,(231) 739-6421,Michigan,Little Caesars,2024-11-01
1532,36470038,2315 E APPLE AVE,ARCHER PLAZA,MUSKEGON,MI,43.233951,-86.186169,F,,(231) 777-3940,Michigan,Little Caesars,2024-11-01
1535,14820001,121 HERRICK PARK DRIVE,,TECUMSEH,MI,42.012417,-83.940815,F,,(517) 423-8341,Michigan,Little Caesars,2024-11-01
1538,710001,1551 DUNDAS ST W,,LONDON,ON,42.999351,-81.19491,F,Little Caesars Pizza,(519) 451 - 7740,,Little Caesars,2024-11-01
1540,710003,509 COMMISSIONERS RD W,,LONDON,ON,42.954416,-81.289356,F,Little Caesars Pizza,(519) 641 - 2322,,Little Caesars,2024-11-01
1541,710004,1100 COMMISSIONERS RD. E.,,LONDON,ON,42.961724,-81.199487,F,Little Caesars Pizza,(519) 686 - 6330,,Little Caesars,2024-11-01
1542,710005,666 WONDERLAND ROAD N,,LONDON,ON,42.984852,-81.293153,F,Little Caesars Pizza,(519) 472 - 2286,,Little Caesars,2024-11-01
1543,710006,900 OXFORD ST EAST,,LONDON,ON,43.003252,-81.226635,F,Little Caesars Pizza,(519) 453 - 1820,,Little Caesars,2024-11-01
1544,710007,1780 ERNEST AVE,,LONDON,ON,42.941525,-81.236681,F,Little Caesars Pizza,(519) 668 - 6411,,Little Caesars,2024-11-01
1545,710009,101 FANSHAWE PARK RD,,LONDON,ON,43.028474,-81.276167,F,Little Caesars Pizza,(519) 660 - 8412,,Little Caesars,2024-11-01
1550,37990004,800 S US HIGHWAY 27,,ST JOHNS,MI,42.993936,-84.549033,F,,(989) 224-9331,Michigan,Little Caesars,2024-11-01
1551,730003,517 S MAIN ST,,LAPEER,MI,43.045731,-83.319298,F,,(810) 664-7190,Michigan,Little Caesars,2024-11-01
1552,34410012,13070 S US 27,,DEWITT,MI,42.82682,-84.543198,F,,(517) 669-8851,Michigan,Little Caesars,2024-11-01
1553,14370001,505 W MAIN ST,,LOWELL,MI,42.933419,-85.343774,F,,(616) 897-0043,Michigan,Little Caesars,2024-11-01
1554,34410002,829 S MAIN,,EATON RAPIDS,MI,42.504814,-84.656044,F,,(517) 663-4014,Michigan,Little Caesars,2024-11-01
1557,13380002,3146 SOUTH WESTNEDGE,,KALAMAZOO,MI,42.259697,-85.590846,F,,(269) 345-4300,Michigan,Little Caesars,2024-11-01
1559,13380004,6011 S WESTNEDGE,,PORTAGE,MI,42.22929,-85.589401,F,,(269) 323-3000,Michigan,Little Caesars,2024-11-01
1560,13380005,3814 W CENTRE AVE,,PORTAGE,MI,42.197701,-85.634583,F,,(269) 323-8200,Michigan,Little Caesars,2024-11-01
1561,13380006,1307 EAST M-89,,PLAINWELL,MI,42.450459,-85.671835,F,,(269) 685-6845,Michigan,Little Caesars,2024-11-01
1562,13380007,884 MARSHALL RD,,ALLEGAN,MI,42.516079,-85.833702,F,,(269) 673-2700,Michigan,Little Caesars,2024-11-01
1563,13380008,13218 N. US 131,,SCHOOLCRAFT,MI,42.125562,-85.638744,F,,(269) 679-3131,Michigan,Little Caesars,2024-11-01
1564,13380009,5460 GULL RD,,KALAMAZOO,MI,42.321941,-85.523903,F,,(269) 381-8300,Michigan,Little Caesars,2024-11-01
1567,80210302,3161 S 76TH STREET,,WEST ALLIS,WI,42.987259,-88.007599,C,,(414) 546-4310,Wisconsin,Little Caesars,2024-11-01
1573,32210001,1663 WISCONSIN AVENUE,,GRAFTON,WI,43.312981,-87.956001,F,,(262) 375-2090,Wisconsin,Little Caesars,2024-11-01
1577,80210305,2831 N OAKLAND AVENUE,,MILWAUKEE,WI,43.070229,-87.888199,C,,(414) 962-9444,Wisconsin,Little Caesars,2024-11-01
1580,80210307,2976 S CHASE,,MILWAUKEE,WI,42.990681,-87.909401,C,,(414) 481-0500,Wisconsin,Little Caesars,2024-11-01
1583,32210002,1448 WEST WASHINGTON,,WEST BEND,WI,43.42728,-88.1959,F,,(262) 334-2772,Wisconsin,Little Caesars,2024-11-01
1586,80210309,115 W SUNSET DR,,WAUKESHA,WI,42.987992,-88.229883,C,,(262) 524-8116,Wisconsin,Little Caesars,2024-11-01
1587,80210310,4208 W GREENFIELD AVE,,WEST MILWAUKEE,WI,43.016941,-87.966499,C,,(414) 384-0444,Wisconsin,Little Caesars,2024-11-01
1594,80210314,9230 W CAPITOL DR,,MILWAUKEE,WI,43.08984,-88.028099,C,,(414) 438-9000,Wisconsin,Little Caesars,2024-11-01
1596,80210315,7516 PERSHING BLVD,,KENOSHA,WI,42.564892,-87.857201,C,,(262) 697-1121,Wisconsin,Little Caesars,2024-11-01
1619,14850002,730 E BROWN,,MESA,AZ,33.435863,-111.815422,F,,(480) 898-7611,Arizona,Little Caesars,2024-11-01
1624,14850003,2754 E MCKELLIPS,#104,MESA,AZ,33.452222,-111.771396,F,,(480) 461-3087,Arizona,Little Caesars,2024-11-01
1626,830021,"347 E SOUTHERN AVE, #109",,MESA,AZ,33.391718,-111.823401,F,,(480) 644-1229,Arizona,Little Caesars,2024-11-01
1628,37590005,725 APACHE TRAIL,,APACHE JUNCTION,AZ,33.414742,-111.554,F,,(480) 671-0335,Arizona,Little Caesars,2024-11-01
1630,830025,401 N ARIZONA AVE,,CHANDLER,AZ,33.30986,-111.841,F,,(480) 814-9080,Arizona,Little Caesars,2024-11-01
1632,12830001,66858 GRATIOT,,RICHMOND,MI,42.793349,-82.735693,F,,(586) 727-3685,Michigan,Little Caesars,2024-11-01
1637,15310002,841 STATE HWY 19,PALATKA MARKETPLACE,PALATKA,FL,29.640231,-81.674995,F,,(386) 328-6200,Florida,Little Caesars,2024-11-01
1642,80152114,245 W MAIN STREET,,XENIA,OH,39.684259,-83.93372,C,,(937) 376-5422,Ohio,Little Caesars,2024-11-01
1643,81152115,2241 GRUBE ROAD,,SPRINGFIELD,OH,39.952087,-83.802666,C,,(937) 390-3682,Ohio,Little Caesars,2024-11-01
1649,80013160,4130 N ORACLE,,TUCSON,AZ,32.279737,-110.977679,C,,(520) 293-0420,Arizona,Little Caesars,2024-11-01
1652,80013161,7076 E GOLF LINKS,,TUCSON,AZ,32.191559,-110.843,C,,(520) 747-4956,Arizona,Little Caesars,2024-11-01
1654,80013162,659 W VALENCIA,,TUCSON,AZ,32.132978,-110.979226,C,,(520) 573-0016,Arizona,Little Caesars,2024-11-01
1658,80013163,5447 EAST 22ND STREET,,TUCSON,AZ,32.206841,-110.875,C,,(520) 790-4522,Arizona,Little Caesars,2024-11-01
1659,80013164,1748 W AJO WAY,,TUCSON,AZ,32.179354,-111.002494,C,,(520) 294-0105,Arizona,Little Caesars,2024-11-01
1663,80013166,1625 W VALENCIA,MIDVALE PARK SHOPPING CENTER,TUCSON,AZ,32.132278,-110.999382,C,,(520) 746-1574,Arizona,Little Caesars,2024-11-01
1666,80013167,515 E GRANT #171,,TUCSON,AZ,32.250439,-110.962,C,,(520) 623-0156,Arizona,Little Caesars,2024-11-01
1667,80013168,2175 E IRVINTON RD,,TUCSON,AZ,32.163783,-110.939745,C,,(520) 294-1616,Arizona,Little Caesars,2024-11-01
1669,4590005,7529 OUTER LOOP,,LOUISVILLE,KY,38.138588,-85.619457,F,,(502) 966-3111,Kentucky,Little Caesars,2024-11-01
1677,890001,1400 W COLLEGE AVE,,APPLETON,WI,44.262256,-88.428749,F,,(920) 734-5664,Wisconsin,Little Caesars,2024-11-01
1678,890002,317 E CALUMET,,APPLETON,WI,44.244061,-88.400597,F,,(920) 731-2222,Wisconsin,Little Caesars,2024-11-01
1679,890003,1022 S KOELLER,,OSHKOSH,WI,44.00946,-88.581001,F,,(920) 231-5858,Wisconsin,Little Caesars,2024-11-01
1682,890006,7 WEST SCOTT ST,,FOND DU LAC,WI,43.791142,-88.446999,F,,(920) 922-9222,Wisconsin,Little Caesars,2024-11-01
1683,890007,207 SHAWANO,,NEW LONDON,WI,44.39159,-88.745399,F,,(920) 982-3333,Wisconsin,Little Caesars,2024-11-01
1684,890008,133 W Main St,,Little Chute,WI,44.279396,-88.316846,F,,(920) 788-2788,Wisconsin,Little Caesars,2024-11-01
1685,34710001,3429 FREDERICA STREET,,OWENSBORO,KY,37.739632,-87.118202,F,,(270) 926-8822,Kentucky,Little Caesars,2024-11-01
1686,34710002,1650 STARLITE DR,STE M,OWENSBORO,KY,37.755217,-87.151808,F,,(270) 685-0022,Kentucky,Little Caesars,2024-11-01
1692,17600001,2916 FORT CAMPBELL BLVD UNIT A,,HOPKINSVILLE,KY,36.838598,-87.478641,F,,(270) 885-8722,Kentucky,Little Caesars,2024-11-01
1700,80101691,2237A N LEWIS,TIMBERLAKE SHOPPING CENTER,WAUKEGAN,IL,42.394149,-87.854115,C,,(847) 249-5533,Illinois,Little Caesars,2024-11-01
1710,18100005,897 NORTH VAN DYKE ROAD,SUITE J,BAD AXE,MI,43.818474,-83.0015,F,,(989) 269-9733,Michigan,Little Caesars,2024-11-01
1711,18100001,109 PARK DRIVE,,CARO,MI,43.482454,-83.40344,F,,(989) 673-4445,Michigan,Little Caesars,2024-11-01
1714,18100006,135 S HURON AVE,,HARBOR BEACH,MI,43.843835,-82.651614,F,,(989) 479-3222,Michigan,Little Caesars,2024-11-01
1716,18100003,4518 LEACH ST,,CASS CITY,MI,43.601318,-83.175697,F,,(989) 872-4884,Michigan,Little Caesars,2024-11-01
1720,13240001,2220 ASHMUN ST.,,SAULT SAINTE MARIE,MI,46.483459,-84.353798,F,,(906) 632-1790,Michigan,Little Caesars,2024-11-01
1722,37710002,301 W WASHINGTON STREET,,MARQUETTE,MI,46.543759,-87.40066,F,,(906) 225-1331,Michigan,Little Caesars,2024-11-01
1723,31490004,1425 S. STEPHENSON HWY,,IRON MOUNTAIN,MI,45.813019,-88.061203,F,,(906) 774-8200,Michigan,Little Caesars,2024-11-01
1725,31490003,521 N LAKE ST,,IRONWOOD,MI,46.463058,-90.157139,F,,(906) 932-0922,Michigan,Little Caesars,2024-11-01
1727,36410003,702 S MAIN,,CHEBOYGAN,MI,45.636749,-84.481697,F,,(231) 627-7195,Michigan,Little Caesars,2024-11-01
1728,37710001,101 WEST MONTEZUMA AVE,,HOUGHTON,MI,47.121028,-88.573577,F,,(906) 482-4444,Michigan,Little Caesars,2024-11-01
1732,13200001,915 LAKE SHORE DR W,,ASHLAND,WI,46.588055,-90.894573,F,,(715) 682-5511,Wisconsin,Little Caesars,2024-11-01
1750,16320639,804 W DR MARTIN LUTHER KING JR,PARSONS VILLAGE STATION,SEFFNER,FL,27.982169,-82.286962,F,,(813) 685-4330,Florida,Little Caesars,2024-11-01
1751,16320640,9854 US HIGHWAY 301 S,RIVER BAY PLAZA,RIVERVIEW,FL,27.856059,-82.326114,F,,(813) 677-4414,Florida,Little Caesars,2024-11-01
1758,17300004,11066 SPRING HILL DRIVE,,SPRING HILL,FL,28.460251,-82.541639,F,,(352) 683-1120,Florida,Little Caesars,2024-11-01
1759,18180010,6216 COMMERCIAL WAY,,WEEKI WACHEE,FL,28.52491,-82.569504,F,,(352) 597-2424,Florida,Little Caesars,2024-11-01
1770,16320642,5538 GALL BLVD,,ZEPHYRHILLS,FL,28.235571,-82.1831,F,,(813) 783-7720,Florida,Little Caesars,2024-11-01
1773,18180005,7072 SR 37 NORTH,,MULBERRY,FL,27.937831,-81.975782,F,,(863) 647-2556,Florida,Little Caesars,2024-11-01
1777,37050003,7743 W HILLSBOROUGH AVE,,TAMPA,FL,27.996891,-82.568338,F,,(813) 886-7955,Florida,Little Caesars,2024-11-01
1778,16320644,6932 N. ARMENIA AVENUE,ARMENIA SHOPPING CENTER,TAMPA,FL,28.010956,-82.484797,F,,(813) 935-3443,Florida,Little Caesars,2024-11-01
1780,16320645,7530 W WATERS,,TAMPA,FL,28.025162,-82.563406,F,,(813) 886-8612,Florida,Little Caesars,2024-11-01
1784,16320646,5366 EHRLICH RD,,TAMPA,FL,28.084455,-82.540073,F,,(813) 968-2558,Florida,Little Caesars,2024-11-01
1798,16320648,6960 PARK BLVD,PARK BOULEVARD COMMONS,PINELLAS PARK,FL,27.839021,-82.734802,F,,(727) 546-3800,Florida,Little Caesars,2024-11-01
1822,80101704,2070 INDIANAPOLIS BLVD.,,WHITING,IN,41.676041,-87.496399,C,,(219) 659-0452,Indiana,Little Caesars,2024-11-01
1823,80101705,6233 HOHMAN AVENUE,,HAMMOND,IN,41.60031,-87.521507,C,,(219) 933-0158,Indiana,Little Caesars,2024-11-01
1830,80101706,E 8360 109TH AVENUE,WINFIELD SQUARE EAST,CROWN POINT,IN,41.420368,-87.227402,C,,(219) 662-9645,Indiana,Little Caesars,2024-11-01
1831,80101709,83 W JOE ORR ROAD,OLYMPIA PLAZA,CHICAGO HEIGHTS,IL,41.52066,-87.639999,C,,(708) 755-0500,Illinois,Little Caesars,2024-11-01
1834,80101710,3325 CHICAGO ROAD,STEGER PLAZA,STEGER,IL,41.470501,-87.635902,C,,(708) 754-6601,Illinois,Little Caesars,2024-11-01
1846,10470004,3717 NAMEOKI RD,#HH,GRANITE CITY,IL,38.727982,-90.123299,F,,(618) 876-2111,Illinois,Little Caesars,2024-11-01
1847,11890004,305 E EDWARDSVILLE RD,,WOOD RIVER,IL,38.870576,-90.091566,F,,(618) 254-2888,Illinois,Little Caesars,2024-11-01
1851,1010001,1174 N. PLEASANTBURG DR.,,GREENVILLE,SC,34.872526,-82.358619,F,,(864) 244-4154,South Carolina,Little Caesars,2024-11-01
1853,1010003,5004 OLD SPARTANBURG RD.,,TAYLORS,SC,34.92733,-82.314003,F,,(864) 268-1232,South Carolina,Little Caesars,2024-11-01
1854,1010004,3024 WADE HAMPTON BLVD.,,TAYLORS,SC,34.906317,-82.329249,F,,(864) 292-3310,South Carolina,Little Caesars,2024-11-01
1855,1010005,6406 WHITE HORSE RD,,GREENVILLE,SC,34.865017,-82.462814,F,,(864) 294-1530,South Carolina,Little Caesars,2024-11-01
1856,1010006,5546 CALHOUN MEMORIAL HWY,,EASLEY,SC,34.826669,-82.56743,F,,(864) 855-3531,South Carolina,Little Caesars,2024-11-01
1857,1010007,242 A WEST WADE HAMPTON BLVD,,GREER,SC,34.949222,-82.23375,F,,(864) 879-1070,South Carolina,Little Caesars,2024-11-01
1859,1010009,641 SE MAIN ST,,SIMPSONVILLE,SC,34.723846,-82.251973,F,,(864) 963-2999,South Carolina,Little Caesars,2024-11-01
1860,1010010,2700 GENTRY MEMORIAL HWY,,PICKENS,SC,34.873434,-82.693917,F,,(864) 878-5083,South Carolina,Little Caesars,2024-11-01
1861,1010011,148 WALNUT LANE,,TRAVELERS REST,SC,34.973924,-82.427515,F,,(864) 834-0050,South Carolina,Little Caesars,2024-11-01
1863,1010013,1810 WOODRUFF RD,,GREENVILLE,SC,34.818343,-82.269418,F,,(864) 297-8333,South Carolina,Little Caesars,2024-11-01
1869,16320446,4719 WALMSLEY BLVD,,RICHMOND,VA,37.469208,-77.482971,F,,(804) 271-1622,Virginia,Little Caesars,2024-11-01
1870,16320447,321 NORTH ARCH RD.,,RICHMOND,VA,37.497268,-77.569354,F,,(804) 323-0000,Virginia,Little Caesars,2024-11-01
1873,16320448,5101 S LABURNUM AVE,,RICHMOND,VA,37.516812,-77.349373,F,,(804) 222-7707,Virginia,Little Caesars,2024-11-01
1876,16320449,2104 BOULEVARD,,COLONIAL HEIGHTS,VA,37.259248,-77.411773,F,,(804) 526-4711,Virginia,Little Caesars,2024-11-01
1877,16320450,3225 S CRATER RD,,PETERSBURG,VA,37.187989,-77.369888,F,,(804) 862-1882,Virginia,Little Caesars,2024-11-01
1878,16320451,3512 OAKLAWN BLVD,,HOPEWELL,VA,37.274953,-77.311914,F,,(804) 541-0000,Virginia,Little Caesars,2024-11-01
1879,16320452,13300 MIDLOTHIAN TURNPIKE,,MIDLOTHIAN,VA,37.502764,-77.644898,F,,(804) 379-1999,Virginia,Little Caesars,2024-11-01
1880,16320453,1547 N PARHAM RD,,HENRICO,VA,37.604665,-77.563031,F,,(804) 741-6333,Virginia,Little Caesars,2024-11-01
1884,16320454,10220 HULL STREET RD,,MIDLOTHIAN,VA,37.442535,-77.586047,F,,(804) 745-1600,Virginia,Little Caesars,2024-11-01
1892,16320455,11101 IRON BRIDGE RD,,CHESTER,VA,37.363433,-77.497409,F,,(804) 796-1487,Virginia,Little Caesars,2024-11-01
1896,16320456,13726 HULL STREET RD,,MIDLOTHIAN,VA,37.409801,-77.657091,F,,(804) 739-5943,Virginia,Little Caesars,2024-11-01
1898,16320649,1204 COUNTY ROAD #1,INDEPENDENCE SQUARE,DUNEDIN,FL,28.02001,-82.764122,F,,(727) 734-5467,Florida,Little Caesars,2024-11-01
1906,15530003,2708 N ROAN ST,,JOHNSON CITY,TN,36.354275,-82.3815,F,,(423) 282-1118,Tennessee,Little Caesars,2024-11-01
1907,15530004,1801 19 E BYPASS,,ELIZABETHTON,TN,36.331922,-82.203312,F,,(423) 542-5599,Tennessee,Little Caesars,2024-11-01
1908,15530005,800 STONEGATE RD.,,KINGSPORT,TN,36.556576,-82.578773,F,,(423) 246-1919,Tennessee,Little Caesars,2024-11-01
1909,15530006,509 N. STATE OF FRANKLIN,SUITE 2,JOHNSON CITY,TN,36.31152,-82.408401,F,,(423) 929-9155,Tennessee,Little Caesars,2024-11-01
1910,15530007,1649 E STONE DRIVE,,KINGSPORT,TN,36.546368,-82.51902,F,,(423) 246-8070,Tennessee,Little Caesars,2024-11-01
1911,15530008,1430 VOLUNTEER PKWY,STE 31,BRISTOL,TN,36.558397,-82.212773,F,,(423) 764-7171,Tennessee,Little Caesars,2024-11-01
1913,15530009,1920 SOUTH ROAN STREET,,JOHNSON CITY,TN,36.305067,-82.340839,F,,(423) 928-5666,Tennessee,Little Caesars,2024-11-01
1914,15530010,1315 EUCLID AVE,STE 28,BRISTOL,VA,36.603187,-82.195293,F,,(276) 466-4141,Virginia,Little Caesars,2024-11-01
1915,15530011,1440 EAST ANDREW JOHNSON HWY,,GREENEVILLE,TN,36.176295,-82.798003,F,,(423) 639-9292,Tennessee,Little Caesars,2024-11-01
1919,15530012,1203 1/2 N MAIN AVE,,ERWIN,TN,36.159013,-82.401306,F,,(423) 743-4111,Tennessee,Little Caesars,2024-11-01
1920,15530013,660 HWY 58,,NORTON,VA,36.941486,-82.60383,F,,(276) 679-5000,Virginia,Little Caesars,2024-11-01
1921,16180017,1129 N MAIN ST,SMYTH VALLEY CROSSING #1,MARION,VA,36.844966,-81.502022,F,,(276) 783-7277,Virginia,Little Caesars,2024-11-01
1924,37870009,3023 N STERLING AVENUE,,PEORIA,IL,40.7239,-89.632202,F,,(309) 688-0235,Illinois,Little Caesars,2024-11-01
1926,37870010,4325 SHERIDAN #4,SHERIDAN ROAD PLAZA,PEORIA,IL,40.740699,-89.603536,F,,(309) 685-0049,Illinois,Little Caesars,2024-11-01
1933,80101702,1006 N FARNSWORTH,FARNSWORTH PLAZA,AURORA,IL,41.779789,-88.281403,C,,(630) 820-8033,Illinois,Little Caesars,2024-11-01
1943,34090001,2801 S MAIN STREET,,ANDERSON,SC,34.47934,-82.648003,F,,(864) 224-5121,South Carolina,Little Caesars,2024-11-01
1944,16180102,310 W MAIN ST,STE A,WILLIAMSTON,SC,34.617105,-82.482895,F,,(864) 847-7397,South Carolina,Little Caesars,2024-11-01
1953,19470501,4201 CENTRAL NW,,ALBUQUERQUE,NM,35.085915,-106.68587,F,,(505) 836-1364,New Mexico,Little Caesars,2024-11-01
1965,32220015,2400 N GRIMES STE B12,HOBBS PLAZA,HOBBS,NM,32.725948,-103.144,F,,(575) 392-2121,New Mexico,Little Caesars,2024-11-01
1966,19470503,1699 RIO BRAVO BOULEVARD,,ALBUQUERQUE,NM,35.027088,-106.682,F,,(505) 873-1300,New Mexico,Little Caesars,2024-11-01
1968,32220016,2200 N. MAIN ST,,CLOVIS,NM,34.421467,-103.205928,F,,(575) 769-3532,New Mexico,Little Caesars,2024-11-01
1969,32220017,810 N CANAL,,CARLSBAD,NM,32.429352,-104.228674,F,,(575) 887-5651,New Mexico,Little Caesars,2024-11-01
1972,19470504,845 N RIVERSIDE DR,,ESPANOLA,NM,36.004929,-106.064,F,,(505) 753-2311,New Mexico,Little Caesars,2024-11-01
1977,32220018,1700 W MAIN ST SUITE 1,BLUE QUAIL SHOPPING CENTER,ARTESIA,NM,32.842258,-104.42,F,,(575) 746-6000,New Mexico,Little Caesars,2024-11-01
1981,18410301,10109 RUSHING,,EL PASO,TX,31.903024,-106.423956,F,,(915) 755-5681,Texas,Little Caesars,2024-11-01
1983,18410302,6310 N. MESA,,EL PASO,TX,31.832658,-106.534329,F,,(915) 581-4336,Texas,Little Caesars,2024-11-01
1984,18410303,1840 N LEE TREVINO DR,,EL PASO,TX,31.76609,-106.319,F,,(915) 594-4016,Texas,Little Caesars,2024-11-01
1985,18410304,9155 DYER,,EL PASO,TX,31.87089,-106.427,F,,(915) 751-8801,Texas,Little Caesars,2024-11-01
1986,18410305,8900 VISCOUNT BLVD,,EL PASO,TX,31.77446,-106.37,F,,(915) 594-4633,Texas,Little Caesars,2024-11-01
1987,18410306,427 YARBROUGH,,EL PASO,TX,31.730471,-106.345,F,,(915) 595-2891,Texas,Little Caesars,2024-11-01
1989,18410307,110 HORIZON BLVD,,EL PASO,TX,31.648991,-106.278,F,,(915) 860-2137,Texas,Little Caesars,2024-11-01
1990,18410308,5110 MONTANA,,EL PASO,TX,31.783461,-106.428,F,,(915) 779-8383,Texas,Little Caesars,2024-11-01
2010,1270003,1802 ARGILLITE RD.,,FLATWOODS,KY,38.522974,-82.716465,F,,(606) 836-5191,Kentucky,Little Caesars,2024-11-01
2011,1270005,6302 US ROUTE 60,,Barboursville,WV,38.414296,-82.305087,F,,(304) 736-0932,West Virginia,Little Caesars,2024-11-01
2012,1270006,2889 5TH AVE,,HUNTINGTON,WV,38.42688,-82.399101,F,,(304) 525-9038,West Virginia,Little Caesars,2024-11-01
2013,1270007,100 SEVENTH AVE,,HUNTINGTON,WV,38.414349,-82.4562,F,,(304) 529-0146,West Virginia,Little Caesars,2024-11-01
2014,1270008,219 S. 9th St.,,IRONTON,OH,38.537409,-82.678011,F,,(740) 532-0066,Ohio,Little Caesars,2024-11-01
2015,1290001,1712 W BRITTON RD,,THE VILLAGE,OK,35.565298,-97.546648,F,,(405) 755-4863,Oklahoma,Little Caesars,2024-11-01
2017,1290003,1720 SOUTH AIR DEPOT,,MIDWEST CITY,OK,35.447592,-97.405767,F,,(405) 736-6666,Oklahoma,Little Caesars,2024-11-01
2020,1290006,4463 NW 50TH,,OKLAHOMA CITY,OK,35.523351,-97.600775,F,,(405) 949-9700,Oklahoma,Little Caesars,2024-11-01
2023,1290009,1000 Alameda St Suite 102-B,,NORMAN,OK,35.217178,-97.423103,F,,(405) 364-0655,Oklahoma,Little Caesars,2024-11-01
2025,1290011,432 SW 59TH ST,,OKLAHOMA CITY,OK,35.40593,-97.519677,F,,(405) 631-1131,Oklahoma,Little Caesars,2024-11-01
2026,1290012,6919 NW 122ND,,OKLAHOMA CITY,OK,35.595093,-97.636665,F,,(405) 722-2828,Oklahoma,Little Caesars,2024-11-01
2029,1290015,4500 SE 29TH ST,,OKLAHOMA CITY,OK,35.434931,-97.437442,F,,(405) 672-1199,Oklahoma,Little Caesars,2024-11-01
2031,1290017,1540 SW 27TH ST,,EL RENO,OK,35.510201,-97.970928,F,,(405) 262-7200,Oklahoma,Little Caesars,2024-11-01
2032,1290018,1215 E. VANDAMENT,,YUKON,OK,35.494228,-97.729599,F,,(405) 354-2160,Oklahoma,Little Caesars,2024-11-01
2033,1290019,4701 S MAY,,OKLAHOMA CITY,OK,35.418569,-97.566005,F,,(405) 681-1133,Oklahoma,Little Caesars,2024-11-01
2036,1290022,2290 W MAIN ST,,NORMAN,OK,35.218137,-97.475526,F,,(405) 366-1212,Oklahoma,Little Caesars,2024-11-01
2037,37660001,6716 NW CACHE RD,,LAWTON,OK,34.622159,-98.475195,F,,(580) 536-1122,Oklahoma,Little Caesars,2024-11-01
2038,37660002,1414 NW SHERIDAN,,LAWTON,OK,34.624554,-98.422722,F,,(580) 357-0011,Oklahoma,Little Caesars,2024-11-01
2039,1290025,2400 N MAIN,,CHOCTAW,OK,35.493555,-97.270468,F,,(405) 390-2400,Oklahoma,Little Caesars,2024-11-01
2041,1290027,1725 W OWEN K GARRIOTT RD,,ENID,OK,36.390484,-97.900148,F,,(580) 237-3322,Oklahoma,Little Caesars,2024-11-01
2043,1290029,713 N PERKINS RD,,STILLWATER,OK,36.12984,-97.051005,F,,(405) 624-5400,Oklahoma,Little Caesars,2024-11-01
2044,1290030,3150 S HARRAH RD,,HARRAH,OK,35.432726,-97.158974,F,,(405) 391-3111,Oklahoma,Little Caesars,2024-11-01
2046,37660003,1150 N HIGHWAY 81,,DUNCAN,OK,34.508972,-97.966384,F,,(580) 255-8888,Oklahoma,Little Caesars,2024-11-01
2049,1290036,1323 BRYANT ST,,EDMOND,OK,35.668109,-97.460925,F,,(405) 348-3363,Oklahoma,Little Caesars,2024-11-01
2067,37660004,3145 5TH STREET,SUITE B,WICHITA FALLS,TX,33.908893,-98.531012,F,,(940) 766-1122,Texas,Little Caesars,2024-11-01
2079,1310001,1840 N SAGINAW ST,,MIDLAND,MI,43.642555,-84.248619,F,,(989) 832-7961,Michigan,Little Caesars,2024-11-01
2080,1310002,1114 S SAGINAW RD,,MIDLAND,MI,43.618404,-84.217545,F,,(989) 631-3273,Michigan,Little Caesars,2024-11-01
2081,1310003,1612 W WASHINGTON ST,,GREENVILLE,MI,43.177624,-85.278671,F,,(616) 754-7171,Michigan,Little Caesars,2024-11-01
2091,33300001,1753 N. MAIN STREET,,LONGMONT,CO,40.190429,-105.103384,F,,(303) 678-8088,Colorado,Little Caesars,2024-11-01
2097,17980001,1040 FERNWOOD GLENDALE ROAD,SUITE 66,SPARTANBURG,SC,34.967039,-81.891589,F,,(864) 585-1280,South Carolina,Little Caesars,2024-11-01
2099,17980002,1635 JOHN B WHITE SR BLVD,,SPARTANBURG,SC,34.92181,-81.985428,F,,(864) 576-7227,South Carolina,Little Caesars,2024-11-01
2100,17980003,1411 W FLOYD BAKER BLVD,,GAFFNEY,SC,35.082788,-81.65778,F,,(864) 487-2001,South Carolina,Little Caesars,2024-11-01
2101,17980004,408 N DUNCAN BYPASS,,UNION,SC,34.709473,-81.636742,F,,(864) 429-0542,South Carolina,Little Caesars,2024-11-01
2104,17980005,11090 ASHEVILLE HIGHWAY,,INMAN,SC,35.035728,-82.066902,F,,(864) 472-5755,South Carolina,Little Caesars,2024-11-01
2105,17980006,558 N MAIN ST,,WOODRUFF,SC,34.736881,-82.0354,F,,(864) 476-8989,South Carolina,Little Caesars,2024-11-01
2118,80035777,2200 S MOUNTAIN AVE,,ONTARIO,CA,34.033458,-117.669361,C,,(909) 988-4181,California,Little Caesars,2024-11-01
2119,80035888,4673 RIVERSIDE DRIVE,,CHINO,CA,34.018418,-117.702854,C,,(909) 548-4955,California,Little Caesars,2024-11-01
2120,80035889,602-B W. HOLT BOULEVARD,ONTARIO VILLAGE,ONTARIO,CA,34.064137,-117.658195,C,,(909) 986-8258,California,Little Caesars,2024-11-01
2122,19720001,"14676 PIPELINE AVENUE, SUITE L",,CHINO HILLS,CA,33.987584,-117.716421,F,,(909) 393-8088,California,Little Caesars,2024-11-01
2123,80035892,9799 BASELINE ROAD,,RANCHO CUCAMONGA,CA,34.12112,-117.591488,C,,(909) 201-1713,California,Little Caesars,2024-11-01
2124,80035893,3045-C S. ARCHIBALD AVENUE,ARCHIBALD RANCH TOWN CENTER,ONTARIO,CA,34.018355,-117.591262,C,,(909) 923-3227,California,Little Caesars,2024-11-01
2156,12320001,1133 N H ST,,LOMPOC,CA,34.656238,-120.458361,F,,(805) 735-7782,California,Little Caesars,2024-11-01
2158,12320002,21 N. MILPAS STREET,,SANTA BARBARA,CA,34.421832,-119.679684,F,,(805) 962-1966,California,Little Caesars,2024-11-01
2159,12320003,610 E. MAIN STREET,,SANTA MARIA,CA,34.95294,-120.428065,F,,(805) 928-3733,California,Little Caesars,2024-11-01
2194,1640002,2802 THOUSAND OAKS RD,,SAN ANTONIO,TX,29.57926,-98.443398,F,,(210) 496-2123,Texas,Little Caesars,2024-11-01
2195,1640003,11541 WEST AVENUE,,SAN ANTONIO,TX,29.546004,-98.510958,F,,(210) 525-9141,Texas,Little Caesars,2024-11-01
2196,1640004,5580 WALZEM RD,,SAN ANTONIO,TX,29.509913,-98.377664,F,,(210) 646-6711,Texas,Little Caesars,2024-11-01
2198,1640006,4431 BLANCO,,SAN ANTONIO,TX,29.48822,-98.507599,F,,(210) 734-7131,Texas,Little Caesars,2024-11-01
2200,1640008,902 KITTY HAWK,,UNIVERSAL CITY,TX,29.547359,-98.313476,F,,(210) 566-0346,Texas,Little Caesars,2024-11-01
2201,1640009,1603 BANDERA ROAD,,SAN ANTONIO,TX,29.468769,-98.569801,F,Little Caesars Pizza,(210) 431 - 2517,Texas,Little Caesars,2024-11-01
2202,1640010,10918 WURZBACH RD,,SAN ANTONIO,TX,29.54031,-98.551697,F,,(210) 690-6285,Texas,Little Caesars,2024-11-01
2204,1640012,8102 TEZEL RD,,SAN ANTONIO,TX,29.516555,-98.662115,F,,(210) 521-7873,Texas,Little Caesars,2024-11-01
2205,1640013,9257 CULEBRA,SUITE 104,SAN ANTONIO,TX,29.483154,-98.666619,F,,(210) 521-7867,Texas,Little Caesars,2024-11-01
2206,1640014,8733 MARBACH RD.,SUITE 101,SAN ANTONIO,TX,29.41825,-98.657275,F,,(210) 674-3219,Texas,Little Caesars,2024-11-01
2211,1640019,917 SOUTH W. W. WHITE ROAD,,SAN ANTONIO,TX,29.416123,-98.406047,F,,(210) 333-2033,Texas,Little Caesars,2024-11-01
2212,1640020,3514 S NEW BRAUNFELS AVE,,SAN ANTONIO,TX,29.383338,-98.460838,F,,(210) 534-4718,Texas,Little Caesars,2024-11-01
2213,1640021,6020 OLD PEARSALL RD,,SAN ANTONIO,TX,29.3465,-98.61313,F,,(210) 623-5941,Texas,Little Caesars,2024-11-01
2214,1640022,438 SW MILITARY DRIVE,,SAN ANTONIO,TX,29.356334,-98.49878,F,,(210) 921-0981,Texas,Little Caesars,2024-11-01
2216,1640024,1401 E AMARILLO BLVD,SUITE 100,AMARILLO,TX,35.221939,-101.817,F,,(806) 373-4507,Texas,Little Caesars,2024-11-01
2218,1640026,512 W. STASSNEY,,AUSTIN,TX,30.20767,-97.779602,F,,(512) 448-0355,Texas,Little Caesars,2024-11-01
2227,1640035,3130 SE MILITARY DRIVE,SUITE 103,SAN ANTONIO,TX,29.351601,-98.43673,F,,(210) 359-9760,Texas,Little Caesars,2024-11-01
2228,1640036,5869 BABCOCK,,SAN ANTONIO,TX,29.526159,-98.600899,F,,(210) 691-8941,Texas,Little Caesars,2024-11-01
2230,1640038,4410 E RIVERSIDE DR,SUITE 170,AUSTIN,TX,30.23381,-97.722198,F,,(512) 389-3636,Texas,Little Caesars,2024-11-01
2231,1640039,2002 FREDERICKSBURG RD,,SAN ANTONIO,TX,29.464029,-98.525299,F,,(210) 736-5352,Texas,Little Caesars,2024-11-01
2232,1640040,1015 S GENERAL MCMULLEN DR,,SAN ANTONIO,TX,29.415279,-98.556,F,,(210) 433-2603,Texas,Little Caesars,2024-11-01
2236,1640044,7470 MILITARY DR W,,SAN ANTONIO,TX,29.416998,-98.629337,F,,(210) 674-6806,Texas,Little Caesars,2024-11-01
2237,1640045,4319 CALLAGHAN RD,,SAN ANTONIO,TX,29.467161,-98.602779,F,,(210) 521-3331,Texas,Little Caesars,2024-11-01
2241,1640049,3821 ROY RICHARD DR,,SCHERTZ,TX,29.586907,-98.268279,F,,(210) 659-3350,Texas,Little Caesars,2024-11-01
2250,16180001,4758 S AMHERST HWY,,MADISON HEIGHTS,VA,37.442805,-79.120418,F,,(434) 845-8845,Virginia,Little Caesars,2024-11-01
2255,16180003,1081 E STUART DR,,GALAX,VA,36.685159,-80.885951,F,,(276) 236-5155,Virginia,Little Caesars,2024-11-01
2259,16180005,1576 N FRANKLIN STREET,,CHRISTIANSBURG,VA,37.150791,-80.416777,F,,(540) 382-3733,Virginia,Little Caesars,2024-11-01
2262,16180007,1006 E MAIN ST,,PULASKI,VA,37.048226,-80.763372,F,,(540) 980-0500,Virginia,Little Caesars,2024-11-01
2263,16180008,380 COMMONWEALTH DR,,WYTHEVILLE,VA,36.958006,-81.100588,F,,(276) 228-8899,Virginia,Little Caesars,2024-11-01
2265,38500003,1449 SOUTH MAIN STREET,SOUTHWYCK PLAZA STE 124,DANVILLE,VA,36.552911,-79.400401,F,,(434) 792-5555,Virginia,Little Caesars,2024-11-01
2267,16180010,3460 VIRGINIA AVE,,COLLINSVILLE,VA,36.726996,-79.917149,F,,(276) 647-8811,Virginia,Little Caesars,2024-11-01
2269,16180011,7414 LEE HWY,,FAIRLAWN,VA,37.143867,-80.582341,F,,(540) 633-1111,Virginia,Little Caesars,2024-11-01
2271,16180012,2827 CANDLERS MOUNTAIN RD,,LYNCHBURG,VA,37.36926,-79.180583,F,,(434) 237-2222,Virginia,Little Caesars,2024-11-01
2274,16180014,952 TANYARD RD,,ROCKY MOUNT,VA,37.007097,-79.873878,F,,(540) 489-8888,Virginia,Little Caesars,2024-11-01
2275,16180015,301 S MAIN ST.,SUITE F,STUART,VA,36.633637,-80.268693,F,,(276) 694-2222,Virginia,Little Caesars,2024-11-01
2280,11470001,4376 THORNTON,,FREMONT,CA,37.556641,-122.014,F,,(510) 797-0770,California,Little Caesars,2024-11-01
2282,11470003,39490 FREMONT BLVD,,FREMONT,CA,37.544689,-121.98,F,,(510) 745-8900,California,Little Caesars,2024-11-01
2286,38040015,709 N MAIN,,NORTH SYRACUSE,NY,43.144453,-76.12834,F,,(315) 458-4549,New York,Little Caesars,2024-11-01
2287,38040016,7871 OSWEGO RD.,,LIVERPOOL,NY,43.15388,-76.22858,F,,(315) 652-1331,New York,Little Caesars,2024-11-01
2290,38040017,4018 S SALINA STREET,,SYRACUSE,NY,43.009025,-76.142784,F,,(315) 492-2244,New York,Little Caesars,2024-11-01
2296,36470021,506 LENOX AVE,UNIT #2,ONEIDA,NY,43.090809,-75.661413,F,,(315) 363-9383,New York,Little Caesars,2024-11-01
2297,38040018,61 NORTH STREET,,AUBURN,NY,42.934037,-76.566553,F,,(315) 252-6300,New York,Little Caesars,2024-11-01
2299,38040019,5501 BARTELL RD,,BREWERTON,NY,43.233441,-76.138012,F,,(315) 676-4545,New York,Little Caesars,2024-11-01
2300,38040020,137 STATE ROUTE 104,UNIT 2,OSWEGO,NY,43.462378,-76.486249,F,,(315) 343-9200,New York,Little Caesars,2024-11-01
2327,38250001,1020 EAST BEARDS HILL ROAD,ABERDEEN MARKETPLACE,ABERDEEN,MD,39.520496,-76.185524,F,,(410) 273-6800,Maryland,Little Caesars,2024-11-01
2332,35590001,707 GEORGES RD,,NORTH BRUNSWICK,NJ,40.467468,-74.453817,F,,(732) 247-4400,New Jersey,Little Caesars,2024-11-01
2340,33090005,2100 STANDIFORD,STE A1,MODESTO,CA,37.691269,-121.034,F,,(209) 521-2311,California,Little Caesars,2024-11-01
2341,13850001,353 W LOUISE AVE,,MANTECA,CA,37.812141,-121.218,F,,(209) 239-0808,California,Little Caesars,2024-11-01
2342,1910003,63 E 16TH ST,,MERCED,CA,37.296398,-120.472,F,,(209) 723-9599,California,Little Caesars,2024-11-01
2343,18760006,300 BELLEVUE RD,,ATWATER,CA,37.36022,-120.596698,F,,(209) 357-8505,California,Little Caesars,2024-11-01
2345,1910006,3250 G ST STE B,,MERCED,CA,37.320869,-120.468,F,,(209) 384-3054,California,Little Caesars,2024-11-01
2346,1910007,2909 WHITMORE AVE,,CERES,CA,37.595083,-120.939984,F,,(209) 537-2978,California,Little Caesars,2024-11-01
2348,33160006,2193 ROOSEVELT CENTER,,REDWOOD CITY,CA,37.465924,-122.241589,F,,(650) 365-4600,California,Little Caesars,2024-11-01
2350,33160005,660 MAGNOLIA,,MILLBRAE,CA,37.603304,-122.395699,F,,(650) 692-7200,California,Little Caesars,2024-11-01
2369,35830013,1675 JOHN F KENNEDY RD,,DUBUQUE,IA,42.500191,-90.721497,F,,(563) 588-2118,Iowa,Little Caesars,2024-11-01
2371,12750001,2501 CHURCH STREET,,STEVENS POINT,WI,44.51165,-89.572098,F,,(715) 345-2333,Wisconsin,Little Caesars,2024-11-01
2372,37690001,408 N CENTRAL,,MARSHFIELD,WI,44.670719,-90.170799,F,,(715) 387-6200,Wisconsin,Little Caesars,2024-11-01
2373,20970002,1819 STEWART AVE,,WAUSAU,WI,44.958573,-89.659042,F,,(715) 845-6699,Wisconsin,Little Caesars,2024-11-01
2374,20970003,1699 SCHOFIELD AVE,,SCHOFIELD,WI,44.909438,-89.602885,F,,(715) 359-6222,Wisconsin,Little Caesars,2024-11-01
2380,2000002,6655 178TH STREET,,EDMONTON,AB,53.501016,-113.630702,F,Little Caesars Pizza,(780) 481 - 0900,,Little Caesars,2024-11-01
2383,48040001,2 HEBERT RD,UNIT 222,ST ALBERT,AB,53.621567,-113.608314,F,Little Caesars Pizza,(780) 459 - 0600,,Little Caesars,2024-11-01
2386,2000008,101 GRANADA BLVD,UNIT 309,SHERWOOD PARK,AB,53.528617,-113.290733,F,Little Caesars Pizza,(780) 467 - 0500,,Little Caesars,2024-11-01
2389,51060001,40 98 MCLEOD AVENUE,,SPRUCE GROVE,AB,53.542292,-113.910835,F,Little Caesars Pizza,(780) 962 - 2211,,Little Caesars,2024-11-01
2392,2000017,10903 23RD AVENUE N.W.,,EDMONTON,AB,53.453802,-113.509333,F,Little Caesars Pizza,(780) 408 - 0900,,Little Caesars,2024-11-01
2393,2000018,15045 STONY PLAIN RD,,EDMONTON,AB,53.541272,-113.580934,F,Little Caesars Pizza,(780) 487 - 0900,,Little Caesars,2024-11-01
2419,35300001,1202 S JAMES CAMPBELL BLVD,CAMPBELL PLAZA SHOPPING CENTER,COLUMBIA,TN,35.603214,-87.064552,F,,(931) 381-3286,Tennessee,Little Caesars,2024-11-01
2422,2130001,465 PHILLIPS ST,,WATERLOO,ON,43.484271,-80.540247,F,Little Caesars Pizza,(519) 746 - 6893,,Little Caesars,2024-11-01
2424,2130003,525 HIGHLAND RD W,,KITCHENER,ON,43.435284,-80.515976,F,Little Caesars Pizza,(519) 741 - 1251,,Little Caesars,2024-11-01
2426,2130101,210 LORRAINE AVE,,KITCHENER,ON,43.460714,-80.440143,F,Little Caesars Pizza,(519) 741 - 5823,,Little Caesars,2024-11-01
2427,2130201,270 BLEAMS RD,,KITCHENER,ON,43.410498,-80.459619,F,Little Caesars Pizza,(519) 895 - 1761,,Little Caesars,2024-11-01
2430,2130102,373 BRIDGE ST,,WATERLOO,ON,43.495668,-80.50081,F,Little Caesars Pizza,(519) 746 - 6663,,Little Caesars,2024-11-01
2431,2160001,467 W SANILAC,,SANDUSKY,MI,43.421211,-82.833504,F,,(810) 648-4066,Michigan,Little Caesars,2024-11-01
2433,2160003,3345 S. MAIN,,MARLETTE,MI,43.321391,-83.07937,F,,(989) 635-7502,Michigan,Little Caesars,2024-11-01
2496,31920013,1809 WEST LOOP 281,,LONGVIEW,TX,32.525722,-94.785118,F,,(903) 295-0111,Texas,Little Caesars,2024-11-01
2497,13470001,2897 W 26TH ST,,ERIE,PA,42.087929,-80.137604,F,,(814) 838-2790,Pennsylvania,Little Caesars,2024-11-01
2498,13470002,725 W 38TH ST,,ERIE,PA,42.095588,-80.083468,F,,(814) 868-8611,Pennsylvania,Little Caesars,2024-11-01
2499,13470016,1025 PARADE ST,,ERIE,PA,42.128269,-80.073997,F,,(814) 454-1115,Pennsylvania,Little Caesars,2024-11-01
2500,13470003,4490 BUFFALO RD,,ERIE,PA,42.146339,-80.003502,F,,(814) 899-6660,Pennsylvania,Little Caesars,2024-11-01
2501,13470004,1904 W 8TH ST,,ERIE,PA,42.111832,-80.126297,F,,(814) 455-9001,Pennsylvania,Little Caesars,2024-11-01
2502,13470005,109 W MAIN ST,,NORTH EAST,PA,42.21384,-79.841301,F,,(814) 725-8515,Pennsylvania,Little Caesars,2024-11-01
2504,2330008,801 PARK AVE,,MEADVILLE,PA,41.641294,-80.151207,F,,(814) 724-2111,Pennsylvania,Little Caesars,2024-11-01
2505,13470007,1332 E GRANDVIEW,,ERIE,PA,42.107126,-80.033075,F,,(814) 825-9434,Pennsylvania,Little Caesars,2024-11-01
2508,2330013,117 W SMITH,,CORRY,PA,41.925259,-79.644897,F,,(814) 664-8005,Pennsylvania,Little Caesars,2024-11-01
2509,12380001,410 E CENTRAL ST,,TITUSVILLE,PA,41.627787,-79.666832,F,,(814) 827-2112,Pennsylvania,Little Caesars,2024-11-01
2516,16180028,5636 RITCHIE HWY,RITCHIE HIGHWAY SHOPPING CTR,BALTIMORE,MD,39.218273,-76.614716,F,,(410) 789-7272,Maryland,Little Caesars,2024-11-01
2518,16180029,8095-F EDWIN RAYNOR BOULEVARD,CHESTERFIELD PLAZA,PASADENA,MD,39.125294,-76.530914,F,,(410) 360-9500,Maryland,Little Caesars,2024-11-01
2522,36590002,1127 ANNAPOLIS ROAD,ODENTON SHOPPING CENTER,ODENTON,MD,39.081181,-76.691803,F,,(410) 674-4500,Maryland,Little Caesars,2024-11-01
2528,36590003,6313 YORK ROAD #313,ANNESLIE SHOPPING CENTER,BALTIMORE,MD,39.371773,-76.60981,F,,(410) 296-9100,Maryland,Little Caesars,2024-11-01
2535,2380001,1175 S PRAIRIE AVE,,PUEBLO,CO,38.246201,-104.643,F,,(719) 564-9611,Colorado,Little Caesars,2024-11-01
2536,2380002,1230 BONFORTE BLVD,,PUEBLO,CO,38.28907,-104.595,F,,(719) 544-4500,Colorado,Little Caesars,2024-11-01
2538,2380004,1203 S MAIN ST,,LAMAR,CO,38.07782,-102.618,F,,(719) 336-8777,Colorado,Little Caesars,2024-11-01
2554,2420001,710 GRAND CENTRAL AVE,,VIENNA,WV,39.30558,-81.550903,F,,(304) 295-3391,West Virginia,Little Caesars,2024-11-01
2555,2420002,928 DIVISION B,,PARKERSBURG,WV,39.249619,-81.556558,F,,(304) 485-2311,West Virginia,Little Caesars,2024-11-01
2556,2420003,134 EMILY DRIVE,,CLARKSBURG,WV,39.277482,-80.279889,F,,(304) 622-4444,West Virginia,Little Caesars,2024-11-01
2558,2420005,446 PIKE ST,,MARIETTA,OH,39.410839,-81.431396,F,,(740) 374-8151,Ohio,Little Caesars,2024-11-01
2560,2420007,1200 FAIRMONT AVE,,FAIRMONT,WV,39.468861,-80.1558,F,,(304) 366-3366,West Virginia,Little Caesars,2024-11-01
2582,4790031,2227 S CARAWAY,,JONESBORO,AR,35.81855,-90.678442,F,,(870) 932-2227,Arkansas,Little Caesars,2024-11-01
2583,4790032,105 DOVER RD,,WEST MEMPHIS,AR,35.161887,-90.185702,F,,(870) 735-1234,Arkansas,Little Caesars,2024-11-01
2585,36140001,5113 N US HIGHWAY 23,,OSCODA,MI,44.45359,-83.329498,F,,(989) 739-1487,Michigan,Little Caesars,2024-11-01
2595,18410701,1001 S 10TH STREET,,MCALLEN,TX,26.193577,-98.230751,F,,(956) 686-6262,Texas,Little Caesars,2024-11-01
2596,18410702,1410 S CLOSNER BLVD,,EDINBURG,TX,26.288231,-98.164299,F,,(956) 381-9797,Texas,Little Caesars,2024-11-01
2597,18410703,209 HIGHWAY 83 W,,WESLACO,TX,26.159494,-97.992327,F,,(956) 968-3333,Texas,Little Caesars,2024-11-01
2598,18410704,810 MORGAN BOULEVARD,,HARLINGEN,TX,26.19986,-97.678001,F,,(956) 428-4545,Texas,Little Caesars,2024-11-01
2599,18410705,2905 SOUTHMOST RD,,BROWNSVILLE,TX,25.906796,-97.463784,F,,(956) 546-6767,Texas,Little Caesars,2024-11-01
2601,18410706,425 SECOND STREET,,MERCEDES,TX,26.149731,-97.906403,F,,(956) 565-0222,Texas,Little Caesars,2024-11-01
2602,18410707,1304 US HIGHWAY 83 BUSINESS,,PHARR,TX,26.191581,-98.167994,F,,(956) 781-7474,Texas,Little Caesars,2024-11-01
2603,18410708,1310 SANTA ROSA AVE,,EDCOUCH,TX,26.29343,-97.964699,F,,(956) 262-1331,Texas,Little Caesars,2024-11-01
2605,18410709,1001 FRONTAGE RD,,ALAMO,TX,26.19067,-98.121597,F,,(956) 787-4242,Texas,Little Caesars,2024-11-01
2606,18410710,190 E US HIGHWAY 77,,SAN BENITO,TX,26.138519,-97.626701,F,,(956) 399-3400,Texas,Little Caesars,2024-11-01
2607,18410711,1618 NORTH 23RD STREET,,MCALLEN,TX,26.219311,-98.242599,F,,(956) 686-7272,Texas,Little Caesars,2024-11-01
2608,18410712,1520 W HARRISON AVE,,HARLINGEN,TX,26.18477,-97.714914,F,,(956) 421-2121,Texas,Little Caesars,2024-11-01
2617,16180037,12735 JEFFERSON AVE,,NEWPORT NEWS,VA,37.135151,-76.518097,F,,(757) 874-1324,Virginia,Little Caesars,2024-11-01
2620,51190001,328 SPEEDVALE AVE. E.,,GUELPH,ON,43.566252,-80.257596,F,Little Caesars Pizza,(519) 763 - 8811,,Little Caesars,2024-11-01
2621,51520001,130 SILVERCREEK PKWY.N.,UNIT 17,GUELPH,ON,43.539912,-80.280349,F,Little Caesars Pizza,(519) 763 - 9779,,Little Caesars,2024-11-01
2676,2700001,1944 12TH AVE NE,,HICKORY,NC,35.742622,-81.299274,F,,(828) 468-8812,North Carolina,Little Caesars,2024-11-01
2677,2700002,509 W C ST,,NEWTON,NC,35.659088,-81.229396,F,,(828) 468-8812,North Carolina,Little Caesars,2024-11-01
2678,2700003,204 W FLEMING,,MORGANTON,NC,35.736431,-81.680099,F,,(828) 468-8812,North Carolina,Little Caesars,2024-11-01
2679,2700007,1368 US HIGHWAY 321 NW,,HICKORY,NC,35.752783,-81.370524,F,,(828) 468-8812,North Carolina,Little Caesars,2024-11-01
2684,36440002,113 US RT 4 EAST,,RUTLAND,VT,43.62183,-72.954144,F,,(802) 773-3434,Vermont,Little Caesars,2024-11-01
2695,34600008,1916 BROOKS AVE,,MISSOULA,MT,46.853031,-114.011,F,,(406) 549-9992,Montana,Little Caesars,2024-11-01
2707,13320001,974 BROOKWAY BLVD,,BROOKHAVEN,MS,31.57881,-90.461899,F,,(601) 833-9746,Mississippi,Little Caesars,2024-11-01
2724,35770001,1601 MT RUSHMORE BLVD,,RAPID CITY,SD,44.069149,-103.232,F,,(605) 341-0808,South Dakota,Little Caesars,2024-11-01
2725,35770002,2120 W MAIN,,RAPID CITY,SD,44.08144,-103.253,F,,(605) 342-2120,South Dakota,Little Caesars,2024-11-01
2726,17350001,1540 OHIO AVE S,,LIVE OAK,FL,30.281191,-82.987999,F,,(386) 364-5100,Florida,Little Caesars,2024-11-01
2729,12730001,2075 E 17TH ST,,IDAHO FALLS,ID,43.482746,-111.99152,F,,(208) 525-2646,Idaho,Little Caesars,2024-11-01
2731,12730004,201 11TH AVENUE NORTH,,NAMPA,ID,43.582491,-116.557678,F,,(208) 461-2746,Idaho,Little Caesars,2024-11-01
2732,12440001,820 BLUE LAKES BLVD N,,TWIN FALLS,ID,42.576347,-114.459417,F,,(208) 733-7756,Idaho,Little Caesars,2024-11-01
2734,12730005,1355 PARKWAY DR,RIVERSIDE PLAZA SPACE #11,BLACKFOOT,ID,43.194358,-112.361948,F,,(208) 785-0040,Idaho,Little Caesars,2024-11-01
2736,12730003,633 N. OVERLAND,,BURLEY,ID,42.563095,-113.789502,F,,(208) 678-1223,Idaho,Little Caesars,2024-11-01
2737,2860001,4600 CAMP ROBINSON RD,,N LITTLE ROCK,AR,34.796619,-92.270077,F,,(501) 758-1555,Arkansas,Little Caesars,2024-11-01
2738,2860002,7127 JFK BLVD,,NORTH LITTLE ROCK,AR,34.820054,-92.233651,F,,(501) 834-8300,Arkansas,Little Caesars,2024-11-01
2739,2860003,8500 GEYER SPRINGS RD,,LITTLE ROCK,AR,34.672479,-92.344617,F,,(501) 565-4444,Arkansas,Little Caesars,2024-11-01
2740,2860004,1317 TP WHITE DRIVE,,JACKSONVILLE,AR,34.880711,-92.110901,F,,(501) 985-1115,Arkansas,Little Caesars,2024-11-01
2742,2860006,812 MILITARY PARKWAY,,BENTON,AR,34.570874,-92.584135,F,,(501) 776-2434,Arkansas,Little Caesars,2024-11-01
2745,2860009,2670 PRINCE ST,SUITE 1,CONWAY,AR,35.092809,-92.467216,F,,(501) 329-7300,Arkansas,Little Caesars,2024-11-01
2746,2860010,2300 W 28TH ST,,PINE BLUFF,AR,34.201831,-92.025986,F,,(870) 535-5700,Arkansas,Little Caesars,2024-11-01
2747,2860011,2412 RACE ST,,SEARCY,AR,35.251186,-91.707988,F,,(501) 279-2400,Arkansas,Little Caesars,2024-11-01
2749,2860014,303 S SECOND ST,,CABOT,AR,34.975689,-92.024562,F,,(501) 843-8585,Arkansas,Little Caesars,2024-11-01
2751,2860017,15410 ARCH ST STE A,,LITTLE ROCK,AR,34.612307,-92.318892,F,,(501) 888-8383,Arkansas,Little Caesars,2024-11-01
2752,2860018,7410 CANTRELL RD,,LITTLE ROCK,AR,34.771396,-92.356311,F,,(501) 663-8000,Arkansas,Little Caesars,2024-11-01
2753,2860019,901 N ARKANSAS AVE,,RUSSELLVILLE,AR,35.286942,-93.133945,F,,(479) 967-7800,Arkansas,Little Caesars,2024-11-01
2754,2860020,2202 N REYNOLDS RD,,BRYANT,AR,34.614855,-92.497925,F,,(501) 847-8400,Arkansas,Little Caesars,2024-11-01
2757,8140201,531 N BAYFIELD ST,,BARRIE,ON,44.415328,-79.712783,F,Little Caesars Pizza,(705) 728 - 5055,,Little Caesars,2024-11-01
2762,35620001,69030 RAMON ROAD,,CATHEDRAL CITY,CA,33.816163,-116.457624,F,,(760) 507-8170,California,Little Caesars,2024-11-01
2763,80035855,1336 E. FLORIDA AVENUE,RAMONA PLAZA,HEMET,CA,33.749001,-116.958196,C,,(951) 766-8117,California,Little Caesars,2024-11-01
2764,35620002,57554 29 PALMS HWY,JOSHUA VILLAGE SHOPPING CENTER,YUCCA VALLEY,CA,34.126418,-116.409108,F,,(760) 228-2554,California,Little Caesars,2024-11-01
2766,36560001,29700 RANCHO CALIFORNIA,RANCHO CROSSROADS PLAZA,TEMECULA,CA,33.506462,-117.14513,F,,(951) 587-3873,California,Little Caesars,2024-11-01
2770,36560002,40525 CALIFORNIA OAKS RD. #E-9,,MURRIETA,CA,33.575408,-117.202154,F,,(951) 677-2838,California,Little Caesars,2024-11-01
2772,35620009,6432 ADOBE ROAD,,TWENTYNINE PALMS,CA,34.136967,-116.05447,F,,(760) 361-0020,California,Little Caesars,2024-11-01
2773,80035713,42065 WASHINGTON STREET,,PALM DESERT,CA,33.743252,-116.303,C,,(760) 360-8020,California,Little Caesars,2024-11-01
2775,2920001,3400 PANAMA LANE,SUITE P,BAKERSFIELD,CA,35.296531,-119.039894,F,,(661) 836-1111,California,Little Caesars,2024-11-01
2776,2920002,6019 E NILES ST,,BAKERSFIELD,CA,35.374783,-118.937028,F,,(661) 366-3333,California,Little Caesars,2024-11-01
2777,2920003,700 AIRPORT DR.,,BAKERSFIELD,CA,35.412657,-119.038572,F,,(661) 399-4444,California,Little Caesars,2024-11-01
2778,2920004,2515 S H ST,,BAKERSFIELD,CA,35.331441,-119.022738,F,,(661) 397-5555,California,Little Caesars,2024-11-01
2779,2920005,921 CECIL AVE,,DELANO,CA,35.77623,-119.245831,F,,(661) 721-1111,California,Little Caesars,2024-11-01
2780,2920006,5620 EAST CALIFORNIA AVE,,BAKERSFIELD,CA,35.355759,-119.061,F,,(661) 324-8888,California,Little Caesars,2024-11-01
2781,2920007,8040 WHITE LANE,,BAKERSFIELD,CA,35.320342,-119.091429,F,,(661) 834-2222,California,Little Caesars,2024-11-01
2782,2920008,2665 CALLOWAY DR,ROSEDALE HWY,BAKERSFIELD,CA,35.384661,-119.110246,F,,(661) 588-1111,California,Little Caesars,2024-11-01
2783,34480001,906 N CHINA LAKE BLVD,,RIDGECREST,CA,35.63744,-117.66917,F,,(760) 446-1051,California,Little Caesars,2024-11-01
2784,2920010,1009 COLUMBUS AVE,,BAKERSFIELD,CA,35.396805,-118.98426,F,,(661) 873-9999,California,Little Caesars,2024-11-01
2785,2920011,10504 MAIN ST,CHIPRES PLAZA,LAMONT,CA,35.259108,-118.914649,F,,(661) 845-2222,California,Little Caesars,2024-11-01
2798,31540008,2645 LEMON GROVE AVENUE,,LEMON GROVE,CA,32.733971,-117.03114,F,,(619) 466-6999,California,Little Caesars,2024-11-01
2801,14730001,2810 EL CAJON BLVD,,SAN DIEGO,CA,32.755531,-117.13052,F,,(619) 284-6600,California,Little Caesars,2024-11-01
2802,80270506,1730 ALPINE BLVD,SUITE 204,ALPINE,CA,32.837974,-116.777169,C,,(619) 576-1579,California,Little Caesars,2024-11-01
2805,80275802,539 SWEETWATER RD,,SPRING VALLEY,CA,32.707436,-117.008935,C,,(619) 613-5392,California,Little Caesars,2024-11-01
2814,80270502,642 PALOMAR ST SUITE 408,,CHULA VISTA,CA,32.603759,-117.082314,C,,(619) 576-1094,California,Little Caesars,2024-11-01
2819,33350010,1500 E COURT STREET,#126,SEGUIN,TX,29.569269,-97.948097,F,,(830) 379-0191,Texas,Little Caesars,2024-11-01
2822,2980006,2501 TEXAS AVE SOUTH,SUITE 101,COLLEGE STATION,TX,30.607848,-96.307996,F,,(979) 696-0191,Texas,Little Caesars,2024-11-01
2837,80023196,1615 WEST CAMELBACK ROAD,,PHOENIX,AZ,33.508561,-112.094321,C,,(602) 631-9449,Arizona,Little Caesars,2024-11-01
2848,3020002,16816 E MAIN ST,,HESPERIA,CA,34.42134,-117.296179,F,,(760) 244-9771,California,Little Caesars,2024-11-01
2849,3020003,20920 BEAR VALLEY RD,STE A,APPLE VALLEY,CA,34.471937,-117.207124,F,,(760) 247-0100,California,Little Caesars,2024-11-01
2850,3020004,20152 OUTER HIGHWAY 18,,APPLE VALLEY,CA,34.529602,-117.224848,F,,(760) 946-2011,California,Little Caesars,2024-11-01
2851,3020005,16061 BEAR VALLEY ROAD,,HESPERIA,CA,34.469875,-117.313184,F,,(760) 948-4454,California,Little Caesars,2024-11-01
2852,5610019,4083-B PHELAN RD,,PHELAN,CA,34.425132,-117.573021,F,,(760) 868-4595,California,Little Caesars,2024-11-01
2853,5610020,13738 BEAR VALLEY RD,,VICTORVILLE,CA,34.471674,-117.363473,F,,(760) 241-5223,California,Little Caesars,2024-11-01
2858,3040001,1221 E FRONT ST,,TRAVERSE CITY,MI,44.764767,-85.591737,F,,(231) 938-1800,Michigan,Little Caesars,2024-11-01
2860,3040003,104 NORTHLAND PLAZA RDPLAZA,STE A,KALKASKA,MI,44.744404,-85.175428,F,,(231) 258-4404,Michigan,Little Caesars,2024-11-01
2866,11840001,2315 N BRYANT BLVD,,SAN ANGELO,TX,31.480567,-100.457722,F,,(325) 658-5808,Texas,Little Caesars,2024-11-01
2887,16320353,115 ALTAMA CONNECTOR,,BRUNSWICK,GA,31.215528,-81.481732,F,,(912) 262-0171,Georgia,Little Caesars,2024-11-01
2890,33270002,1220 MADISON AVENUE,,DOUGLAS,GA,31.51936,-82.849197,F,,(912) 384-9595,Georgia,Little Caesars,2024-11-01
2893,12200001,2105 W. HIGHWAY 60,,GLOBE,AZ,33.420356,-110.815571,F,,(928) 425-4417,Arizona,Little Caesars,2024-11-01
2916,10850002,1512 N DIXIE AVE,,ELIZABETHTOWN,KY,37.727019,-85.883969,F,,(270) 769-1442,Kentucky,Little Caesars,2024-11-01
2925,37000001,3460 SUNSET AVENUE,,ROCKY MOUNT,NC,35.963974,-77.848343,F,,(252) 937-4322,North Carolina,Little Caesars,2024-11-01
2949,37800001,6915-2 PARADISE VALLEY ROAD,,SAN DIEGO,CA,32.688736,-117.04483,F,,(619) 267-0500,California,Little Caesars,2024-11-01
2965,14000002,4434 WESTERN AVE,,KNOXVILLE,TN,35.971715,-83.987411,F,,(865) 525-8999,Tennessee,Little Caesars,2024-11-01
2969,16180036,2020 NICKERSON,,HAMPTON,VA,37.04784,-76.309998,F,,(757) 850-0517,Virginia,Little Caesars,2024-11-01
2984,31880002,12010-A NE 4TH PLAIN,,VANCOUVER,WA,45.668781,-122.54851,F,,(360) 892-5500,Washington,Little Caesars,2024-11-01
2994,17590001,1725 W. PALMETTO ST.,,FLORENCE,SC,34.190232,-79.801964,F,,(843) 664-1005,South Carolina,Little Caesars,2024-11-01
2997,17590002,313 2ND LOOP,,FLORENCE,SC,34.167024,-79.767011,F,,(843) 669-6999,South Carolina,Little Caesars,2024-11-01
2998,3370001,808 S MAIN ST,,LONDON,KY,37.12297,-84.078219,F,,(606) 864-8787,Kentucky,Little Caesars,2024-11-01
2999,3370002,595 OLD US 25E,,BARBOURVILLE,KY,36.856918,-83.870884,F,,(606) 546-2525,Kentucky,Little Caesars,2024-11-01
3000,3370003,55 BELMONT DRIVE,,SOMERSET,KY,37.077232,-84.618819,F,,(606) 679-2009,Kentucky,Little Caesars,2024-11-01
3004,3370007,95 BERNARD LN,,RUSSELL SPRINGS,KY,37.062654,-85.072945,F,,(270) 866-4800,Kentucky,Little Caesars,2024-11-01
3007,10160001,429 VILLAGE DR,,PRESTONSBURG,KY,37.650288,-82.785751,F,,(606) 886-8215,Kentucky,Little Caesars,2024-11-01
3018,37630001,1124 ROBBINS ROAD,,GRAND HAVEN,MI,43.044263,-86.213758,F,,(616) 846-7510,Michigan,Little Caesars,2024-11-01
3019,13380018,1872 S M-139,,BENTON HARBOR,MI,42.084088,-86.437317,F,,(269) 926-1478,Michigan,Little Caesars,2024-11-01
3021,35740002,825 E LAKETON,,MUSKEGON,MI,43.219113,-86.222701,F,,(231) 726-3535,Michigan,Little Caesars,2024-11-01
3037,80110146,3020 WALTON,,ROCHESTER HILLS,MI,42.683064,-83.194746,C,,(248) 375-2470,Michigan,Little Caesars,2024-11-01
3038,20410002,2125 W BROADWAY BLVD,,SEDALIA,MO,38.707272,-93.262199,F,,(660) 826-9450,Missouri,Little Caesars,2024-11-01
3041,34480012,1087 MEDFORD CENTER,,MEDFORD,OR,42.333141,-122.866,F,,(541) 773-6606,Oregon,Little Caesars,2024-11-01
3043,34480013,1616 WILLIAMS HWY,,GRANTS PASS,OR,42.420292,-123.334,F,,(541) 474-7707,Oregon,Little Caesars,2024-11-01
3046,51320001,180 SHIRREFF AVE,,NORTH BAY,ON,46.331986,-79.463867,F,Little Caesars Pizza,(705) 495 - 6040,,Little Caesars,2024-11-01
3049,3590102,843 RED RIVER RD,,THUNDER BAY,ON,48.445719,-89.248157,F,Little Caesars Pizza,(807) 767 - 2110,,Little Caesars,2024-11-01
3050,47180001,845 DAKOTA STREET,UNIT 3,WINNIPEG,MB,49.830206,-97.106638,F,Little Caesars Pizza,(204) 257 - 5555,,Little Caesars,2024-11-01
3051,3600001,1032 BOLL WEEVIL CIR,,ENTERPRISE,AL,31.305111,-85.829697,F,,(334) 347-7769,Alabama,Little Caesars,2024-11-01
3053,3600003,1550 WESTGATE PKWY,STE 8,DOTHAN,AL,31.257868,-85.432012,F,,(334) 671-1818,Alabama,Little Caesars,2024-11-01
3054,3600004,919 DALEVILLE AVE,,DALEVILLE,AL,31.319914,-85.711061,F,,(334) 598-6429,Alabama,Little Caesars,2024-11-01
3055,3600005,2090 S. Oates St.,,DOTHAN,AL,31.196323,-85.399477,F,,(334) 671-2700,Alabama,Little Caesars,2024-11-01
3066,14100001,656 N MCCARRAN BLVD,,SPARKS,NV,39.540476,-119.732376,F,,(775) 331-1188,Nevada,Little Caesars,2024-11-01
3067,14100002,951 MOANA LANE,,RENO,NV,39.49131,-119.806,F,,(775) 826-8999,Nevada,Little Caesars,2024-11-01
3070,20050001,10555 STEAD BLVD,,RENO,NV,39.624027,-119.882666,F,,(775) 972-6600,Nevada,Little Caesars,2024-11-01
3075,12290002,2443 GALLIA,,PORTSMOUTH,OH,38.738758,-82.969681,F,,(740) 353-5333,Ohio,Little Caesars,2024-11-01
3076,12290003,861 SECOND ST,,GALLIPOLIS,OH,38.813999,-82.195801,F,,(740) 441-1400,Ohio,Little Caesars,2024-11-01
3077,12290004,731 E MAIN ST,,JACKSON,OH,39.042286,-82.629733,F,,(740) 286-7010,Ohio,Little Caesars,2024-11-01
3079,12290005,8064 OHIO RIVER ROAD,,WHEELERSBURG,OH,38.72205,-82.8592,F,,(740) 574-4282,Ohio,Little Caesars,2024-11-01
3080,12290001,1539 US 68,,MAYSVILLE,KY,38.632304,-83.798245,F,,(606) 759-7334,Kentucky,Little Caesars,2024-11-01
3081,3690001,1831 S EAST HARPER RD,,CORINTH,MS,34.912994,-88.498514,F,,(662) 287-8100,Mississippi,Little Caesars,2024-11-01
3085,3690005,2215 DANVILLE RD. SW,,DECATUR,AL,34.57317,-87.011447,F,,(256) 341-5999,Alabama,Little Caesars,2024-11-01
3096,14880014,702 EAST 700 SOUTH,,ST GEORGE,UT,37.096045,-113.568729,F,,(435) 628-8100,Utah,Little Caesars,2024-11-01
3097,14880015,310 W STATE ST,,HURRICANE,UT,37.17696,-113.294,F,,(435) 635-3100,Utah,Little Caesars,2024-11-01
3099,3740001,825 JEFFERSON BLVD,,WEST SACRAMENTO,CA,38.58036,-121.525,F,,(916) 373-1408,California,Little Caesars,2024-11-01
3100,3740002,5029 FRUITRIDGE RD,,SACRAMENTO,CA,38.525219,-121.44592,F,,(916) 456-4800,California,Little Caesars,2024-11-01
3102,3740004,68A W COURT ST,,WOODLAND,CA,38.679276,-121.786868,F,,(530) 662-4226,California,Little Caesars,2024-11-01
3103,3740005,5301 FREEPORT BLVD,SUITE 100,SACRAMENTO,CA,38.526601,-121.496148,F,,(916) 736-2430,California,Little Caesars,2024-11-01
3126,80035880,525-B W. HIGHLAND AVENUE,,SAN BERNARDINO,CA,34.135521,-117.294487,C,,(909) 882-8200,California,Little Caesars,2024-11-01
3128,80035861,"33561 YUCAIPA BLVD, SUITE C-2",OAK GLEN SHOPPING CENTER,YUCAIPA,CA,34.033813,-117.072343,C,,(909) 790-9480,California,Little Caesars,2024-11-01
