[
    {
        "location_name":"Las Vegas #701",
        "street":"1955 N. Nellis Blvd.",
        "city":"Las Vegas",
        "state":"NV",
        "zip":"89115",
        "latitude":36.19496671,
        "longitude":-115.06364465,
        "url":"https:\/\/superiorgrocers.com\/location\/lv-nellis",
        "state_name":"Nevada",
        "brand":"Supreme Grocers",
        "updated":"2024-03-31"
    },
    {
        "location_name":"Bakersfield #134",
        "street":"2100 White Ln.",
        "city":"Bakersfield",
        "state":"CA",
        "zip":"93304",
        "latitude":35.317725,
        "longitude":-119.026632,
        "url":"https:\/\/superiorgrocers.com\/location\/bakersfield",
        "state_name":"California",
        "brand":"Supreme Grocers",
        "updated":"2024-03-31"
    },
    {
        "location_name":"Bakersfield #147",
        "street":"1115 Union Ave",
        "city":"Bakersfield",
        "state":"CA",
        "zip":"93304",
        "latitude":35.366892,
        "longitude":-119.003561,
        "url":"https:\/\/superiorgrocers.com\/location\/bakersfield-union-ave",
        "state_name":"California",
        "brand":"Supreme Grocers",
        "updated":"2024-03-31"
    },
    {
        "location_name":"Baldwin Park #128",
        "street":"14433 Ramona Blvd.",
        "city":"Baldwin Park",
        "state":"CA",
        "zip":"91706",
        "latitude":34.088487,
        "longitude":-117.958922,
        "url":"https:\/\/superiorgrocers.com\/location\/baldwin-park",
        "state_name":"California",
        "brand":"Supreme Grocers",
        "updated":"2024-03-31"
    },
    {
        "location_name":"Bellflower #140",
        "street":"16100 Lakewood Blvd",
        "city":"Bellflower",
        "state":"CA",
        "zip":"90706",
        "latitude":33.888283,
        "longitude":-118.142638,
        "url":"https:\/\/superiorgrocers.com\/location\/bellflower",
        "state_name":"California",
        "brand":"Supreme Grocers",
        "updated":"2024-03-31"
    },
    {
        "location_name":"Carson #313",
        "street":"129 E. Lomita Blvd.",
        "city":"Carson",
        "state":"CA",
        "zip":"90745",
        "latitude":33.79875,
        "longitude":-118.27395,
        "url":"https:\/\/superiorgrocers.com\/location\/carson",
        "state_name":"California",
        "brand":"Supreme Grocers",
        "updated":"2024-03-31"
    },
    {
        "location_name":"City of Industry #114",
        "street":"151 S. Hacienda Blvd.",
        "city":"City of Industry",
        "state":"CA",
        "zip":"91744",
        "latitude":34.021226,
        "longitude":-117.959425,
        "url":"https:\/\/superiorgrocers.com\/location\/city-of-industry",
        "state_name":"California",
        "brand":"Supreme Grocers",
        "updated":"2024-03-31"
    },
    {
        "location_name":"Compton #112",
        "street":"111 E. Compton Blvd.",
        "city":"Compton",
        "state":"CA",
        "zip":"90220",
        "latitude":33.897131,
        "longitude":-118.22395,
        "url":"https:\/\/superiorgrocers.com\/location\/compton",
        "state_name":"California",
        "brand":"Supreme Grocers",
        "updated":"2024-03-31"
    },
    {
        "location_name":"Covina #115",
        "street":"1375 N. Citrus Ave.",
        "city":"Covina",
        "state":"CA",
        "zip":"91722",
        "latitude":34.105322,
        "longitude":-117.890251,
        "url":"https:\/\/superiorgrocers.com\/location\/covina",
        "state_name":"California",
        "brand":"Supreme Grocers",
        "updated":"2024-03-31"
    },
    {
        "location_name":"Cudahy #105",
        "street":"7300 Atlantic Ave.",
        "city":"Cudahy",
        "state":"CA",
        "zip":"90201",
        "latitude":33.968829,
        "longitude":-118.187667,
        "url":"https:\/\/superiorgrocers.com\/location\/cudahy",
        "state_name":"California",
        "brand":"Supreme Grocers",
        "updated":"2024-03-31"
    },
    {
        "location_name":"El Monte #145",
        "street":"9900 E. Garvey Ave.",
        "city":"El Monte",
        "state":"CA",
        "zip":"91733",
        "latitude":34.06262,
        "longitude":-118.0521,
        "url":"https:\/\/superiorgrocers.com\/location\/el-monte",
        "state_name":"California",
        "brand":"Supreme Grocers",
        "updated":"2024-03-31"
    },
    {
        "location_name":"El Monte #145",
        "street":"9900 E. Garvey Ave.",
        "city":"El Monte",
        "state":"CA",
        "zip":"91733",
        "latitude":34.06262,
        "longitude":-118.0521,
        "url":"https:\/\/superiorgrocers.com\/location\/el-monte",
        "state_name":"California",
        "brand":"Supreme Grocers",
        "updated":"2024-03-31"
    },
    {
        "location_name":"Gardena #142",
        "street":"15000 Crenshaw Blvd",
        "city":"Gardena",
        "state":"CA",
        "zip":"90249",
        "latitude":33.894756,
        "longitude":-118.32558,
        "url":"https:\/\/superiorgrocers.com\/location\/gardena",
        "state_name":"California",
        "brand":"Supreme Grocers",
        "updated":"2024-03-31"
    },
    {
        "location_name":"Huntington Park #107",
        "street":"6010 Pacific Blvd.",
        "city":"Huntington Park",
        "state":"CA",
        "zip":"90255",
        "latitude":33.986735,
        "longitude":-118.225208,
        "url":"https:\/\/superiorgrocers.com\/location\/huntington-park",
        "state_name":"California",
        "brand":"Supreme Grocers",
        "updated":"2024-03-31"
    },
    {
        "location_name":"Inglewood #123",
        "street":"250 N. La Brea Blvd.",
        "city":"Inglewood",
        "state":"CA",
        "zip":"90301",
        "latitude":33.96504,
        "longitude":-118.35326,
        "url":"https:\/\/superiorgrocers.com\/location\/inglewood",
        "state_name":"California",
        "brand":"Supreme Grocers",
        "updated":"2024-03-31"
    },
    {
        "location_name":"Inglewood #123",
        "street":"250 N. La Brea Blvd.",
        "city":"Inglewood",
        "state":"CA",
        "zip":"90301",
        "latitude":33.96504,
        "longitude":-118.35326,
        "url":"https:\/\/superiorgrocers.com\/location\/inglewood",
        "state_name":"California",
        "brand":"Supreme Grocers",
        "updated":"2024-03-31"
    },
    {
        "location_name":"Lancaster #133",
        "street":"1010 E. Avenue J",
        "city":"Lancaster",
        "state":"CA",
        "zip":"93535",
        "latitude":34.688427,
        "longitude":-118.112633,
        "url":"https:\/\/superiorgrocers.com\/location\/lancaster",
        "state_name":"California",
        "brand":"Supreme Grocers",
        "updated":"2024-03-31"
    },
    {
        "location_name":"Lennox #316",
        "street":"10819 Hawthorne Blvd.",
        "city":"Lennox",
        "state":"CA",
        "zip":"90304",
        "latitude":33.93753,
        "longitude":-118.35328,
        "url":"https:\/\/superiorgrocers.com\/location\/lennox",
        "state_name":"California",
        "brand":"Supreme Grocers",
        "updated":"2024-03-31"
    },
    {
        "location_name":"Long Beach #119",
        "street":"5450 Cherry Ave.",
        "city":"Long Beach",
        "state":"CA",
        "zip":"90805",
        "latitude":33.855734,
        "longitude":-118.16825,
        "url":"https:\/\/superiorgrocers.com\/location\/cherry-ave",
        "state_name":"California",
        "brand":"Supreme Grocers",
        "updated":"2024-03-31"
    },
    {
        "location_name":"Long Beach #117",
        "street":"1033 Long Beach Blvd.",
        "city":"Long Beach",
        "state":"CA",
        "zip":"90813",
        "latitude":33.77978,
        "longitude":-118.18995,
        "url":"https:\/\/superiorgrocers.com\/location\/long-beach",
        "state_name":"California",
        "brand":"Supreme Grocers",
        "updated":"2024-03-31"
    },
    {
        "location_name":"Los Angeles #101",
        "street":"10211 S. Avalon Blvd.",
        "city":"Los Angeles",
        "state":"CA",
        "zip":"90003",
        "latitude":33.9434167,
        "longitude":-118.265397,
        "url":"https:\/\/superiorgrocers.com\/location\/avalon",
        "state_name":"California",
        "brand":"Supreme Grocers",
        "updated":"2024-03-31"
    },
    {
        "location_name":"Los Angeles #129",
        "street":"133 W. Avenue 45",
        "city":"Los Angeles",
        "state":"CA",
        "zip":"90065",
        "latitude":34.0964919,
        "longitude":-118.2070468,
        "url":"https:\/\/superiorgrocers.com\/location\/los-angeles",
        "state_name":"California",
        "brand":"Supreme Grocers",
        "updated":"2024-03-31"
    },
    {
        "location_name":"Los Angeles #113",
        "street":"3600 Cesar E. Chavez Ave.",
        "city":"Los Angeles",
        "state":"CA",
        "zip":"90063",
        "latitude":34.04024,
        "longitude":-118.185834,
        "url":"https:\/\/superiorgrocers.com\/location\/cesar-chavez",
        "state_name":"California",
        "brand":"Supreme Grocers",
        "updated":"2024-03-31"
    },
    {
        "location_name":"Los Angeles #102",
        "street":"7316 S. Compton Ave. ",
        "city":"Los Angeles",
        "state":"CA",
        "zip":"90001",
        "latitude":33.973639,
        "longitude":-118.247677,
        "url":"https:\/\/superiorgrocers.com\/location\/compton-ave",
        "state_name":"California",
        "brand":"Supreme Grocers",
        "updated":"2024-03-31"
    },
    {
        "location_name":"Los Angeles #116",
        "street":"5824 S. Vermont Ave. ",
        "city":"Los Angeles",
        "state":"CA",
        "zip":"90044",
        "latitude":33.9883693,
        "longitude":-118.2896662,
        "url":"https:\/\/superiorgrocers.com\/location\/vermont-ave",
        "state_name":"California",
        "brand":"Supreme Grocers",
        "updated":"2024-03-31"
    },
    {
        "location_name":"Los Angeles #108",
        "street":"8811 S. Western Ave. ",
        "city":"Los Angeles",
        "state":"CA",
        "zip":"90047",
        "latitude":33.957304,
        "longitude":-118.309021,
        "url":"https:\/\/superiorgrocers.com\/location\/western-ave",
        "state_name":"California",
        "brand":"Supreme Grocers",
        "updated":"2024-03-31"
    },
    {
        "location_name":"Los Angeles #135",
        "street":"2000 S. Central Ave. ",
        "city":"Los Angeles",
        "state":"CA",
        "zip":"90011",
        "latitude":34.022874,
        "longitude":-118.251957,
        "url":"https:\/\/superiorgrocers.com\/location\/central-ave",
        "state_name":"California",
        "brand":"Supreme Grocers",
        "updated":"2024-03-31"
    },
    {
        "location_name":"Los Angeles #139",
        "street":"3480 S. La Brea Ave. ",
        "city":"Los Angeles",
        "state":"CA",
        "zip":"90016",
        "latitude":34.023276,
        "longitude":-118.355607,
        "url":"https:\/\/superiorgrocers.com\/location\/la-brea",
        "state_name":"California",
        "brand":"Supreme Grocers",
        "updated":"2024-03-31"
    },
    {
        "location_name":"Los Angeles #201",
        "street":"4040 W. Washington Blvd",
        "city":"Los Angeles",
        "state":"CA",
        "zip":"90018",
        "latitude":34.03984,
        "longitude":-118.32715,
        "url":"https:\/\/superiorgrocers.com\/location\/washington-blvd",
        "state_name":"California",
        "brand":"Supreme Grocers",
        "updated":"2024-03-31"
    },
    {
        "location_name":"Los Angeles #301",
        "street":"701 E. Jefferson Blvd.",
        "city":"Los Angeles",
        "state":"CA",
        "zip":"90011",
        "latitude":34.01487,
        "longitude":-118.26386,
        "url":"https:\/\/superiorgrocers.com\/location\/jefferson-blvd",
        "state_name":"California",
        "brand":"Supreme Grocers",
        "updated":"2024-03-31"
    },
    {
        "location_name":"Los Angeles #302",
        "street":"1309 S. Alvarado St.",
        "city":"Los Angeles",
        "state":"CA",
        "zip":"90006",
        "latitude":34.04535,
        "longitude":-118.28404,
        "url":"https:\/\/superiorgrocers.com\/location\/alvarado",
        "state_name":"California",
        "brand":"Supreme Grocers",
        "updated":"2024-03-31"
    },
    {
        "location_name":"Los Angeles #303",
        "street":"9127 S. Figueroa St.",
        "city":"Los Angeles",
        "state":"CA",
        "zip":"90003",
        "latitude":33.95397,
        "longitude":-118.2828,
        "url":"https:\/\/superiorgrocers.com\/location\/figueroa",
        "state_name":"California",
        "brand":"Supreme Grocers",
        "updated":"2024-03-31"
    },
    {
        "location_name":"Los Angeles #304",
        "street":"310 E. Manchester Ave",
        "city":"Los Angeles",
        "state":"CA",
        "zip":"90003",
        "latitude":33.96002,
        "longitude":-118.26875,
        "url":"https:\/\/superiorgrocers.com\/location\/manchester",
        "state_name":"California",
        "brand":"Supreme Grocers",
        "updated":"2024-03-31"
    },
    {
        "location_name":"Los Angeles #305",
        "street":"2214 S. San Pedro St.",
        "city":"Los Angeles",
        "state":"CA",
        "zip":"90011",
        "latitude":34.02485,
        "longitude":-118.25909,
        "url":"https:\/\/superiorgrocers.com\/location\/san-pedro-st",
        "state_name":"California",
        "brand":"Supreme Grocers",
        "updated":"2024-03-31"
    },
    {
        "location_name":"Los Angeles #307",
        "street":"4710 S. Broadway St.",
        "city":"Los Angeles",
        "state":"CA",
        "zip":"90037",
        "latitude":33.99992,
        "longitude":-118.27822,
        "url":"https:\/\/superiorgrocers.com\/location\/broadway",
        "state_name":"California",
        "brand":"Supreme Grocers",
        "updated":"2024-03-31"
    },
    {
        "location_name":"Los Angeles #308",
        "street":"4373 S. Vermont Ave",
        "city":"Los Angeles",
        "state":"CA",
        "zip":"90003",
        "latitude":34.00454,
        "longitude":-118.29165,
        "url":"https:\/\/superiorgrocers.com\/location\/vermont",
        "state_name":"California",
        "brand":"Supreme Grocers",
        "updated":"2024-03-31"
    },
    {
        "location_name":"Los Angeles #310",
        "street":"1831 W. 3rd St.",
        "city":"Los Angeles",
        "state":"CA",
        "zip":"90057",
        "latitude":34.06167,
        "longitude":-118.26952,
        "url":"https:\/\/superiorgrocers.com\/location\/third-st",
        "state_name":"California",
        "brand":"Supreme Grocers",
        "updated":"2024-03-31"
    },
    {
        "location_name":"Los Angeles #319",
        "street":"4831 Whittier Blvd.",
        "city":"Los Angeles",
        "state":"CA",
        "zip":"90022",
        "latitude":34.02173,
        "longitude":-118.16348,
        "url":"https:\/\/superiorgrocers.com\/location\/whittier",
        "state_name":"California",
        "brand":"Supreme Grocers",
        "updated":"2024-03-31"
    },
    {
        "location_name":"Lynwood #103",
        "street":"9990 Long Beach Blvd.",
        "city":"Lynwood",
        "state":"CA",
        "zip":"90262",
        "latitude":33.94479,
        "longitude":-118.21586,
        "url":"https:\/\/superiorgrocers.com\/location\/lynwood",
        "state_name":"California",
        "brand":"Supreme Grocers",
        "updated":"2024-03-31"
    },
    {
        "location_name":"Lynwood #103",
        "street":"9990 Long Beach Blvd.",
        "city":"Lynwood",
        "state":"CA",
        "zip":"90262",
        "latitude":33.94479,
        "longitude":-118.21586,
        "url":"https:\/\/superiorgrocers.com\/location\/lynwood",
        "state_name":"California",
        "brand":"Supreme Grocers",
        "updated":"2024-03-31"
    },
    {
        "location_name":"Maywood #143",
        "street":"4308 E Slauson Ave",
        "city":"Maywood",
        "state":"CA",
        "zip":"90270",
        "latitude":33.9871709,
        "longitude":-118.1897564,
        "url":"https:\/\/superiorgrocers.com\/location\/maywood",
        "state_name":"California",
        "brand":"Supreme Grocers",
        "updated":"2024-03-31"
    },
    {
        "location_name":"Montebello #106",
        "street":"1201 W. Whittier Blvd.",
        "city":"Montebello",
        "state":"CA",
        "zip":"90640",
        "latitude":34.010993,
        "longitude":-118.112896,
        "url":"https:\/\/superiorgrocers.com\/location\/montebello",
        "state_name":"California",
        "brand":"Supreme Grocers",
        "updated":"2024-03-31"
    },
    {
        "location_name":"North Hollywood #118",
        "street":"6140 Lankershim Blvd. ",
        "city":"North Hollywood",
        "state":"CA",
        "zip":"91606",
        "latitude":34.183042,
        "longitude":-118.385208,
        "url":"https:\/\/superiorgrocers.com\/location\/north-hollywood",
        "state_name":"California",
        "brand":"Supreme Grocers",
        "updated":"2024-03-31"
    },
    {
        "location_name":"Norwalk #318",
        "street":"10951 Rosecrans Ave.",
        "city":"Norwalk",
        "state":"CA",
        "zip":"90650",
        "latitude":33.90224,
        "longitude":-118.10254,
        "url":"https:\/\/superiorgrocers.com\/location\/norwalk",
        "state_name":"California",
        "brand":"Supreme Grocers",
        "updated":"2024-03-31"
    },
    {
        "location_name":"Pacoima #111",
        "street":"9801 Laurel Canyon Blvd.",
        "city":"Pacoima",
        "state":"CA",
        "zip":"91331",
        "latitude":34.247985,
        "longitude":-118.420731,
        "url":"https:\/\/superiorgrocers.com\/location\/pacoima",
        "state_name":"California",
        "brand":"Supreme Grocers",
        "updated":"2024-03-31"
    },
    {
        "location_name":"Pacoima #311",
        "street":"10455 Laurel Canyon Blvd.",
        "city":"Pacoima",
        "state":"CA",
        "zip":"91331",
        "latitude":34.25944,
        "longitude":-118.43296,
        "url":"https:\/\/superiorgrocers.com\/location\/laurel-canyon",
        "state_name":"California",
        "brand":"Supreme Grocers",
        "updated":"2024-03-31"
    },
    {
        "location_name":"Palmdale #137",
        "street":"38360 20th St E.",
        "city":"Palmdale",
        "state":"CA",
        "zip":"93550",
        "latitude":34.578732,
        "longitude":-118.09407,
        "url":"https:\/\/superiorgrocers.com\/location\/palmdale",
        "state_name":"California",
        "brand":"Supreme Grocers",
        "updated":"2024-03-31"
    },
    {
        "location_name":"Pico Rivera #131",
        "street":"9100 Whittier Blvd.",
        "city":"Pico Rivera",
        "state":"CA",
        "zip":"90660",
        "latitude":34.000642,
        "longitude":-118.082408,
        "url":"https:\/\/superiorgrocers.com\/location\/pico-rivera",
        "state_name":"California",
        "brand":"Supreme Grocers",
        "updated":"2024-03-31"
    },
    {
        "location_name":"Pomona #144",
        "street":"3180 North Garey Ave",
        "city":"Pomona",
        "state":"CA",
        "zip":"91767",
        "latitude":34.10594,
        "longitude":-117.748386,
        "url":"https:\/\/superiorgrocers.com\/location\/pomona",
        "state_name":"California",
        "brand":"Supreme Grocers",
        "updated":"2024-03-31"
    },
    {
        "location_name":"San Pedro #306",
        "street":"500 S. Pacific Ave.",
        "city":"San Pedro",
        "state":"CA",
        "zip":"90731",
        "latitude":33.73928,
        "longitude":-118.28779,
        "url":"https:\/\/superiorgrocers.com\/location\/san-pedro-pacific",
        "state_name":"California",
        "brand":"Supreme Grocers",
        "updated":"2024-03-31"
    },
    {
        "location_name":"San Pedro #321",
        "street":"970 W 1st St.",
        "city":"San Pedro",
        "state":"CA",
        "zip":"90731",
        "latitude":33.74344,
        "longitude":-118.29793,
        "url":"https:\/\/superiorgrocers.com\/location\/san-pedro-1st",
        "state_name":"California",
        "brand":"Supreme Grocers",
        "updated":"2024-03-31"
    },
    {
        "location_name":"South El Monte #104",
        "street":"1858 N. Durfee Ave.",
        "city":"South El Monte",
        "state":"CA",
        "zip":"91733",
        "latitude":34.044143,
        "longitude":-118.03179,
        "url":"https:\/\/superiorgrocers.com\/location\/south-el-monte",
        "state_name":"California",
        "brand":"Supreme Grocers",
        "updated":"2024-03-31"
    },
    {
        "location_name":"Torrance #309",
        "street":"1141 W. Carson St.",
        "city":"Torrance",
        "state":"CA",
        "zip":"90502",
        "latitude":33.83165,
        "longitude":-118.29657,
        "url":"https:\/\/superiorgrocers.com\/location\/torrance",
        "state_name":"California",
        "brand":"Supreme Grocers",
        "updated":"2024-03-31"
    },
    {
        "location_name":"Hawthorne #146",
        "street":"12630 Hawthorne Blvd",
        "city":"Hawthorne",
        "state":"CA",
        "zip":"90250",
        "latitude":33.917455,
        "longitude":-118.3503,
        "url":"https:\/\/superiorgrocers.com\/location\/hawthorne",
        "state_name":"California",
        "brand":"Supreme Grocers",
        "updated":"2024-03-31"
    },
    {
        "location_name":"La Mirada #141",
        "street":"12721 Valley View Ave",
        "city":"La Mirada",
        "state":"CA",
        "zip":"90638",
        "latitude":33.916316,
        "longitude":-118.029492,
        "url":"https:\/\/superiorgrocers.com\/location\/la-mirada",
        "state_name":"California",
        "brand":"Supreme Grocers",
        "updated":"2024-03-31"
    },
    {
        "location_name":"Anaheim #317",
        "street":"1086 N. State College Blvd.",
        "city":"Anaheim",
        "state":"CA",
        "zip":"92806",
        "latitude":33.84829,
        "longitude":-117.88911,
        "url":"https:\/\/superiorgrocers.com\/location\/anaheim",
        "state_name":"California",
        "brand":"Supreme Grocers",
        "updated":"2024-03-31"
    },
    {
        "location_name":"Buena Park #136",
        "street":"6931 La Palma Ave.",
        "city":"Buena Park",
        "state":"CA",
        "zip":"90620",
        "latitude":33.8465151,
        "longitude":-118.01304,
        "url":"https:\/\/superiorgrocers.com\/location\/buena-park",
        "state_name":"California",
        "brand":"Supreme Grocers",
        "updated":"2024-03-31"
    },
    {
        "location_name":"Santa Ana #132",
        "street":"2009 W. 1st St.",
        "city":"Santa Ana",
        "state":"CA",
        "zip":"92703",
        "latitude":33.7454725,
        "longitude":-117.8965992,
        "url":"https:\/\/superiorgrocers.com\/location\/santa-ana-1",
        "state_name":"California",
        "brand":"Supreme Grocers",
        "updated":"2024-03-31"
    },
    {
        "location_name":"Santa Ana #110",
        "street":"1720 E. 17th St. ",
        "city":"Santa Ana",
        "state":"CA",
        "zip":"92705",
        "latitude":33.759928,
        "longitude":-117.842715,
        "url":"https:\/\/superiorgrocers.com\/location\/santa-ana-17",
        "state_name":"California",
        "brand":"Supreme Grocers",
        "updated":"2024-03-31"
    },
    {
        "location_name":"Santa Ana #109",
        "street":"1710 S. Main St. ",
        "city":"Santa Ana",
        "state":"CA",
        "zip":"92707",
        "latitude":33.72467,
        "longitude":-117.867831,
        "url":"https:\/\/superiorgrocers.com\/location\/santa-ana",
        "state_name":"California",
        "brand":"Supreme Grocers",
        "updated":"2024-03-31"
    },
    {
        "location_name":"Corona #126",
        "street":"1130 West 6th St. ",
        "city":"Corona",
        "state":"CA",
        "zip":"92882",
        "latitude":33.87745,
        "longitude":-117.585584,
        "url":"https:\/\/superiorgrocers.com\/location\/corona",
        "state_name":"California",
        "brand":"Supreme Grocers",
        "updated":"2024-03-31"
    },
    {
        "location_name":"Moreno Valley #127",
        "street":"23857 Sunnymead Blvd.",
        "city":"Moreno Valley",
        "state":"CA",
        "zip":"92553",
        "latitude":33.938981,
        "longitude":-117.249132,
        "url":"https:\/\/superiorgrocers.com\/location\/moreno-valley",
        "state_name":"California",
        "brand":"Supreme Grocers",
        "updated":"2024-03-31"
    },
    {
        "location_name":"Chino #125",
        "street":"12375 Central Ave.",
        "city":"Chino",
        "state":"CA",
        "zip":"91710",
        "latitude":34.026319,
        "longitude":-117.688042,
        "url":"https:\/\/superiorgrocers.com\/location\/chino",
        "state_name":"California",
        "brand":"Supreme Grocers",
        "updated":"2024-03-31"
    },
    {
        "location_name":"Fontana #122",
        "street":"16055 Foothill Blvd.",
        "city":"Fontana",
        "state":"CA",
        "zip":"92335",
        "latitude":34.106497,
        "longitude":-117.454901,
        "url":"https:\/\/superiorgrocers.com\/location\/fontana",
        "state_name":"California",
        "brand":"Supreme Grocers",
        "updated":"2024-03-31"
    },
    {
        "location_name":"Ontario #120",
        "street":"815 W. Holt Blvd.",
        "city":"Ontario",
        "state":"CA",
        "zip":"91762",
        "latitude":34.062357,
        "longitude":-117.664398,
        "url":"https:\/\/superiorgrocers.com\/location\/ontario",
        "state_name":"California",
        "brand":"Supreme Grocers",
        "updated":"2024-03-31"
    },
    {
        "location_name":"Rialto #121",
        "street":"151 West Base Line Ave.",
        "city":"Rialto",
        "state":"CA",
        "zip":"92376",
        "latitude":34.120856,
        "longitude":-117.37039,
        "url":"https:\/\/superiorgrocers.com\/location\/rialto",
        "state_name":"California",
        "brand":"Supreme Grocers",
        "updated":"2024-03-31"
    },
    {
        "location_name":"San Bernardino #130",
        "street":"1108 West 2nd St.  ",
        "city":"San Bernardino",
        "state":"CA",
        "zip":"92410",
        "latitude":34.10273,
        "longitude":-117.309411,
        "url":"https:\/\/superiorgrocers.com\/location\/san-bernardino",
        "state_name":"California",
        "brand":"Supreme Grocers",
        "updated":"2024-03-31"
    },
    {
        "location_name":"Victorville #148",
        "street":"14668 7th St.",
        "city":"Victorville",
        "state":"CA",
        "zip":"92395",
        "latitude":34.5184363,
        "longitude":-117.3165726,
        "url":"https:\/\/superiorgrocers.com\/location\/victorville",
        "state_name":"California",
        "brand":"Supreme Grocers",
        "updated":"2024-03-31"
    },
    {
        "location_name":"Dinuba #150",
        "street":"2150 E El Monte Way",
        "city":"Dinuba",
        "state":"CA",
        "zip":"93618",
        "latitude":36.5440044,
        "longitude":-119.3714358,
        "url":"https:\/\/superiorgrocers.com\/location\/dinuba",
        "state_name":"California",
        "brand":"Supreme Grocers",
        "updated":"2024-03-31"
    },
    {
        "location_name":"Tulare #151",
        "street":"115 S West St",
        "city":"Tulare",
        "state":"CA",
        "zip":"93274",
        "latitude":36.2058814,
        "longitude":-119.3692313,
        "url":"https:\/\/superiorgrocers.com\/location\/tulare",
        "state_name":"California",
        "brand":"Supreme Grocers",
        "updated":"2024-03-31"
    },
    {
        "location_name":"Oxnard #138",
        "street":"2401 Saviers Road",
        "city":"Oxnard",
        "state":"CA",
        "zip":"93033",
        "latitude":34.176216,
        "longitude":-119.177687,
        "url":"https:\/\/superiorgrocers.com\/location\/oxnard",
        "state_name":"California",
        "brand":"Supreme Grocers",
        "updated":"2024-03-31"
    },
    {
        "location_name":"Oxnard #323",
        "street":"1111 E. Channel Islands Blvd.",
        "city":"Oxnard",
        "state":"CA",
        "zip":"93033",
        "latitude":34.17346,
        "longitude":-119.16528,
        "url":"https:\/\/superiorgrocers.com\/location\/channel-islands",
        "state_name":"California",
        "brand":"Supreme Grocers",
        "updated":"2024-03-31"
    },
    {
        "location_name":"Santa Paula #202",
        "street":"280 East Harvard Blvd.",
        "city":"Santa Paula",
        "state":"CA",
        "zip":"93060",
        "latitude":34.3470518,
        "longitude":-119.0683359,
        "url":"https:\/\/superiorgrocers.com\/location\/santa-paula",
        "state_name":"California",
        "brand":"Supreme Grocers",
        "updated":"2024-03-31"
    }
]